{
 "source": "thefoodcrawl.com /api/creator/mark-wiens (AI transcript extraction; coords via Google Places)",
 "fetched": "2026-07-14",
 "note": "net-new vs wiensmap: restaurants Mark Wiens featured on YouTube that wiensmap.com hasn't mapped",
 "count": 39,
 "restaurants": [
  {
   "name": "Chan Sun Kee",
   "city": "Hong Kong",
   "country": "Hong Kong",
   "lat": 22.302781,
   "lng": 114.183191,
   "cuisine": "Cantonese, Seafood",
   "video_url": "https://www.youtube.com/watch?v=z-iAddtjM7A",
   "video_title": "Garlic Crab Mountain!! 🦀 INSANE SEAFOOD in Hong Kong!! (Typhoon Shelter Crab)",
   "quote": "This one says 'Pun Ying Hoi Sin Ga Gung' which means 'This is okay'. Oh, okay, so you can bring your own fish? Yes. Oh, perfect. Okay. That's the one."
  },
  {
   "name": "Oi Man Sang Kitchen",
   "city": "Hong Kong",
   "country": "Hong Kong",
   "lat": 22.326687,
   "lng": 114.162307,
   "cuisine": "Dai Pai Dong, Cantonese",
   "video_url": "https://www.youtube.com/watch?v=IdRWfYAyP04",
   "video_title": "Hong Kong Street Food - 14 HOURS NONSTOP Best Food in Hong Kong!!",
   "quote": "We're at Oi Man Sang, one of the most famous Dai Pai Dongs in Hong Kong."
  },
  {
   "name": "Haidar Double Falafel",
   "city": "Baghdad",
   "country": "Iraq",
   "lat": 33.318382,
   "lng": 44.394891,
   "cuisine": "Iraqi, Falafel",
   "video_url": "https://www.youtube.com/watch?v=HI4txY4eenc",
   "video_title": "Trying a Giant Iraqi Falafel Sandwich for $1.89!",
   "quote": "This giant Iraqi falafel sandwich costs $1.89"
  },
  {
   "name": "Restoran Kin Kin",
   "city": "Kuala Lumpur",
   "country": "Malaysia",
   "lat": 3.160771,
   "lng": 101.698272,
   "cuisine": "Malaysian Chinese, Noodles",
   "video_url": "https://www.youtube.com/watch?v=bF1VamLDso4",
   "video_title": "I Tried the World’s Spiciest Malaysian Food!! (Almost Died)",
   "quote": "And behind me is a restaurant which is called Restoran Kin Kin. They are credited with inventing a dish which is called Chili Pan Mee, the ultimate spicy Malaysian noodle dish."
  },
  {
   "name": "Shi Fu Noodle House",
   "city": "Kuala Lumpur",
   "country": "Malaysia",
   "lat": 3.089278,
   "lng": 101.74265,
   "cuisine": "Malaysian, Noodles",
   "video_url": "https://www.youtube.com/watch?v=bF1VamLDso4",
   "video_title": "I Tried the World’s Spiciest Malaysian Food!! (Almost Died)",
   "quote": "because there's a restaurant that not only serves Malaysia's spiciest, but it's the world's spiciest Chili Pan Mee noodles."
  },
  {
   "name": "Balıkçı Lokantası Restaurant",
   "city": "Istanbul",
   "country": "Turkey",
   "lat": 40.993763,
   "lng": 29.025717,
   "cuisine": "Seafood",
   "video_url": "https://www.youtube.com/watch?v=5oj_tT6pOOg",
   "video_title": "Turkish Food Tour in Istanbul - BEST Kebabs of My Life, AMAZING Seafood, and Turkish Ice Cream!",
   "quote": "Of all the meals I ate in Istanbul, this was one of my personal favorites, being a seafood lover. Not a far walk from the market, we went to a local family run seafood restaurant called Balıkçı Lokant"
  },
  {
   "name": "Çakmak Kahvaltı Salonu",
   "city": "Istanbul",
   "country": "Turkey",
   "lat": 41.043512,
   "lng": 29.003262,
   "cuisine": "Turkish Breakfast",
   "video_url": "https://www.youtube.com/watch?v=5oj_tT6pOOg",
   "video_title": "Turkish Food Tour in Istanbul - BEST Kebabs of My Life, AMAZING Seafood, and Turkish Ice Cream!",
   "quote": "For breakfast we headed to Beşiktaş, one of my favorite areas of Istanbul, and went to a restaurant known for serving breakfast. The breakfast was amazing, and I ate a dish of eggs with beef and butte"
  },
  {
   "name": "Simit Stall",
   "city": "Istanbul",
   "country": "Turkey",
   "lat": 41.036145,
   "lng": 28.984444,
   "cuisine": "Turkish Street Food",
   "video_url": "https://www.youtube.com/watch?v=5oj_tT6pOOg",
   "video_title": "Turkish Food Tour in Istanbul - BEST Kebabs of My Life, AMAZING Seafood, and Turkish Ice Cream!",
   "quote": "I decided to get a quick simit. This is something that you will see everywhere walking around Istanbul. This is one of the most popular snacks on the go or light meals."
  },
  {
   "name": "Corenucopia by Clare Smyth",
   "city": "Belgravia",
   "country": "United Kingdom",
   "lat": 51.490271,
   "lng": -0.155474,
   "cuisine": "Fine Dining",
   "video_url": "https://www.youtube.com/watch?v=tSSjS0-Jai4",
   "video_title": "London’s Best Fish and Chips!! (The Only Guide You Need)",
   "quote": "Next up, the category is the best fine dining fish and chips, and so we're at a restaurant, it's called Corenucopia by three Michelin star chef Clare Smyth."
  },
  {
   "name": "E Pellicci",
   "city": "Bethnal Green",
   "country": "United Kingdom",
   "lat": 51.526476,
   "lng": -0.063429,
   "cuisine": "Cafe, British",
   "video_url": "https://www.youtube.com/watch?v=ErC84aLFUDI",
   "video_title": "London’s Oldest Restaurants - We DID NOT Expect This!",
   "quote": "And we're starting in the year 1900 to try one of London's oldest cafes for the oldest full English breakfast."
  },
  {
   "name": "Beigel Shop",
   "city": "Brick Lane, London",
   "country": "United Kingdom",
   "lat": 51.633068,
   "lng": 0.008969,
   "cuisine": "Jewish Bakery",
   "video_url": "https://www.youtube.com/watch?v=VlYD4iSEe-4",
   "video_title": "We Ate the Best BRITISH FOOD in London in 24 Hours!!",
   "quote": "This is like one of the most iconic, sort of like street foody places around London."
  },
  {
   "name": "Rules",
   "city": "Covent Garden",
   "country": "United Kingdom",
   "lat": 51.510833,
   "lng": -0.123169,
   "cuisine": "British",
   "video_url": "https://www.youtube.com/watch?v=ErC84aLFUDI",
   "video_title": "London’s Oldest Restaurants - We DID NOT Expect This!",
   "quote": "We have made it to the year 1798 and behind me is Rules, which is the oldest continually open restaurant in all of London."
  },
  {
   "name": "Max's Sandwich Shop",
   "city": "Finsbury Park, London",
   "country": "United Kingdom",
   "lat": 51.570728,
   "lng": -0.116429,
   "cuisine": "Sandwiches",
   "video_url": "https://www.youtube.com/watch?v=VlYD4iSEe-4",
   "video_title": "We Ate the Best BRITISH FOOD in London in 24 Hours!!",
   "quote": "This place is a sandwich shop which is a restaurant."
  },
  {
   "name": "The Tamil Prince",
   "city": "Islington, London",
   "country": "United Kingdom",
   "lat": 51.540932,
   "lng": -0.113714,
   "cuisine": "Indian, Pub Food",
   "video_url": "https://www.youtube.com/watch?v=VlYD4iSEe-4",
   "video_title": "We Ate the Best BRITISH FOOD in London in 24 Hours!!",
   "quote": "The Desi Pub is a classic pub that's been taken over by Indian cooking."
  },
  {
   "name": "Blacklock",
   "city": "London",
   "country": "United Kingdom",
   "lat": 51.511778,
   "lng": -0.134697,
   "cuisine": "British, Chop House",
   "video_url": "https://www.youtube.com/watch?v=1SS6_0G2olg",
   "video_title": "Trying London's Biggest Sunday Roast! 🥩",
   "quote": "welcome to Blacklock a British chop house"
  },
  {
   "name": "Bomba Paella",
   "city": "London",
   "country": "United Kingdom",
   "lat": 51.505555,
   "lng": -0.090694,
   "cuisine": "Spanish, Paella",
   "video_url": "https://www.youtube.com/watch?v=8frIFTQJg1c",
   "video_title": "Best London Street Food at Borough Market (1,000 Years Old!!)",
   "quote": "Okay, here's a fresh batch of the paella. Look at the size of that pan. It's huge. So we're back now at Bomba Paella."
  },
  {
   "name": "Bread Ahead",
   "city": "London",
   "country": "United Kingdom",
   "lat": 51.505787,
   "lng": -0.090431,
   "cuisine": "Bakery, Doughnuts",
   "video_url": "https://www.youtube.com/watch?v=8frIFTQJg1c",
   "video_title": "Best London Street Food at Borough Market (1,000 Years Old!!)",
   "quote": "Welcome to Bread Ahead. Again, this is a stall that is so well known that nobody misses when they come to Borough Market. They're known for their doughnuts."
  },
  {
   "name": "Fallow Restaurant",
   "city": "London",
   "country": "United Kingdom",
   "lat": 51.50941,
   "lng": -0.132784,
   "cuisine": "British",
   "video_url": "https://www.youtube.com/watch?v=636EUctnIMo",
   "video_title": "I Tried London's Most Popular Restaurant!! (1,000 People a Day)",
   "quote": "An ingredient that most kitchens in the UK would throw straight in the trash is an absolute star of the menu at Fallow."
  },
  {
   "name": "Gourmet Goat",
   "city": "London",
   "country": "United Kingdom",
   "lat": 51.505631,
   "lng": -0.091052,
   "cuisine": "Cypriot, Mediterranean",
   "video_url": "https://www.youtube.com/watch?v=8frIFTQJg1c",
   "video_title": "Best London Street Food at Borough Market (1,000 Years Old!!)",
   "quote": "Next up on a Borough Market tour, we're at a place called Gourmet Goat. Serves Mediterranean food."
  },
  {
   "name": "JUMA Kitchen",
   "city": "London",
   "country": "United Kingdom",
   "lat": 51.505769,
   "lng": -0.09069,
   "cuisine": "Iraqi",
   "video_url": "https://www.youtube.com/watch?v=8frIFTQJg1c",
   "video_title": "Best London Street Food at Borough Market (1,000 Years Old!!)",
   "quote": "Here we are at JUMA. But tell me about this place. So JUMA Kitchen, right?"
  },
  {
   "name": "Kappacasein",
   "city": "London",
   "country": "United Kingdom",
   "lat": 51.504995,
   "lng": -0.090766,
   "cuisine": "Cheese, Sandwiches",
   "video_url": "https://www.youtube.com/watch?v=8frIFTQJg1c",
   "video_title": "Best London Street Food at Borough Market (1,000 Years Old!!)",
   "quote": "Next up, we are at Kappacasein. Um, and you smell the cheese in the air."
  },
  {
   "name": "La Tua Pasta",
   "city": "London",
   "country": "United Kingdom",
   "lat": 51.505826,
   "lng": -0.091018,
   "cuisine": "Italian, Pasta",
   "video_url": "https://www.youtube.com/watch?v=8frIFTQJg1c",
   "video_title": "Best London Street Food at Borough Market (1,000 Years Old!!)",
   "quote": "Next up on our ultimate Borough Market food tour, back to savory. And I wanted to try La Tua Pasta, which is known to be some of the best pasta at Borough Market."
  },
  {
   "name": "M. Manze",
   "city": "London",
   "country": "United Kingdom",
   "lat": 51.496285,
   "lng": -0.082772,
   "cuisine": "Pie and Mash",
   "video_url": "https://www.youtube.com/watch?v=ErC84aLFUDI",
   "video_title": "London’s Oldest Restaurants - We DID NOT Expect This!",
   "quote": "We've made it to our next restaurant right behind me. This place is a classic, it's an institution for one of the most iconic British foods you can ever eat. Pie and Mash."
  },
  {
   "name": "Mei Mei",
   "city": "London",
   "country": "United Kingdom",
   "lat": 51.505727,
   "lng": -0.091054,
   "cuisine": "Singaporean, Malaysian",
   "video_url": "https://www.youtube.com/watch?v=8frIFTQJg1c",
   "video_title": "Best London Street Food at Borough Market (1,000 Years Old!!)",
   "quote": "So Uncle Roger, tell us about this place. Oh, welcome to Mei Mei. This is Singaporean Kopitiam."
  },
  {
   "name": "Richard Haward's Oysters",
   "city": "London",
   "country": "United Kingdom",
   "lat": 51.505386,
   "lng": -0.091019,
   "cuisine": "Seafood, Oysters",
   "video_url": "https://www.youtube.com/watch?v=8frIFTQJg1c",
   "video_title": "Best London Street Food at Borough Market (1,000 Years Old!!)",
   "quote": "Next up, we're going to try an ingredient that London was built upon. It's forms the foundation of food in London. Richard Haward's Oysters."
  },
  {
   "name": "Rock and Sole Plaice",
   "city": "London",
   "country": "United Kingdom",
   "lat": 51.514815,
   "lng": -0.125129,
   "cuisine": "Fish and Chips",
   "video_url": "https://www.youtube.com/watch?v=tSSjS0-Jai4",
   "video_title": "London’s Best Fish and Chips!! (The Only Guide You Need)",
   "quote": "Welcome to the absolutely historical and legendary Rock and Sole Plaice."
  },
  {
   "name": "Sweetings",
   "city": "London",
   "country": "United Kingdom",
   "lat": 51.512486,
   "lng": -0.092733,
   "cuisine": "Seafood",
   "video_url": "https://www.youtube.com/watch?v=ErC84aLFUDI",
   "video_title": "London’s Oldest Restaurants - We DID NOT Expect This!",
   "quote": "Welcome to Sweetings, which is just behind me. Uh this is one of the legendary seafood restaurants."
  },
  {
   "name": "The Black Pig",
   "city": "London",
   "country": "United Kingdom",
   "lat": 51.506059,
   "lng": -0.091025,
   "cuisine": "British, Sandwiches",
   "video_url": "https://www.youtube.com/watch?v=8frIFTQJg1c",
   "video_title": "Best London Street Food at Borough Market (1,000 Years Old!!)",
   "quote": "We are going to eat one of the most famous sandwiches, and you can already see, even though it's now, what time are we at now? 10:30 AM, already there's a crowd standing around waiting for their sandw"
  },
  {
   "name": "The Devonshire",
   "city": "London",
   "country": "United Kingdom",
   "lat": 51.510627,
   "lng": -0.135336,
   "cuisine": "British Pub, Steakhouse",
   "video_url": "https://www.youtube.com/watch?v=K--fVQ73edk",
   "video_title": "I Ate Everything at London’s Busiest Pub! (No One Has EVER Done This)",
   "quote": "Welcome to The Devonshire, officially the busiest pub in London and home to one of the hardest food reservations in the entire city!"
  },
  {
   "name": "The George",
   "city": "London",
   "country": "United Kingdom",
   "lat": 51.517648,
   "lng": -0.141843,
   "cuisine": "Pub Food",
   "video_url": "https://www.youtube.com/watch?v=tSSjS0-Jai4",
   "video_title": "London’s Best Fish and Chips!! (The Only Guide You Need)",
   "quote": "And a pub behind me is called The George, and they are famous for their fish and chips."
  },
  {
   "name": "The Ginger Pig",
   "city": "London",
   "country": "United Kingdom",
   "lat": 51.533361,
   "lng": -0.080203,
   "cuisine": "British, Sausage Rolls",
   "video_url": "https://www.youtube.com/watch?v=8frIFTQJg1c",
   "video_title": "Best London Street Food at Borough Market (1,000 Years Old!!)",
   "quote": "The Ginger Pig. Oh, and I ate this last time I was at Borough Market, but if there's one thing that is revered by locals and that's loved by tourists and everyone in between, it's got to be the Ginger"
  },
  {
   "name": "Paul Rothe & Son",
   "city": "Marylebone",
   "country": "United Kingdom",
   "lat": 51.516829,
   "lng": -0.150831,
   "cuisine": "Delicatessen, Sandwiches",
   "video_url": "https://www.youtube.com/watch?v=ErC84aLFUDI",
   "video_title": "London’s Oldest Restaurants - We DID NOT Expect This!",
   "quote": "behind me is Paul Rothe & Son's, which is the oldest delicatessen in London."
  },
  {
   "name": "Bentley's Oyster Bar & Grill",
   "city": "Mayfair, London",
   "country": "United Kingdom",
   "lat": 51.509547,
   "lng": -0.137673,
   "cuisine": "Seafood, Oysters",
   "video_url": "https://www.youtube.com/watch?v=VlYD4iSEe-4",
   "video_title": "We Ate the Best BRITISH FOOD in London in 24 Hours!!",
   "quote": "We're here at Bentley's, this is one of the most iconic and historic seafood restaurants in London."
  },
  {
   "name": "Terry's Cafe",
   "city": "Southwark, London",
   "country": "United Kingdom",
   "lat": 51.500666,
   "lng": -0.098427,
   "cuisine": "British, Cafe",
   "video_url": "https://www.youtube.com/watch?v=VlYD4iSEe-4",
   "video_title": "We Ate the Best BRITISH FOOD in London in 24 Hours!!",
   "quote": "So we're at Terry's Cafe, this place is one of the most famous cafes here in London."
  },
  {
   "name": "The Glasshouse Buffet, The Grove Hotel",
   "city": "Watford",
   "country": "United Kingdom",
   "lat": 51.677417,
   "lng": -0.437,
   "cuisine": "International Buffet",
   "video_url": "https://www.youtube.com/watch?v=U6RDkuK1Emc",
   "video_title": "I Tried the UK's Best Buffet (1,000 People a Day!!)",
   "quote": "Let's find out why so many people say this is the best buffet in the UK."
  },
  {
   "name": "Molesey Fish Bar",
   "city": "West Molesey",
   "country": "United Kingdom",
   "lat": 51.400871,
   "lng": -0.359933,
   "cuisine": "Fish and Chips",
   "video_url": "https://www.youtube.com/watch?v=tSSjS0-Jai4",
   "video_title": "London’s Best Fish and Chips!! (The Only Guide You Need)",
   "quote": "Welcome to Molesey, and here we're going to meet up with my friend James."
  },
  {
   "name": "Brisket & Rice",
   "city": "Houston",
   "country": "United States",
   "lat": 29.869637,
   "lng": -95.644748,
   "cuisine": "Texas Craft BBQ, Vietnamese Fusion",
   "video_url": "https://www.youtube.com/watch?v=3n227UzYczY",
   "video_title": "I Tried the Best Texas BBQ in Houston!! (Criminally Underrated)",
   "quote": "Welcome to Brisket & Rice."
  },
  {
   "name": "Pinkerton's Barbecue",
   "city": "Houston",
   "country": "United States",
   "lat": 29.732255,
   "lng": -95.411662,
   "cuisine": "Texas BBQ",
   "video_url": "https://www.youtube.com/watch?v=3n227UzYczY",
   "video_title": "I Tried the Best Texas BBQ in Houston!! (Criminally Underrated)",
   "quote": "Welcome to Pinkerton's."
  },
  {
   "name": "Pizzitola's Heritage BBQ",
   "city": "Houston",
   "country": "United States",
   "lat": 29.775862,
   "lng": -95.409863,
   "cuisine": "Texas Pit BBQ",
   "video_url": "https://www.youtube.com/watch?v=3n227UzYczY",
   "video_title": "I Tried the Best Texas BBQ in Houston!! (Criminally Underrated)",
   "quote": "Welcome to Pizzitola's Heritage Barbecue."
  }
 ]
}