{"type":"FeatureCollection","metadata":{"profile":"baeknyeon","generated":"2026-07-15T03:40:12.438Z","counts":{"places":878,"source":"sbiz.or.kr 백년가게 음식점업"}},"features":[{"type":"Feature","geometry":{"type":"Point","coordinates":[128.365117,35.750347]},"properties":{"id":"kr-baeknyeon-고령금산한우-0","name":"고령금산한우","city":"고령군","country":"경북","emoji":"🥩","status":"open","award":"백년가게 · 1995년 창업","note":"1995년 창업 · 2024년 백년가게 선정","shows":["B90"],"primaryShow":"B90"}},{"type":"Feature","geometry":{"type":"Point","coordinates":[126.909551,37.584146]},"properties":{"id":"kr-baeknyeon-도투리샤브칼국수불광천-1","name":"도투리 샤브칼국수 불광천","city":"은평구","country":"서울","emoji":"🍜","status":"open","award":"백년가게 · 2015년 창업","note":"2015년 창업 · 2023년 백년가게 선정","shows":["B00"],"primaryShow":"B00"}},{"type":"Feature","geometry":{"type":"Point","coordinates":[126.933894,37.35792]},"properties":{"id":"kr-baeknyeon-완산정-2","name":"완산정","city":"군포시","country":"경기","emoji":"🍽️","status":"open","award":"백년가게 · 2002년 창업","note":"2002년 창업 · 2022년 백년가게 선정","shows":["B00"],"primaryShow":"B00"}},{"type":"Feature","geometry":{"type":"Point","coordinates":[128.35768,36.106987]},"properties":{"id":"kr-baeknyeon-오리산성-3","name":"오리산성","city":"구미시","country":"경북","emoji":"🍗","status":"open","award":"백년가게 · 1994년 창업","note":"1994년 창업 · 2023년 백년가게 선정","shows":["B90"],"primaryShow":"B90"}},{"type":"Feature","geometry":{"type":"Point","coordinates":[128.282499,36.607491]},"properties":{"id":"kr-baeknyeon-용궁순대-4","name":"용궁순대","city":"예천군","country":"경북","emoji":"🍢","status":"open","award":"백년가게 · 2011년 창업","note":"2011년 창업 · 2023년 백년가게 선정","shows":["B00"],"primaryShow":"B00"}},{"type":"Feature","geometry":{"type":"Point","coordinates":[129.043879,35.351158]},"properties":{"id":"kr-baeknyeon-손두부전문점-5","name":"손두부전문점","city":"양산시","country":"경남","emoji":"🍲","status":"open","award":"백년가게 · 1998년 창업","note":"1998년 창업 · 2021년 백년가게 선정","shows":["B90"],"primaryShow":"B90"}},{"type":"Feature","geometry":{"type":"Point","coordinates":[128.315185,36.111773]},"properties":{"id":"kr-baeknyeon-금오산고향촌식당-6","name":"금오산고향촌식당","city":"구미시","country":"경북","emoji":"🍽️","status":"open","award":"백년가게 · 1990년 창업","note":"1990년 창업 · 2024년 백년가게 선정","shows":["B90"],"primaryShow":"B90"}},{"type":"Feature","geometry":{"type":"Point","coordinates":[127.004405,37.590859]},"properties":{"id":"kr-baeknyeon-옛날중국집-7","name":"옛날중국집","city":"성북구","country":"서울","emoji":"🍽️","status":"open","award":"백년가게 · 2019년 창업","note":"2019년 창업 · 2023년 백년가게 선정","shows":["B00"],"primaryShow":"B00"}},{"type":"Feature","geometry":{"type":"Point","coordinates":[127.488262,35.243559]},"properties":{"id":"kr-baeknyeon-예원-8","name":"예원","city":"구례군","country":"전남","emoji":"🍽️","status":"open","award":"백년가게 · 2007년 창업","note":"2007년 창업 · 2023년 백년가게 선정","shows":["B00"],"primaryShow":"B00"}},{"type":"Feature","geometry":{"type":"Point","coordinates":[128.370636,36.982036]},"properties":{"id":"kr-baeknyeon-달동네마늘순대-9","name":"달동네마늘순대","city":"단양군","country":"충북","emoji":"🍢","status":"open","award":"백년가게 · 2013년 창업","note":"2013년 창업 · 2023년 백년가게 선정","shows":["B00"],"primaryShow":"B00"}},{"type":"Feature","geometry":{"type":"Point","coordinates":[127.705835,37.865466]},"properties":{"id":"kr-baeknyeon-봄담은산채-10","name":"봄담은산채","city":"춘천시","country":"강원","emoji":"🍽️","status":"open","award":"백년가게 · 1988년 창업","note":"1988년 창업 · 2024년 백년가게 선정","shows":["B80"],"primaryShow":"B80"}},{"type":"Feature","geometry":{"type":"Point","coordinates":[129.319857,35.554712]},"properties":{"id":"kr-baeknyeon-궁중삼계탕-11","name":"궁중삼계탕","city":"중구","country":"울산","emoji":"🍗","status":"open","award":"백년가게 · 1995년 창업","note":"1995년 창업 · 2024년 백년가게 선정","shows":["B90"],"primaryShow":"B90"}},{"type":"Feature","geometry":{"type":"Point","coordinates":[129.210143,35.845951]},"properties":{"id":"kr-baeknyeon-주식회사영양숯불갈비-12","name":"주식회사 영양숯불갈비","city":"경주시","country":"경북","emoji":"🥩","status":"open","award":"백년가게 · 2021년 창업","note":"2021년 창업 · 2024년 백년가게 선정","shows":["B00"],"primaryShow":"B00"}},{"type":"Feature","geometry":{"type":"Point","coordinates":[126.941267,35.268701]},"properties":{"id":"kr-baeknyeon-달빛뜨락-13","name":"달빛뜨락","city":"담양군","country":"전남","emoji":"🍽️","status":"open","award":"백년가게 · 1997년 창업","note":"1997년 창업 · 2023년 백년가게 선정","shows":["B90"],"primaryShow":"B90"}},{"type":"Feature","geometry":{"type":"Point","coordinates":[127.142544,35.817763]},"properties":{"id":"kr-baeknyeon-신한양불고기-14","name":"신한양불고기","city":"전주시","country":"전북","emoji":"🥩","status":"open","award":"백년가게 · 2020년 창업","note":"2020년 창업 · 2024년 백년가게 선정","shows":["B00"],"primaryShow":"B00"}},{"type":"Feature","geometry":{"type":"Point","coordinates":[127.48406,36.645694]},"properties":{"id":"kr-baeknyeon-원조백년옻닭-15","name":"원조백년옻닭","city":"청주시","country":"충북","emoji":"🍗","status":"open","award":"백년가게 · 1994년 창업","note":"1994년 창업 · 2021년 백년가게 선정","shows":["B90"],"primaryShow":"B90"}},{"type":"Feature","geometry":{"type":"Point","coordinates":[126.915567,37.587006]},"properties":{"id":"kr-baeknyeon-시골감자국-16","name":"시골감자국","city":"은평구","country":"서울","emoji":"🍽️","status":"open","award":"백년가게 · 1990년 창업","note":"1990년 창업 · 2021년 백년가게 선정","shows":["B90"],"primaryShow":"B90"}},{"type":"Feature","geometry":{"type":"Point","coordinates":[126.809611,37.331541]},"properties":{"id":"kr-baeknyeon-이조칼국수-17","name":"이조칼국수","city":"안산시","country":"경기","emoji":"🍜","status":"open","award":"백년가게 · 2017년 창업","note":"2017년 창업 · 2023년 백년가게 선정","shows":["B00"],"primaryShow":"B00"}},{"type":"Feature","geometry":{"type":"Point","coordinates":[129.056958,35.159211]},"properties":{"id":"kr-baeknyeon-태화육개장-18","name":"태화육개장","city":"부산진구","country":"부산","emoji":"🍲","status":"open","award":"백년가게 · 2011년 창업","note":"2011년 창업 · 2024년 백년가게 선정","shows":["B00"],"primaryShow":"B00"}},{"type":"Feature","geometry":{"type":"Point","coordinates":[127.13781,37.503099]},"properties":{"id":"kr-baeknyeon-오금버드나무집-19","name":"오금버드나무집","city":"송파구","country":"서울","emoji":"🍽️","status":"open","award":"백년가게 · 1986년 창업","note":"1986년 창업 · 2023년 백년가게 선정","shows":["B80"],"primaryShow":"B80"}},{"type":"Feature","geometry":{"type":"Point","coordinates":[127.513448,34.946303]},"properties":{"id":"kr-baeknyeon-신화정-20","name":"신화정","city":"순천시","country":"전남","emoji":"🍽️","status":"open","award":"백년가게 · 2004년 창업","note":"2004년 창업 · 2023년 백년가게 선정","shows":["B00"],"primaryShow":"B00"}},{"type":"Feature","geometry":{"type":"Point","coordinates":[128.410832,34.833612]},"properties":{"id":"kr-baeknyeon-케네디홀레스토랑-21","name":"케네디홀레스토랑","city":"통영시","country":"경남","emoji":"🍽️","status":"open","award":"백년가게 · 2001년 창업","note":"2001년 창업 · 2021년 백년가게 선정","shows":["B00"],"primaryShow":"B00"}},{"type":"Feature","geometry":{"type":"Point","coordinates":[128.213084,37.138273]},"properties":{"id":"kr-baeknyeon-무궁화식당-22","name":"무궁화식당","city":"제천시","country":"충북","emoji":"🍽️","status":"open","award":"백년가게 · 1985년 창업","note":"1985년 창업 · 2021년 백년가게 선정","shows":["B80"],"primaryShow":"B80"}},{"type":"Feature","geometry":{"type":"Point","coordinates":[128.524417,36.873345]},"properties":{"id":"kr-baeknyeon-한결청국장-23","name":"한결청국장","city":"영주시","country":"경북","emoji":"🍲","status":"open","award":"백년가게 · 2008년 창업","note":"2008년 창업 · 2024년 백년가게 선정","shows":["B00"],"primaryShow":"B00"}},{"type":"Feature","geometry":{"type":"Point","coordinates":[127.427817,36.631981]},"properties":{"id":"kr-baeknyeon-부모산가든-24","name":"부모산가든","city":"청주시","country":"충북","emoji":"🍽️","status":"open","award":"백년가게 · 2001년 창업","note":"2001년 창업 · 2021년 백년가게 선정","shows":["B00"],"primaryShow":"B00"}},{"type":"Feature","geometry":{"type":"Point","coordinates":[126.784122,37.461702]},"properties":{"id":"kr-baeknyeon-밀가랑-25","name":"밀가랑","city":"시흥시","country":"경기","emoji":"🍽️","status":"open","award":"백년가게 · 2018년 창업","note":"2018년 창업 · 2023년 백년가게 선정","shows":["B00"],"primaryShow":"B00"}},{"type":"Feature","geometry":{"type":"Point","coordinates":[127.724319,37.866109]},"properties":{"id":"kr-baeknyeon-예미옥주식회사-26","name":"예미옥주식회사","city":"춘천시","country":"강원","emoji":"🐟","status":"open","award":"백년가게 · 2012년 창업","note":"2012년 창업 · 2023년 백년가게 선정","shows":["B00"],"primaryShow":"B00"}},{"type":"Feature","geometry":{"type":"Point","coordinates":[128.368292,38.223939]},"properties":{"id":"kr-baeknyeon-진부령식당-27","name":"진부령식당","city":"인제군","country":"강원","emoji":"🍽️","status":"open","award":"백년가게 · 1993년 창업","note":"1993년 창업 · 2021년 백년가게 선정","shows":["B90"],"primaryShow":"B90"}},{"type":"Feature","geometry":{"type":"Point","coordinates":[128.579185,35.209373]},"properties":{"id":"kr-baeknyeon-인혜돌곱창-28","name":"인혜돌곱창","city":"창원시","country":"경남","emoji":"🥩","status":"open","award":"백년가게 · 1985년 창업","note":"1985년 창업 · 2021년 백년가게 선정","shows":["B80"],"primaryShow":"B80"}},{"type":"Feature","geometry":{"type":"Point","coordinates":[127.052764,37.902775]},"properties":{"id":"kr-baeknyeon-실비집-29","name":"실비집","city":"동두천시","country":"경기","emoji":"🍽️","status":"open","award":"백년가게 · 1980년 창업","note":"1980년 창업 · 2023년 백년가게 선정","shows":["B80"],"primaryShow":"B80"}},{"type":"Feature","geometry":{"type":"Point","coordinates":[126.856946,36.680983]},"properties":{"id":"kr-baeknyeon-동흥루-30","name":"동흥루","city":"예산군","country":"충남","emoji":"🍽️","status":"open","award":"백년가게 · 1976년 창업","note":"1976년 창업 · 2021년 백년가게 선정","shows":["B70"],"primaryShow":"B70"}},{"type":"Feature","geometry":{"type":"Point","coordinates":[126.548055,36.527249]},"properties":{"id":"kr-baeknyeon-결성칼국수-31","name":"결성칼국수","city":"홍성군","country":"충남","emoji":"🍜","status":"open","award":"백년가게 · 2000년 창업","note":"2000년 창업 · 2021년 백년가게 선정","shows":["B00"],"primaryShow":"B00"}},{"type":"Feature","geometry":{"type":"Point","coordinates":[126.793574,35.140451]},"properties":{"id":"kr-baeknyeon-형제송정-32","name":"형제송정","city":"광산구","country":"광주","emoji":"🍽️","status":"open","award":"백년가게 · 2020년 창업","note":"2020년 창업 · 2023년 백년가게 선정","shows":["B00"],"primaryShow":"B00"}},{"type":"Feature","geometry":{"type":"Point","coordinates":[126.929454,36.989263]},"properties":{"id":"kr-baeknyeon-가마솥식당-33","name":"가마솥식당","city":"평택시","country":"경기","emoji":"🍽️","status":"open","award":"백년가게 · 1994년 창업","note":"1994년 창업 · 2023년 백년가게 선정","shows":["B90"],"primaryShow":"B90"}},{"type":"Feature","geometry":{"type":"Point","coordinates":[127.140595,37.537432]},"properties":{"id":"kr-baeknyeon-단골숯불갈비-34","name":"단골숯불갈비","city":"강동구","country":"서울","emoji":"🥩","status":"open","award":"백년가게 · 1998년 창업","note":"1998년 창업 · 2023년 백년가게 선정","shows":["B90"],"primaryShow":"B90"}},{"type":"Feature","geometry":{"type":"Point","coordinates":[126.947427,37.353466]},"properties":{"id":"kr-baeknyeon-제일황소-35","name":"제일황소","city":"군포시","country":"경기","emoji":"🍽️","status":"open","award":"백년가게 · 1987년 창업","note":"1987년 창업 · 2021년 백년가게 선정","shows":["B80"],"primaryShow":"B80"}},{"type":"Feature","geometry":{"type":"Point","coordinates":[128.59544,36.14663]},"properties":{"id":"kr-baeknyeon-효령매운탕-36","name":"효령매운탕","city":"군위군","country":"경북","emoji":"🍲","status":"open","award":"백년가게 · 1998년 창업","note":"1998년 창업 · 2024년 백년가게 선정","shows":["B90"],"primaryShow":"B90"}},{"type":"Feature","geometry":{"type":"Point","coordinates":[128.41116,34.879165]},"properties":{"id":"kr-baeknyeon-은혜갈비식육식당-37","name":"은혜갈비, 식육식당","city":"통영시","country":"경남","emoji":"🥩","status":"open","award":"백년가게 · 1991년 창업","note":"1991년 창업 · 2021년 백년가게 선정","shows":["B90"],"primaryShow":"B90"}},{"type":"Feature","geometry":{"type":"Point","coordinates":[128.893662,37.755289]},"properties":{"id":"kr-baeknyeon-뚱보냉면-38","name":"뚱보냉면","city":"강릉시","country":"강원","emoji":"🍜","status":"open","award":"백년가게 · 1992년 창업","note":"1992년 창업 · 2021년 백년가게 선정","shows":["B90"],"primaryShow":"B90"}},{"type":"Feature","geometry":{"type":"Point","coordinates":[127.460431,36.459221]},"properties":{"id":"kr-baeknyeon-금호송어장-39","name":"금호송어장","city":"청주시","country":"충북","emoji":"🍽️","status":"open","award":"백년가게 · 1985년 창업","note":"1985년 창업 · 2021년 백년가게 선정","shows":["B80"],"primaryShow":"B80"}},{"type":"Feature","geometry":{"type":"Point","coordinates":[127.153006,35.814139]},"properties":{"id":"kr-baeknyeon-교동다원-40","name":"교동다원","city":"전주시","country":"전북","emoji":"🍽️","status":"open","award":"백년가게 · 1999년 창업","note":"1999년 창업 · 2024년 백년가게 선정","shows":["B90"],"primaryShow":"B90"}},{"type":"Feature","geometry":{"type":"Point","coordinates":[127.079026,37.535587]},"properties":{"id":"kr-baeknyeon-민정식당-41","name":"민정식당","city":"광진구","country":"서울","emoji":"🍚","status":"open","award":"백년가게 · 1995년 창업","note":"1995년 창업 · 2021년 백년가게 선정","shows":["B90"],"primaryShow":"B90"}},{"type":"Feature","geometry":{"type":"Point","coordinates":[128.594565,35.86932]},"properties":{"id":"kr-baeknyeon-중화반점-42","name":"중화반점","city":"중구","country":"대구","emoji":"🍜","status":"open","award":"백년가게 · 2003년 창업","note":"2003년 창업 · 2023년 백년가게 선정","shows":["B00"],"primaryShow":"B00"}},{"type":"Feature","geometry":{"type":"Point","coordinates":[126.832526,37.632483]},"properties":{"id":"kr-baeknyeon-화정맛집민쿡다시마-43","name":"화정맛집민쿡다시마","city":"고양시","country":"경기","emoji":"🍽️","status":"open","award":"백년가게 · 2002년 창업","note":"2002년 창업 · 2023년 백년가게 선정","shows":["B00"],"primaryShow":"B00"}},{"type":"Feature","geometry":{"type":"Point","coordinates":[126.909627,36.285332]},"properties":{"id":"kr-baeknyeon-구드래돌쌈밥-44","name":"구드래돌쌈밥","city":"부여군","country":"충남","emoji":"🍚","status":"open","award":"백년가게 · 1997년 창업","note":"1997년 창업 · 2024년 백년가게 선정","shows":["B90"],"primaryShow":"B90"}},{"type":"Feature","geometry":{"type":"Point","coordinates":[127.440023,36.91959]},"properties":{"id":"kr-baeknyeon-할머니집식당-45","name":"할머니집식당","city":"진천군","country":"충북","emoji":"🍽️","status":"open","award":"백년가게 · 2019년 창업","note":"2019년 창업 · 2024년 백년가게 선정","shows":["B00"],"primaryShow":"B00"}},{"type":"Feature","geometry":{"type":"Point","coordinates":[126.809645,35.162885]},"properties":{"id":"kr-baeknyeon-하남낙지마당-46","name":"하남낙지마당","city":"광산구","country":"광주","emoji":"🐟","status":"open","award":"백년가게 · 2001년 창업","note":"2001년 창업 · 2023년 백년가게 선정","shows":["B00"],"primaryShow":"B00"}},{"type":"Feature","geometry":{"type":"Point","coordinates":[129.371687,36.013201]},"properties":{"id":"kr-baeknyeon-장룡민물장어나라-47","name":"장룡민물장어나라","city":"포항시","country":"경북","emoji":"🐟","status":"open","award":"백년가게 · 2016년 창업","note":"2016년 창업 · 2023년 백년가게 선정","shows":["B00"],"primaryShow":"B00"}},{"type":"Feature","geometry":{"type":"Point","coordinates":[127.488861,36.628326]},"properties":{"id":"kr-baeknyeon-육거리소문난만두-48","name":"육거리소문난만두","city":"청주시","country":"충북","emoji":"🥟","status":"open","award":"백년가게 · 2020년 창업","note":"2020년 창업 · 2023년 백년가게 선정","shows":["B00"],"primaryShow":"B00"}},{"type":"Feature","geometry":{"type":"Point","coordinates":[127.30007,36.601759]},"properties":{"id":"kr-baeknyeon-몽마르뜨-49","name":"몽마르뜨","city":"조치원읍","country":"세종","emoji":"🍽️","status":"open","award":"백년가게 · 1994년 창업","note":"1994년 창업 · 2022년 백년가게 선정","shows":["B90"],"primaryShow":"B90"}},{"type":"Feature","geometry":{"type":"Point","coordinates":[126.594538,34.576195]},"properties":{"id":"kr-baeknyeon-소망식당-50","name":"소망식당","city":"해남군","country":"전남","emoji":"🍽️","status":"open","award":"백년가게 · 1994년 창업","note":"1994년 창업 · 2021년 백년가게 선정","shows":["B90"],"primaryShow":"B90"}},{"type":"Feature","geometry":{"type":"Point","coordinates":[127.010738,37.605465]},"properties":{"id":"kr-baeknyeon-청수장-51","name":"청수장","city":"성북구","country":"서울","emoji":"🍽️","status":"open","award":"백년가게 · 2000년 창업","note":"2000년 창업 · 2024년 백년가게 선정","shows":["B00"],"primaryShow":"B00"}},{"type":"Feature","geometry":{"type":"Point","coordinates":[126.982295,35.319301]},"properties":{"id":"kr-baeknyeon-바밀제과-52","name":"바밀제과","city":"담양군","country":"전남","emoji":"🍞","status":"open","award":"백년가게 · 1990년 창업","note":"1990년 창업 · 2023년 백년가게 선정","shows":["B90"],"primaryShow":"B90"}},{"type":"Feature","geometry":{"type":"Point","coordinates":[126.970813,37.575831]},"properties":{"id":"kr-baeknyeon-포도나무-53","name":"포도나무","city":"종로구","country":"서울","emoji":"🍽️","status":"open","award":"백년가게 · 2013년 창업","note":"2013년 창업 · 2024년 백년가게 선정","shows":["B00"],"primaryShow":"B00"}},{"type":"Feature","geometry":{"type":"Point","coordinates":[127.122964,36.464903]},"properties":{"id":"kr-baeknyeon-토속식당-54","name":"토속식당","city":"공주시","country":"충남","emoji":"🍽️","status":"open","award":"백년가게 · 2015년 창업","note":"2015년 창업 · 2024년 백년가게 선정","shows":["B00"],"primaryShow":"B00"}},{"type":"Feature","geometry":{"type":"Point","coordinates":[127.182521,36.838837]},"properties":{"id":"kr-baeknyeon-안골-55","name":"안골","city":"천안시","country":"충남","emoji":"🍽️","status":"open","award":"백년가게 · 1994년 창업","note":"1994년 창업 · 2022년 백년가게 선정","shows":["B90"],"primaryShow":"B90"}},{"type":"Feature","geometry":{"type":"Point","coordinates":[127.103814,37.221139]},"properties":{"id":"kr-baeknyeon-고기돌담집-56","name":"고기돌담집","city":"용인시","country":"경기","emoji":"🥩","status":"open","award":"백년가게 · 1999년 창업","note":"1999년 창업 · 2021년 백년가게 선정","shows":["B90"],"primaryShow":"B90"}},{"type":"Feature","geometry":{"type":"Point","coordinates":[128.54479,35.83951]},"properties":{"id":"kr-baeknyeon-갈비둥지로-57","name":"갈비둥지로","city":"달서구","country":"대구","emoji":"🥩","status":"open","award":"백년가게 · 1999년 창업","note":"1999년 창업 · 2024년 백년가게 선정","shows":["B90"],"primaryShow":"B90"}},{"type":"Feature","geometry":{"type":"Point","coordinates":[127.054878,37.295168]},"properties":{"id":"kr-baeknyeon-대훈생고기-58","name":"대훈생고기","city":"수원시","country":"경기","emoji":"🥩","status":"open","award":"백년가게 · 1983년 창업","note":"1983년 창업 · 2021년 백년가게 선정","shows":["B80"],"primaryShow":"B80"}},{"type":"Feature","geometry":{"type":"Point","coordinates":[128.086621,35.083529]},"properties":{"id":"kr-baeknyeon-덕합반점-59","name":"덕합반점","city":"사천시","country":"경남","emoji":"🍽️","status":"open","award":"백년가게 · 1966년 창업","note":"1966년 창업 · 2021년 백년가게 선정","shows":["B60"],"primaryShow":"B60"}},{"type":"Feature","geometry":{"type":"Point","coordinates":[127.09936,37.511142]},"properties":{"id":"kr-baeknyeon-삼우정-60","name":"삼우정","city":"송파구","country":"서울","emoji":"🍽️","status":"open","award":"백년가게 · 2008년 창업","note":"2008년 창업 · 2023년 백년가게 선정","shows":["B00"],"primaryShow":"B00"}},{"type":"Feature","geometry":{"type":"Point","coordinates":[128.521497,35.819319]},"properties":{"id":"kr-baeknyeon-주식회사석정한우마을-61","name":"주식회사 석정한우마을","city":"달서구","country":"대구","emoji":"🥩","status":"open","award":"백년가게 · 2019년 창업","note":"2019년 창업 · 2023년 백년가게 선정","shows":["B00"],"primaryShow":"B00"}},{"type":"Feature","geometry":{"type":"Point","coordinates":[128.616232,35.831024]},"properties":{"id":"kr-baeknyeon-한티불낙-62","name":"한티불낙","city":"수성구","country":"대구","emoji":"🍽️","status":"open","award":"백년가게 · 1999년 창업","note":"1999년 창업 · 2023년 백년가게 선정","shows":["B90"],"primaryShow":"B90"}},{"type":"Feature","geometry":{"type":"Point","coordinates":[128.735039,36.549588]},"properties":{"id":"kr-baeknyeon-금강옥-63","name":"금강옥","city":"안동시","country":"경북","emoji":"🍽️","status":"open","award":"백년가게 · 2020년 창업","note":"2020년 창업 · 2023년 백년가게 선정","shows":["B00"],"primaryShow":"B00"}},{"type":"Feature","geometry":{"type":"Point","coordinates":[129.3185,35.528494]},"properties":{"id":"kr-baeknyeon-촌당-64","name":"촌당","city":"남구","country":"울산","emoji":"🍽️","status":"open","award":"백년가게 · 1996년 창업","note":"1996년 창업 · 2021년 백년가게 선정","shows":["B90"],"primaryShow":"B90"}},{"type":"Feature","geometry":{"type":"Point","coordinates":[128.064769,35.172491]},"properties":{"id":"kr-baeknyeon-야래향-65","name":"야래향","city":"진주시","country":"경남","emoji":"🍽️","status":"open","award":"백년가게 · 2021년 창업","note":"2021년 창업 · 2023년 백년가게 선정","shows":["B00"],"primaryShow":"B00"}},{"type":"Feature","geometry":{"type":"Point","coordinates":[127.035994,37.522116]},"properties":{"id":"kr-baeknyeon-한우리외식산업-66","name":"한우리외식산업","city":"강남구","country":"서울","emoji":"🥩","status":"open","award":"백년가게 · 1988년 창업","note":"1988년 창업 · 2023년 백년가게 선정","shows":["B80"],"primaryShow":"B80"}},{"type":"Feature","geometry":{"type":"Point","coordinates":[126.98386,37.572695]},"properties":{"id":"kr-baeknyeon-이문설농탕-67","name":"이문설농탕","city":"종로구","country":"서울","emoji":"🍲","status":"open","award":"백년가게 · 1981년 창업","note":"1981년 창업 · 2021년 백년가게 선정","shows":["B80"],"primaryShow":"B80"}},{"type":"Feature","geometry":{"type":"Point","coordinates":[128.683196,35.153346]},"properties":{"id":"kr-baeknyeon-동전집-68","name":"동전집","city":"창원시","country":"경남","emoji":"🥞","status":"open","award":"백년가게 · 2020년 창업","note":"2020년 창업 · 2024년 백년가게 선정","shows":["B00"],"primaryShow":"B00"}},{"type":"Feature","geometry":{"type":"Point","coordinates":[128.584454,38.199717]},"properties":{"id":"kr-baeknyeon-감자바우집-69","name":"감자바우집","city":"속초시","country":"강원","emoji":"🍽️","status":"open","award":"백년가게 · 2009년 창업","note":"2009년 창업 · 2023년 백년가게 선정","shows":["B00"],"primaryShow":"B00"}},{"type":"Feature","geometry":{"type":"Point","coordinates":[127.434406,35.457362]},"properties":{"id":"kr-baeknyeon-해용집-70","name":"해용집","city":"남원시","country":"전북","emoji":"🍽️","status":"open","award":"백년가게 · 1984년 창업","note":"1984년 창업 · 2023년 백년가게 선정","shows":["B80"],"primaryShow":"B80"}},{"type":"Feature","geometry":{"type":"Point","coordinates":[126.803365,36.451971]},"properties":{"id":"kr-baeknyeon-농가의빵집-71","name":"농가의빵집","city":"청양군","country":"충남","emoji":"🍞","status":"open","award":"백년가게 · 2017년 창업","note":"2017년 창업 · 2023년 백년가게 선정","shows":["B00"],"primaryShow":"B00"}},{"type":"Feature","geometry":{"type":"Point","coordinates":[126.933075,33.461136]},"properties":{"id":"kr-baeknyeon-제주뚝배기-72","name":"제주뚝배기","city":"서귀포시","country":"제주","emoji":"🍽️","status":"open","award":"백년가게 · 2005년 창업","note":"2005년 창업 · 2023년 백년가게 선정","shows":["B00"],"primaryShow":"B00"}},{"type":"Feature","geometry":{"type":"Point","coordinates":[126.775733,36.400971]},"properties":{"id":"kr-baeknyeon-대일식당-73","name":"대일식당","city":"청양군","country":"충남","emoji":"🍽️","status":"open","award":"백년가게 · 1993년 창업","note":"1993년 창업 · 2023년 백년가게 선정","shows":["B90"],"primaryShow":"B90"}},{"type":"Feature","geometry":{"type":"Point","coordinates":[126.662923,36.609103]},"properties":{"id":"kr-baeknyeon-삽다리곱창전문점-74","name":"삽다리곱창전문점","city":"홍성군","country":"충남","emoji":"🥩","status":"open","award":"백년가게 · 1992년 창업","note":"1992년 창업 · 2021년 백년가게 선정","shows":["B90"],"primaryShow":"B90"}},{"type":"Feature","geometry":{"type":"Point","coordinates":[128.802867,35.319665]},"properties":{"id":"kr-baeknyeon-시장횟집-75","name":"시장횟집(한림면)","city":"김해시","country":"경남","emoji":"🐟","status":"open","award":"백년가게 · 1994년 창업","note":"1994년 창업 · 2021년 백년가게 선정","shows":["B90"],"primaryShow":"B90"}},{"type":"Feature","geometry":{"type":"Point","coordinates":[127.129495,36.827335]},"properties":{"id":"kr-baeknyeon-듀팡과자점-76","name":"듀팡과자점","city":"천안시","country":"충남","emoji":"🍽️","status":"open","award":"백년가게 · 1996년 창업","note":"1996년 창업 · 2023년 백년가게 선정","shows":["B90"],"primaryShow":"B90"}},{"type":"Feature","geometry":{"type":"Point","coordinates":[129.117097,35.166605]},"properties":{"id":"kr-baeknyeon-광안리신라횟집-77","name":"광안리 신라횟집","city":"수영구","country":"부산","emoji":"🐟","status":"open","award":"백년가게 · 2022년 창업","note":"2022년 창업 · 2023년 백년가게 선정","shows":["B00"],"primaryShow":"B00"}},{"type":"Feature","geometry":{"type":"Point","coordinates":[127.937835,36.9862]},"properties":{"id":"kr-baeknyeon-만나밥집-78","name":"만나밥집","city":"충주시","country":"충북","emoji":"🍚","status":"open","award":"백년가게 · 1996년 창업","note":"1996년 창업 · 2021년 백년가게 선정","shows":["B90"],"primaryShow":"B90"}},{"type":"Feature","geometry":{"type":"Point","coordinates":[127.179777,37.061805]},"properties":{"id":"kr-baeknyeon-창진산장휴게소-79","name":"창진산장휴게소","city":"안성시","country":"경기","emoji":"🍽️","status":"open","award":"백년가게 · 1994년 창업","note":"1994년 창업 · 2023년 백년가게 선정","shows":["B90"],"primaryShow":"B90"}},{"type":"Feature","geometry":{"type":"Point","coordinates":[128.2132,37.150987]},"properties":{"id":"kr-baeknyeon-강박사냉면숯불갈비-80","name":"강박사냉면숯불갈비","city":"제천시","country":"충북","emoji":"🍜","status":"open","award":"백년가게 · 1987년 창업","note":"1987년 창업 · 2021년 백년가게 선정","shows":["B80"],"primaryShow":"B80"}},{"type":"Feature","geometry":{"type":"Point","coordinates":[128.425683,34.86087]},"properties":{"id":"kr-baeknyeon-향토집-81","name":"향토집","city":"통영시","country":"경남","emoji":"🍽️","status":"open","award":"백년가게 · 1997년 창업","note":"1997년 창업 · 2024년 백년가게 선정","shows":["B90"],"primaryShow":"B90"}},{"type":"Feature","geometry":{"type":"Point","coordinates":[126.950925,37.319564]},"properties":{"id":"kr-baeknyeon-부곡통닭집-82","name":"부곡통닭집","city":"의왕시","country":"경기","emoji":"🍗","status":"open","award":"백년가게 · 1980년 창업","note":"1980년 창업 · 2024년 백년가게 선정","shows":["B80"],"primaryShow":"B80"}},{"type":"Feature","geometry":{"type":"Point","coordinates":[127.03158,37.501036]},"properties":{"id":"kr-baeknyeon-나주곰탕우정집-83","name":"나주곰탕우정집","city":"강남구","country":"서울","emoji":"🍲","status":"open","award":"백년가게 · 1989년 창업","note":"1989년 창업 · 2021년 백년가게 선정","shows":["B80"],"primaryShow":"B80"}},{"type":"Feature","geometry":{"type":"Point","coordinates":[129.330035,35.537247]},"properties":{"id":"kr-baeknyeon-정자참가자미-84","name":"정자참가자미","city":"남구","country":"울산","emoji":"🍽️","status":"open","award":"백년가게 · 2011년 창업","note":"2011년 창업 · 2024년 백년가게 선정","shows":["B00"],"primaryShow":"B00"}},{"type":"Feature","geometry":{"type":"Point","coordinates":[127.078401,37.614711]},"properties":{"id":"kr-baeknyeon-청평매운탕-85","name":"청평매운탕","city":"중랑구","country":"서울","emoji":"🍲","status":"open","award":"백년가게 · 1989년 창업","note":"1989년 창업 · 2021년 백년가게 선정","shows":["B80"],"primaryShow":"B80"}},{"type":"Feature","geometry":{"type":"Point","coordinates":[127.44143,36.854803]},"properties":{"id":"kr-baeknyeon-오박사냉면전문식당-86","name":"오박사냉면전문식당","city":"진천군","country":"충북","emoji":"🍜","status":"open","award":"백년가게 · 1995년 창업","note":"1995년 창업 · 2021년 백년가게 선정","shows":["B90"],"primaryShow":"B90"}},{"type":"Feature","geometry":{"type":"Point","coordinates":[127.064561,37.207673]},"properties":{"id":"kr-baeknyeon-여명본점-87","name":"여명본점","city":"화성시","country":"경기","emoji":"🍽️","status":"open","award":"백년가게 · 2007년 창업","note":"2007년 창업 · 2024년 백년가게 선정","shows":["B00"],"primaryShow":"B00"}},{"type":"Feature","geometry":{"type":"Point","coordinates":[128.629412,35.881683]},"properties":{"id":"kr-baeknyeon-해금강-88","name":"해금강","city":"동구","country":"대구","emoji":"🍽️","status":"open","award":"백년가게 · 2013년 창업","note":"2013년 창업 · 2024년 백년가게 선정","shows":["B00"],"primaryShow":"B00"}},{"type":"Feature","geometry":{"type":"Point","coordinates":[126.970182,37.5367]},"properties":{"id":"kr-baeknyeon-진미식당-89","name":"진미식당","city":"용산구","country":"서울","emoji":"🍽️","status":"open","award":"백년가게 · 1989년 창업","note":"1989년 창업 · 2021년 백년가게 선정","shows":["B80"],"primaryShow":"B80"}},{"type":"Feature","geometry":{"type":"Point","coordinates":[126.972011,37.484457]},"properties":{"id":"kr-baeknyeon-마실-90","name":"마실","city":"동작구","country":"서울","emoji":"🍽️","status":"open","award":"백년가게 · 2011년 창업","note":"2011년 창업 · 2023년 백년가게 선정","shows":["B00"],"primaryShow":"B00"}},{"type":"Feature","geometry":{"type":"Point","coordinates":[127.057545,37.666908]},"properties":{"id":"kr-baeknyeon-엘리제제과점-91","name":"엘리제제과점","city":"노원구","country":"서울","emoji":"🍞","status":"open","award":"백년가게 · 1994년 창업","note":"1994년 창업 · 2021년 백년가게 선정","shows":["B90"],"primaryShow":"B90"}},{"type":"Feature","geometry":{"type":"Point","coordinates":[127.14776,35.82028]},"properties":{"id":"kr-baeknyeon-영흥관-92","name":"영흥관","city":"전주시","country":"전북","emoji":"🍽️","status":"open","award":"백년가게 · 2000년 창업","note":"2000년 창업 · 2024년 백년가게 선정","shows":["B00"],"primaryShow":"B00"}},{"type":"Feature","geometry":{"type":"Point","coordinates":[128.344038,36.117357]},"properties":{"id":"kr-baeknyeon-거제복집-93","name":"거제복집","city":"구미시","country":"경북","emoji":"🍽️","status":"open","award":"백년가게 · 1994년 창업","note":"1994년 창업 · 2023년 백년가게 선정","shows":["B90"],"primaryShow":"B90"}},{"type":"Feature","geometry":{"type":"Point","coordinates":[126.962288,37.570001]},"properties":{"id":"kr-baeknyeon-석교식당-94","name":"석교식당","city":"서대문구","country":"서울","emoji":"🍽️","status":"open","award":"백년가게 · 2019년 창업","note":"2019년 창업 · 2023년 백년가게 선정","shows":["B00"],"primaryShow":"B00"}},{"type":"Feature","geometry":{"type":"Point","coordinates":[126.957349,35.949962]},"properties":{"id":"kr-baeknyeon-보름베이커리-95","name":"보름베이커리","city":"익산시","country":"전북","emoji":"🍛","status":"open","award":"백년가게 · 2019년 창업","note":"2019년 창업 · 2024년 백년가게 선정","shows":["B00"],"primaryShow":"B00"}},{"type":"Feature","geometry":{"type":"Point","coordinates":[126.770218,37.684656]},"properties":{"id":"kr-baeknyeon-문산순대국-96","name":"문산순대국","city":"고양시","country":"경기","emoji":"🍲","status":"open","award":"백년가게 · 1976년 창업","note":"1976년 창업 · 2021년 백년가게 선정","shows":["B70"],"primaryShow":"B70"}},{"type":"Feature","geometry":{"type":"Point","coordinates":[126.999029,37.5687]},"properties":{"id":"kr-baeknyeon-은주식당-97","name":"은주식당","city":"중구","country":"서울","emoji":"🍽️","status":"open","award":"백년가게 · 1990년 창업","note":"1990년 창업 · 2023년 백년가게 선정","shows":["B90"],"primaryShow":"B90"}},{"type":"Feature","geometry":{"type":"Point","coordinates":[127.531939,37.466674]},"properties":{"id":"kr-baeknyeon-신내보리밥-98","name":"신내보리밥","city":"양평군","country":"경기","emoji":"🍚","status":"open","award":"백년가게 · 1991년 창업","note":"1991년 창업 · 2022년 백년가게 선정","shows":["B90"],"primaryShow":"B90"}},{"type":"Feature","geometry":{"type":"Point","coordinates":[126.703773,34.986256]},"properties":{"id":"kr-baeknyeon-주몽가든맛집-99","name":"주몽가든맛집","city":"나주시","country":"전남","emoji":"🍽️","status":"open","award":"백년가게 · 2014년 창업","note":"2014년 창업 · 2024년 백년가게 선정","shows":["B00"],"primaryShow":"B00"}},{"type":"Feature","geometry":{"type":"Point","coordinates":[128.81913,35.19824]},"properties":{"id":"kr-baeknyeon-시장횟집-100","name":"시장횟집(무계동)","city":"김해시","country":"경남","emoji":"🐟","status":"open","award":"백년가게 · 1995년 창업","note":"1995년 창업 · 2021년 백년가게 선정","shows":["B90"],"primaryShow":"B90"}},{"type":"Feature","geometry":{"type":"Point","coordinates":[126.8,36.450223]},"properties":{"id":"kr-baeknyeon-비봉횟집-101","name":"비봉횟집","city":"청양군","country":"충남","emoji":"🐟","status":"open","award":"백년가게 · 1982년 창업","note":"1982년 창업 · 2022년 백년가게 선정","shows":["B80"],"primaryShow":"B80"}},{"type":"Feature","geometry":{"type":"Point","coordinates":[127.000667,37.306228]},"properties":{"id":"kr-baeknyeon-송풍갈비-102","name":"송풍갈비","city":"수원시","country":"경기","emoji":"🥩","status":"open","award":"백년가게 · 1995년 창업","note":"1995년 창업 · 2022년 백년가게 선정","shows":["B90"],"primaryShow":"B90"}},{"type":"Feature","geometry":{"type":"Point","coordinates":[127.377593,36.35922]},"properties":{"id":"kr-baeknyeon-신라복집-103","name":"신라복집","city":"서구","country":"대전","emoji":"🍽️","status":"open","award":"백년가게 · 1995년 창업","note":"1995년 창업 · 2023년 백년가게 선정","shows":["B90"],"primaryShow":"B90"}},{"type":"Feature","geometry":{"type":"Point","coordinates":[128.100915,35.185695]},"properties":{"id":"kr-baeknyeon-송기원진주냉면본점-104","name":"송기원 진주냉면본점","city":"진주시","country":"경남","emoji":"🍜","status":"open","award":"백년가게 · 1992년 창업","note":"1992년 창업 · 2023년 백년가게 선정","shows":["B90"],"primaryShow":"B90"}},{"type":"Feature","geometry":{"type":"Point","coordinates":[127.118186,35.810643]},"properties":{"id":"kr-baeknyeon-엄마손김치찌개-105","name":"엄마손김치찌개","city":"전주시","country":"전북","emoji":"🍲","status":"open","award":"백년가게 · 1993년 창업","note":"1993년 창업 · 2023년 백년가게 선정","shows":["B90"],"primaryShow":"B90"}},{"type":"Feature","geometry":{"type":"Point","coordinates":[128.579186,35.236912]},"properties":{"id":"kr-baeknyeon-강변횟집-106","name":"강변횟집","city":"창원시","country":"경남","emoji":"🐟","status":"open","award":"백년가게 · 1987년 창업","note":"1987년 창업 · 2021년 백년가게 선정","shows":["B80"],"primaryShow":"B80"}},{"type":"Feature","geometry":{"type":"Point","coordinates":[129.120869,37.556411]},"properties":{"id":"kr-baeknyeon-오부자냄비물회-107","name":"오부자냄비물회","city":"동해시","country":"강원","emoji":"🐟","status":"open","award":"백년가게 · 1998년 창업","note":"1998년 창업 · 2021년 백년가게 선정","shows":["B90"],"primaryShow":"B90"}},{"type":"Feature","geometry":{"type":"Point","coordinates":[129.124785,35.156378]},"properties":{"id":"kr-baeknyeon-방파제-108","name":"방파제","city":"수영구","country":"부산","emoji":"🍽️","status":"open","award":"백년가게 · 1990년 창업","note":"1990년 창업 · 2023년 백년가게 선정","shows":["B90"],"primaryShow":"B90"}},{"type":"Feature","geometry":{"type":"Point","coordinates":[128.076222,34.92561]},"properties":{"id":"kr-baeknyeon-삼천포원조삼학물회-109","name":"삼천포원조 삼학물회","city":"사천시","country":"경남","emoji":"🐟","status":"open","award":"백년가게 · 1977년 창업","note":"1977년 창업 · 2023년 백년가게 선정","shows":["B70"],"primaryShow":"B70"}},{"type":"Feature","geometry":{"type":"Point","coordinates":[127.069057,35.835012]},"properties":{"id":"kr-baeknyeon-만성한정식-110","name":"만성한정식","city":"전주시","country":"전북","emoji":"🍚","status":"open","award":"백년가게 · 2015년 창업","note":"2015년 창업 · 2024년 백년가게 선정","shows":["B00"],"primaryShow":"B00"}},{"type":"Feature","geometry":{"type":"Point","coordinates":[127.129204,37.507479]},"properties":{"id":"kr-baeknyeon-향호면옥-111","name":"향호면옥","city":"송파구","country":"서울","emoji":"🍽️","status":"open","award":"백년가게 · 2008년 창업","note":"2008년 창업 · 2024년 백년가게 선정","shows":["B00"],"primaryShow":"B00"}},{"type":"Feature","geometry":{"type":"Point","coordinates":[128.076015,34.926901]},"properties":{"id":"kr-baeknyeon-미래특수통닭-112","name":"미래특수통닭","city":"사천시","country":"경남","emoji":"🍗","status":"open","award":"백년가게 · 1987년 창업","note":"1987년 창업 · 2024년 백년가게 선정","shows":["B80"],"primaryShow":"B80"}},{"type":"Feature","geometry":{"type":"Point","coordinates":[126.834747,37.617496]},"properties":{"id":"kr-baeknyeon-태능숯불갈비-113","name":"태능숯불갈비","city":"고양시","country":"경기","emoji":"🥩","status":"open","award":"백년가게 · 2003년 창업","note":"2003년 창업 · 2023년 백년가게 선정","shows":["B00"],"primaryShow":"B00"}},{"type":"Feature","geometry":{"type":"Point","coordinates":[127.026457,37.639637]},"properties":{"id":"kr-baeknyeon-군산해물탕-114","name":"군산해물탕","city":"강북구","country":"서울","emoji":"🍲","status":"open","award":"백년가게 · 1984년 창업","note":"1984년 창업 · 2021년 백년가게 선정","shows":["B80"],"primaryShow":"B80"}},{"type":"Feature","geometry":{"type":"Point","coordinates":[128.635604,35.857065]},"properties":{"id":"kr-baeknyeon-육일만두-115","name":"육일만두","city":"수성구","country":"대구","emoji":"🥟","status":"open","award":"백년가게 · 1995년 창업","note":"1995년 창업 · 2023년 백년가게 선정","shows":["B90"],"primaryShow":"B90"}},{"type":"Feature","geometry":{"type":"Point","coordinates":[126.984214,37.48261]},"properties":{"id":"kr-baeknyeon-블랑제리-116","name":"블랑제리 (르팡)","city":"서초구","country":"서울","emoji":"🍽️","status":"open","award":"백년가게 · 1997년 창업","note":"1997년 창업 · 2021년 백년가게 선정","shows":["B90"],"primaryShow":"B90"}},{"type":"Feature","geometry":{"type":"Point","coordinates":[127.77579,36.173313]},"properties":{"id":"kr-baeknyeon-감골생고기타운-117","name":"감골생고기타운","city":"영동군","country":"충북","emoji":"🥩","status":"open","award":"백년가게 · 1993년 창업","note":"1993년 창업 · 2021년 백년가게 선정","shows":["B90"],"primaryShow":"B90"}},{"type":"Feature","geometry":{"type":"Point","coordinates":[126.644382,37.473703]},"properties":{"id":"kr-baeknyeon-반공방첩-118","name":"반공방첩","city":"동구","country":"인천","emoji":"🍽️","status":"open","award":"백년가게 · 2003년 창업","note":"2003년 창업 · 2024년 백년가게 선정","shows":["B00"],"primaryShow":"B00"}},{"type":"Feature","geometry":{"type":"Point","coordinates":[126.869518,36.862612]},"properties":{"id":"kr-baeknyeon-숲속장어구이-119","name":"숲속장어구이","city":"아산시","country":"충남","emoji":"🥩","status":"open","award":"백년가게 · 1991년 창업","note":"1991년 창업 · 2022년 백년가게 선정","shows":["B90"],"primaryShow":"B90"}},{"type":"Feature","geometry":{"type":"Point","coordinates":[127.943089,36.956709]},"properties":{"id":"kr-baeknyeon-남한강횟집-120","name":"남한강횟집","city":"충주시","country":"충북","emoji":"🐟","status":"open","award":"백년가게 · 2006년 창업","note":"2006년 창업 · 2024년 백년가게 선정","shows":["B00"],"primaryShow":"B00"}},{"type":"Feature","geometry":{"type":"Point","coordinates":[128.224579,37.700267]},"properties":{"id":"kr-baeknyeon-생곡막국수-121","name":"생곡막국수","city":"홍천군","country":"강원","emoji":"🍜","status":"open","award":"백년가게 · 1996년 창업","note":"1996년 창업 · 2023년 백년가게 선정","shows":["B90"],"primaryShow":"B90"}},{"type":"Feature","geometry":{"type":"Point","coordinates":[127.054815,37.358879]},"properties":{"id":"kr-baeknyeon-귀래정-122","name":"귀래정","city":"용인시","country":"경기","emoji":"🍽️","status":"open","award":"백년가게 · 1996년 창업","note":"1996년 창업 · 2021년 백년가게 선정","shows":["B90"],"primaryShow":"B90"}},{"type":"Feature","geometry":{"type":"Point","coordinates":[128.896228,37.772178]},"properties":{"id":"kr-baeknyeon-황정숙본막국수-123","name":"황정숙본막국수","city":"강릉시","country":"강원","emoji":"🍜","status":"open","award":"백년가게 · 1989년 창업","note":"1989년 창업 · 2022년 백년가게 선정","shows":["B80"],"primaryShow":"B80"}},{"type":"Feature","geometry":{"type":"Point","coordinates":[127.122859,36.465618]},"properties":{"id":"kr-baeknyeon-원진노기순청국장-124","name":"원진노기순청국장","city":"공주시","country":"충남","emoji":"🍲","status":"open","award":"백년가게 · 2015년 창업","note":"2015년 창업 · 2023년 백년가게 선정","shows":["B00"],"primaryShow":"B00"}},{"type":"Feature","geometry":{"type":"Point","coordinates":[126.967151,37.564452]},"properties":{"id":"kr-baeknyeon-평양옥-125","name":"평양옥","city":"서대문구","country":"서울","emoji":"🍜","status":"open","award":"백년가게 · 1986년 창업","note":"1986년 창업 · 2024년 백년가게 선정","shows":["B80"],"primaryShow":"B80"}},{"type":"Feature","geometry":{"type":"Point","coordinates":[128.653061,35.725002]},"properties":{"id":"kr-baeknyeon-큰나무집궁중약백숙-126","name":"큰나무집 궁중약백숙","city":"달성군","country":"대구","emoji":"🍗","status":"open","award":"백년가게 · 2000년 창업","note":"2000년 창업 · 2024년 백년가게 선정","shows":["B00"],"primaryShow":"B00"}},{"type":"Feature","geometry":{"type":"Point","coordinates":[128.71085,36.60019]},"properties":{"id":"kr-baeknyeon-석송가든-127","name":"석송가든","city":"안동시","country":"경북","emoji":"🍽️","status":"open","award":"백년가게 · 1990년 창업","note":"1990년 창업 · 2023년 백년가게 선정","shows":["B90"],"primaryShow":"B90"}},{"type":"Feature","geometry":{"type":"Point","coordinates":[127.084999,36.994557]},"properties":{"id":"kr-baeknyeon-평택주물럭-128","name":"평택주물럭","city":"평택시","country":"경기","emoji":"🍽️","status":"open","award":"백년가게 · 2019년 창업","note":"2019년 창업 · 2023년 백년가게 선정","shows":["B00"],"primaryShow":"B00"}},{"type":"Feature","geometry":{"type":"Point","coordinates":[128.875952,37.752532]},"properties":{"id":"kr-baeknyeon-송죽원추어탕-129","name":"송죽원 추어탕","city":"강릉시","country":"강원","emoji":"🍲","status":"open","award":"백년가게 · 2007년 창업","note":"2007년 창업 · 2023년 백년가게 선정","shows":["B00"],"primaryShow":"B00"}},{"type":"Feature","geometry":{"type":"Point","coordinates":[128.606763,36.812564]},"properties":{"id":"kr-baeknyeon-두부마을식당-130","name":"두부마을식당","city":"영주시","country":"경북","emoji":"🍲","status":"open","award":"백년가게 · 1998년 창업","note":"1998년 창업 · 2023년 백년가게 선정","shows":["B90"],"primaryShow":"B90"}},{"type":"Feature","geometry":{"type":"Point","coordinates":[127.740085,37.857382]},"properties":{"id":"kr-baeknyeon-대원당-131","name":"대원당","city":"춘천시","country":"강원","emoji":"🍽️","status":"open","award":"백년가게 · 2013년 창업","note":"2013년 창업 · 2024년 백년가게 선정","shows":["B00"],"primaryShow":"B00"}},{"type":"Feature","geometry":{"type":"Point","coordinates":[128.047646,35.20659]},"properties":{"id":"kr-baeknyeon-산청흑돼지-132","name":"산청흑돼지","city":"진주시","country":"경남","emoji":"🥩","status":"open","award":"백년가게 · 2017년 창업","note":"2017년 창업 · 2023년 백년가게 선정","shows":["B00"],"primaryShow":"B00"}},{"type":"Feature","geometry":{"type":"Point","coordinates":[128.420497,34.84124]},"properties":{"id":"kr-baeknyeon-부일식당-133","name":"부일식당","city":"통영시","country":"경남","emoji":"🍽️","status":"open","award":"백년가게 · 2005년 창업","note":"2005년 창업 · 2024년 백년가게 선정","shows":["B00"],"primaryShow":"B00"}},{"type":"Feature","geometry":{"type":"Point","coordinates":[127.054284,37.180968]},"properties":{"id":"kr-baeknyeon-무진장-134","name":"무진장","city":"오산시","country":"경기","emoji":"🍽️","status":"open","award":"백년가게 · 1993년 창업","note":"1993년 창업 · 2021년 백년가게 선정","shows":["B90"],"primaryShow":"B90"}},{"type":"Feature","geometry":{"type":"Point","coordinates":[128.606763,36.812564]},"properties":{"id":"kr-baeknyeon-소백산생고기식당-135","name":"소백산생고기식당","city":"영주시","country":"경북","emoji":"🥩","status":"open","award":"백년가게 · 2013년 창업","note":"2013년 창업 · 2024년 백년가게 선정","shows":["B00"],"primaryShow":"B00"}},{"type":"Feature","geometry":{"type":"Point","coordinates":[127.005596,37.560767]},"properties":{"id":"kr-baeknyeon-뚱뚱이할머니집-136","name":"뚱뚱이할머니집","city":"중구","country":"서울","emoji":"🍽️","status":"open","award":"백년가게 · 1990년 창업","note":"1990년 창업 · 2024년 백년가게 선정","shows":["B90"],"primaryShow":"B90"}},{"type":"Feature","geometry":{"type":"Point","coordinates":[127.922063,36.972816]},"properties":{"id":"kr-baeknyeon-운정식당-137","name":"운정식당","city":"충주시","country":"충북","emoji":"🍚","status":"open","award":"백년가게 · 1978년 창업","note":"1978년 창업 · 2022년 백년가게 선정","shows":["B70"],"primaryShow":"B70"}},{"type":"Feature","geometry":{"type":"Point","coordinates":[129.209137,35.844494]},"properties":{"id":"kr-baeknyeon-어향원-138","name":"어향원","city":"경주시","country":"경북","emoji":"🍽️","status":"open","award":"백년가게 · 1961년 창업","note":"1961년 창업 · 2023년 백년가게 선정","shows":["B60"],"primaryShow":"B60"}},{"type":"Feature","geometry":{"type":"Point","coordinates":[127.140457,37.599248]},"properties":{"id":"kr-baeknyeon-충남식당-139","name":"충남식당","city":"구리시","country":"경기","emoji":"🍽️","status":"open","award":"백년가게 · 2019년 창업","note":"2019년 창업 · 2024년 백년가게 선정","shows":["B00"],"primaryShow":"B00"}},{"type":"Feature","geometry":{"type":"Point","coordinates":[126.979469,37.569689]},"properties":{"id":"kr-baeknyeon-신성-140","name":"신성","city":"종로구","country":"서울","emoji":"🍽️","status":"open","award":"백년가게 · 1999년 창업","note":"1999년 창업 · 2021년 백년가게 선정","shows":["B90"],"primaryShow":"B90"}},{"type":"Feature","geometry":{"type":"Point","coordinates":[128.039572,36.813813]},"properties":{"id":"kr-baeknyeon-새재황토방-141","name":"새재황토방","city":"괴산군","country":"충북","emoji":"🍽️","status":"open","award":"백년가게 · 2023년 창업","note":"2023년 창업 · 2024년 백년가게 선정","shows":["B00"],"primaryShow":"B00"}},{"type":"Feature","geometry":{"type":"Point","coordinates":[129.305297,35.530699]},"properties":{"id":"kr-baeknyeon-주식회사만리장성-142","name":"주식회사 만리장성","city":"남구","country":"울산","emoji":"🐟","status":"open","award":"백년가게 · 1995년 창업","note":"1995년 창업 · 2021년 백년가게 선정","shows":["B90"],"primaryShow":"B90"}},{"type":"Feature","geometry":{"type":"Point","coordinates":[126.496122,36.763278]},"properties":{"id":"kr-baeknyeon-반도회관-143","name":"반도회관","city":"서산시","country":"충남","emoji":"🐟","status":"open","award":"백년가게 · 1988년 창업","note":"1988년 창업 · 2022년 백년가게 선정","shows":["B80"],"primaryShow":"B80"}},{"type":"Feature","geometry":{"type":"Point","coordinates":[128.732351,36.566894]},"properties":{"id":"kr-baeknyeon-경상도추어탕-144","name":"경상도추어탕","city":"안동시","country":"경북","emoji":"🍲","status":"open","award":"백년가게 · 2012년 창업","note":"2012년 창업 · 2024년 백년가게 선정","shows":["B00"],"primaryShow":"B00"}},{"type":"Feature","geometry":{"type":"Point","coordinates":[127.025725,37.641015]},"properties":{"id":"kr-baeknyeon-삼천포식당-145","name":"삼천포식당","city":"강북구","country":"서울","emoji":"🍽️","status":"open","award":"백년가게 · 1992년 창업","note":"1992년 창업 · 2021년 백년가게 선정","shows":["B90"],"primaryShow":"B90"}},{"type":"Feature","geometry":{"type":"Point","coordinates":[126.848366,37.727526]},"properties":{"id":"kr-baeknyeon-종화네돌솥추어탕-146","name":"종화네 돌솥 추어탕","city":"고양시","country":"경기","emoji":"🍲","status":"open","award":"백년가게 · 1991년 창업","note":"1991년 창업 · 2023년 백년가게 선정","shows":["B90"],"primaryShow":"B90"}},{"type":"Feature","geometry":{"type":"Point","coordinates":[126.811373,35.155853]},"properties":{"id":"kr-baeknyeon-임가네일반음식점-147","name":"임가네 일반음식점","city":"광산구","country":"광주","emoji":"🍽️","status":"open","award":"백년가게 · 1994년 창업","note":"1994년 창업 · 2024년 백년가게 선정","shows":["B90"],"primaryShow":"B90"}},{"type":"Feature","geometry":{"type":"Point","coordinates":[127.488191,37.537793]},"properties":{"id":"kr-baeknyeon-보광정-148","name":"보광정","city":"양평군","country":"경기","emoji":"🍽️","status":"open","award":"백년가게 · 1996년 창업","note":"1996년 창업 · 2023년 백년가게 선정","shows":["B90"],"primaryShow":"B90"}},{"type":"Feature","geometry":{"type":"Point","coordinates":[127.929721,36.970927]},"properties":{"id":"kr-baeknyeon-은혜본가-149","name":"은혜본가","city":"충주시","country":"충북","emoji":"🍽️","status":"open","award":"백년가게 · 1987년 창업","note":"1987년 창업 · 2022년 백년가게 선정","shows":["B80"],"primaryShow":"B80"}},{"type":"Feature","geometry":{"type":"Point","coordinates":[127.293285,36.583401]},"properties":{"id":"kr-baeknyeon-번암반점-150","name":"번암반점","city":"조치원읍","country":"세종","emoji":"🍽️","status":"open","award":"백년가게 · 1999년 창업","note":"1999년 창업 · 2023년 백년가게 선정","shows":["B90"],"primaryShow":"B90"}},{"type":"Feature","geometry":{"type":"Point","coordinates":[127.300879,36.603511]},"properties":{"id":"kr-baeknyeon-우보설렁탕-151","name":"우보설렁탕","city":"조치원읍","country":"세종","emoji":"🍲","status":"open","award":"백년가게 · 1995년 창업","note":"1995년 창업 · 2021년 백년가게 선정","shows":["B90"],"primaryShow":"B90"}},{"type":"Feature","geometry":{"type":"Point","coordinates":[128.899407,35.230517]},"properties":{"id":"kr-baeknyeon-원조할매추어탕-152","name":"원조할매추어탕","city":"김해시","country":"경남","emoji":"🍲","status":"open","award":"백년가게 · 2000년 창업","note":"2000년 창업 · 2021년 백년가게 선정","shows":["B00"],"primaryShow":"B00"}},{"type":"Feature","geometry":{"type":"Point","coordinates":[126.888413,35.154153]},"properties":{"id":"kr-baeknyeon-문경정짱뚱어탕전문점-153","name":"문경정 짱뚱어탕 전문점","city":"서구","country":"광주","emoji":"🍽️","status":"open","award":"백년가게 · 1999년 창업","note":"1999년 창업 · 2024년 백년가게 선정","shows":["B90"],"primaryShow":"B90"}},{"type":"Feature","geometry":{"type":"Point","coordinates":[128.580136,35.207134]},"properties":{"id":"kr-baeknyeon-판문점-154","name":"판문점","city":"마산시","country":"경남","emoji":"🍽️","status":"open","award":"백년가게 · 1979년 창업","note":"1979년 창업 · 2019년 백년가게 선정","shows":["B70"],"primaryShow":"B70"}},{"type":"Feature","geometry":{"type":"Point","coordinates":[129.11957,36.506251]},"properties":{"id":"kr-baeknyeon-명궁약수가든-155","name":"명궁약수가든","city":"청송군","country":"경북","emoji":"🍽️","status":"open","award":"백년가게 · 1986년 창업","note":"1986년 창업 · 2023년 백년가게 선정","shows":["B80"],"primaryShow":"B80"}},{"type":"Feature","geometry":{"type":"Point","coordinates":[128.734514,36.566856]},"properties":{"id":"kr-baeknyeon-안동회관-156","name":"안동회관","city":"안동시","country":"경북","emoji":"🐟","status":"open","award":"백년가게 · 1972년 창업","note":"1972년 창업 · 2022년 백년가게 선정","shows":["B70"],"primaryShow":"B70"}},{"type":"Feature","geometry":{"type":"Point","coordinates":[126.858858,37.515492]},"properties":{"id":"kr-baeknyeon-히노야마-157","name":"히노야마","city":"양천구","country":"서울","emoji":"🍽️","status":"open","award":"백년가게 · 1993년 창업","note":"1993년 창업 · 2022년 백년가게 선정","shows":["B90"],"primaryShow":"B90"}},{"type":"Feature","geometry":{"type":"Point","coordinates":[126.708281,35.982721]},"properties":{"id":"kr-baeknyeon-전주우족설렁탕-158","name":"전주우족설렁탕","city":"군산시","country":"전북","emoji":"🍲","status":"open","award":"백년가게 · 1976년 창업","note":"1976년 창업 · 2022년 백년가게 선정","shows":["B70"],"primaryShow":"B70"}},{"type":"Feature","geometry":{"type":"Point","coordinates":[127.005891,37.570298]},"properties":{"id":"kr-baeknyeon-명동닭한마리본점-159","name":"명동닭한마리 본점","city":"종로구","country":"서울","emoji":"🍗","status":"open","award":"백년가게 · 1991년 창업","note":"1991년 창업 · 2022년 백년가게 선정","shows":["B90"],"primaryShow":"B90"}},{"type":"Feature","geometry":{"type":"Point","coordinates":[127.140992,35.817841]},"properties":{"id":"kr-baeknyeon-삼백집-160","name":"삼백집","city":"전주시","country":"전북","emoji":"🍽️","status":"open","award":"백년가게 · 1989년 창업","note":"1989년 창업 · 2022년 백년가게 선정","shows":["B80"],"primaryShow":"B80"}},{"type":"Feature","geometry":{"type":"Point","coordinates":[127.426566,36.359233]},"properties":{"id":"kr-baeknyeon-은혜반찬2-161","name":"은혜반찬2","city":"대덕구","country":"대전","emoji":"🍽️","status":"open","award":"백년가게 · 2002년 창업","note":"2002년 창업 · 2022년 백년가게 선정","shows":["B00"],"primaryShow":"B00"}},{"type":"Feature","geometry":{"type":"Point","coordinates":[127.377403,36.362674]},"properties":{"id":"kr-baeknyeon-동원손칼국수-162","name":"동원손칼국수","city":"서구","country":"대전","emoji":"🍜","status":"open","award":"백년가게 · 1995년 창업","note":"1995년 창업 · 2022년 백년가게 선정","shows":["B90"],"primaryShow":"B90"}},{"type":"Feature","geometry":{"type":"Point","coordinates":[126.803119,35.180532]},"properties":{"id":"kr-baeknyeon-연경-163","name":"연경","city":"광산구","country":"광주","emoji":"🍽️","status":"open","award":"백년가게 · 1987년 창업","note":"1987년 창업 · 2022년 백년가게 선정","shows":["B80"],"primaryShow":"B80"}},{"type":"Feature","geometry":{"type":"Point","coordinates":[126.917334,35.147723]},"properties":{"id":"kr-baeknyeon-궁전제과-164","name":"궁전제과","city":"동구","country":"광주","emoji":"🍞","status":"open","award":"백년가게 · 1986년 창업","note":"1986년 창업 · 2022년 백년가게 선정","shows":["B80"],"primaryShow":"B80"}},{"type":"Feature","geometry":{"type":"Point","coordinates":[127.142368,35.826834]},"properties":{"id":"kr-baeknyeon-진미집-165","name":"진미집","city":"전주시","country":"전북","emoji":"🍽️","status":"open","award":"백년가게 · 1980년 창업","note":"1980년 창업 · 2022년 백년가게 선정","shows":["B80"],"primaryShow":"B80"}},{"type":"Feature","geometry":{"type":"Point","coordinates":[127.142011,35.817735]},"properties":{"id":"kr-baeknyeon-금일옥-166","name":"금일옥","city":"전주시","country":"전북","emoji":"🍽️","status":"open","award":"백년가게 · 1983년 창업","note":"1983년 창업 · 2022년 백년가게 선정","shows":["B80"],"primaryShow":"B80"}},{"type":"Feature","geometry":{"type":"Point","coordinates":[127.435206,36.370214]},"properties":{"id":"kr-baeknyeon-매봉식당-167","name":"매봉식당","city":"대덕구","country":"대전","emoji":"🍽️","status":"open","award":"백년가게 · 2018년 창업","note":"2018년 창업 · 2022년 백년가게 선정","shows":["B00"],"primaryShow":"B00"}},{"type":"Feature","geometry":{"type":"Point","coordinates":[127.05141,37.487347]},"properties":{"id":"kr-baeknyeon-김영모과자점-168","name":"(주)김영모과자점","city":"강남구","country":"서울","emoji":"🍽️","status":"open","award":"백년가게 · 1982년 창업","note":"1982년 창업 · 2022년 백년가게 선정","shows":["B80"],"primaryShow":"B80"}},{"type":"Feature","geometry":{"type":"Point","coordinates":[127.348375,36.389746]},"properties":{"id":"kr-baeknyeon-바질리코레스토랑-169","name":"바질리코레스토랑","city":"유성구","country":"대전","emoji":"🍽️","status":"open","award":"백년가게 · 1999년 창업","note":"1999년 창업 · 2022년 백년가게 선정","shows":["B90"],"primaryShow":"B90"}},{"type":"Feature","geometry":{"type":"Point","coordinates":[127.42589,36.36584]},"properties":{"id":"kr-baeknyeon-자연산형제횟집-170","name":"자연산형제횟집","city":"대덕구","country":"대전","emoji":"🐟","status":"open","award":"백년가게 · 1996년 창업","note":"1996년 창업 · 2022년 백년가게 선정","shows":["B90"],"primaryShow":"B90"}},{"type":"Feature","geometry":{"type":"Point","coordinates":[127.208326,37.634029]},"properties":{"id":"kr-baeknyeon-박성구과자점-171","name":"박성구과자점","city":"남양주시","country":"경기","emoji":"🍽️","status":"open","award":"백년가게 · 1983년 창업","note":"1983년 창업 · 2022년 백년가게 선정","shows":["B80"],"primaryShow":"B80"}},{"type":"Feature","geometry":{"type":"Point","coordinates":[129.347292,36.045177]},"properties":{"id":"kr-baeknyeon-팡페이장과자점-172","name":"팡페이장과자점","city":"포항시","country":"경북","emoji":"🍽️","status":"open","award":"백년가게 · 1997년 창업","note":"1997년 창업 · 2022년 백년가게 선정","shows":["B90"],"primaryShow":"B90"}},{"type":"Feature","geometry":{"type":"Point","coordinates":[127.055566,37.917296]},"properties":{"id":"kr-baeknyeon-오륙하우스-173","name":"오륙하우스","city":"동두천시","country":"경기","emoji":"🍽️","status":"open","award":"백년가게 · 1972년 창업","note":"1972년 창업 · 2022년 백년가게 선정","shows":["B70"],"primaryShow":"B70"}},{"type":"Feature","geometry":{"type":"Point","coordinates":[127.821241,36.530873]},"properties":{"id":"kr-baeknyeon-배영숙산야초밥상-174","name":"배영숙산야초밥상","city":"보은군","country":"충북","emoji":"🍣","status":"open","award":"백년가게 · 1995년 창업","note":"1995년 창업 · 2022년 백년가게 선정","shows":["B90"],"primaryShow":"B90"}},{"type":"Feature","geometry":{"type":"Point","coordinates":[127.455505,37.518057]},"properties":{"id":"kr-baeknyeon-옥천면옥-175","name":"옥천면옥","city":"양평군","country":"경기","emoji":"🍽️","status":"open","award":"백년가게 · 1988년 창업","note":"1988년 창업 · 2022년 백년가게 선정","shows":["B80"],"primaryShow":"B80"}},{"type":"Feature","geometry":{"type":"Point","coordinates":[127.065057,37.331233]},"properties":{"id":"kr-baeknyeon-정미소김치관-176","name":"정미소 김치관","city":"용인시","country":"경기","emoji":"🍽️","status":"open","award":"백년가게 · 2001년 창업","note":"2001년 창업 · 2022년 백년가게 선정","shows":["B00"],"primaryShow":"B00"}},{"type":"Feature","geometry":{"type":"Point","coordinates":[127.104693,37.279319]},"properties":{"id":"kr-baeknyeon-장수촌-177","name":"장수촌","city":"용인시","country":"경기","emoji":"🍽️","status":"open","award":"백년가게 · 2014년 창업","note":"2014년 창업 · 2022년 백년가게 선정","shows":["B00"],"primaryShow":"B00"}},{"type":"Feature","geometry":{"type":"Point","coordinates":[129.41033,35.95874]},"properties":{"id":"kr-baeknyeon-미세스고등어본점-178","name":"미세스고등어 본점","city":"포항시","country":"경북","emoji":"🍽️","status":"open","award":"백년가게 · 2001년 창업","note":"2001년 창업 · 2022년 백년가게 선정","shows":["B00"],"primaryShow":"B00"}},{"type":"Feature","geometry":{"type":"Point","coordinates":[126.824158,37.605324]},"properties":{"id":"kr-baeknyeon-한일가든-179","name":"한일가든","city":"고양시","country":"경기","emoji":"🍽️","status":"open","award":"백년가게 · 1960년 창업","note":"1960년 창업 · 2022년 백년가게 선정","shows":["B60"],"primaryShow":"B60"}},{"type":"Feature","geometry":{"type":"Point","coordinates":[129.355711,36.019746]},"properties":{"id":"kr-baeknyeon-금산삼계탕-180","name":"금산삼계탕","city":"포항시","country":"경북","emoji":"🍗","status":"open","award":"백년가게 · 1996년 창업","note":"1996년 창업 · 2022년 백년가게 선정","shows":["B90"],"primaryShow":"B90"}},{"type":"Feature","geometry":{"type":"Point","coordinates":[128.536989,35.832814]},"properties":{"id":"kr-baeknyeon-옛맛집-181","name":"옛맛집","city":"달서구","country":"대구","emoji":"🍽️","status":"open","award":"백년가게 · 1998년 창업","note":"1998년 창업 · 2022년 백년가게 선정","shows":["B90"],"primaryShow":"B90"}},{"type":"Feature","geometry":{"type":"Point","coordinates":[126.700145,37.472199]},"properties":{"id":"kr-baeknyeon-초가숯불갈비-182","name":"초가숯불갈비","city":"부평구","country":"인천","emoji":"🥩","status":"open","award":"백년가게 · 1999년 창업","note":"1999년 창업 · 2022년 백년가게 선정","shows":["B90"],"primaryShow":"B90"}},{"type":"Feature","geometry":{"type":"Point","coordinates":[129.332279,36.238332]},"properties":{"id":"kr-baeknyeon-진주식당-183","name":"진주식당","city":"포항시","country":"경북","emoji":"🍽️","status":"open","award":"백년가게 · 1980년 창업","note":"1980년 창업 · 2022년 백년가게 선정","shows":["B80"],"primaryShow":"B80"}},{"type":"Feature","geometry":{"type":"Point","coordinates":[128.617342,35.830307]},"properties":{"id":"kr-baeknyeon-서민갈비-184","name":"서민갈비","city":"수성구","country":"대구","emoji":"🥩","status":"open","award":"백년가게 · 2001년 창업","note":"2001년 창업 · 2022년 백년가게 선정","shows":["B00"],"primaryShow":"B00"}},{"type":"Feature","geometry":{"type":"Point","coordinates":[128.70952,35.837011]},"properties":{"id":"kr-baeknyeon-동해회집-185","name":"동해회집","city":"수성구","country":"대구","emoji":"🐟","status":"open","award":"백년가게 · 1995년 창업","note":"1995년 창업 · 2022년 백년가게 선정","shows":["B90"],"primaryShow":"B90"}},{"type":"Feature","geometry":{"type":"Point","coordinates":[128.7115,35.842594]},"properties":{"id":"kr-baeknyeon-데일리호스브라운-186","name":"데일리호스브라운","city":"수성구","country":"대구","emoji":"🍽️","status":"open","award":"백년가게 · 1986년 창업","note":"1986년 창업 · 2022년 백년가게 선정","shows":["B80"],"primaryShow":"B80"}},{"type":"Feature","geometry":{"type":"Point","coordinates":[127.052023,37.045293]},"properties":{"id":"kr-baeknyeon-케익나라-187","name":"케익나라","city":"평택시","country":"경기","emoji":"🍽️","status":"open","award":"백년가게 · 1984년 창업","note":"1984년 창업 · 2022년 백년가게 선정","shows":["B80"],"primaryShow":"B80"}},{"type":"Feature","geometry":{"type":"Point","coordinates":[127.053214,37.902536]},"properties":{"id":"kr-baeknyeon-호수식당-188","name":"호수식당","city":"동두천시","country":"경기","emoji":"🍽️","status":"open","award":"백년가게 · 2000년 창업","note":"2000년 창업 · 2022년 백년가게 선정","shows":["B00"],"primaryShow":"B00"}},{"type":"Feature","geometry":{"type":"Point","coordinates":[127.14915,35.818324]},"properties":{"id":"kr-baeknyeon-왱이집-189","name":"왱이집","city":"전주시","country":"전북","emoji":"🍽️","status":"open","award":"백년가게 · 1991년 창업","note":"1991년 창업 · 2022년 백년가게 선정","shows":["B90"],"primaryShow":"B90"}},{"type":"Feature","geometry":{"type":"Point","coordinates":[128.819838,35.956835]},"properties":{"id":"kr-baeknyeon-박터진흥부네-190","name":"박터진흥부네","city":"경산시","country":"경북","emoji":"🍽️","status":"open","award":"백년가게 · 1988년 창업","note":"1988년 창업 · 2022년 백년가게 선정","shows":["B80"],"primaryShow":"B80"}},{"type":"Feature","geometry":{"type":"Point","coordinates":[128.342756,36.160718]},"properties":{"id":"kr-baeknyeon-복터진집본점-191","name":"복터진집 본점","city":"구미시","country":"경북","emoji":"🍽️","status":"open","award":"백년가게 · 2001년 창업","note":"2001년 창업 · 2022년 백년가게 선정","shows":["B00"],"primaryShow":"B00"}},{"type":"Feature","geometry":{"type":"Point","coordinates":[127.984985,34.739446]},"properties":{"id":"kr-baeknyeon-재두식당-192","name":"재두식당","city":"남해군","country":"경남","emoji":"🍽️","status":"open","award":"백년가게 · 1967년 창업","note":"1967년 창업 · 2022년 백년가게 선정","shows":["B60"],"primaryShow":"B60"}},{"type":"Feature","geometry":{"type":"Point","coordinates":[128.329295,36.154249]},"properties":{"id":"kr-baeknyeon-평양아바이순대국밥-193","name":"평양아바이순대국밥","city":"구미시","country":"경북","emoji":"🍲","status":"open","award":"백년가게 · 2000년 창업","note":"2000년 창업 · 2022년 백년가게 선정","shows":["B00"],"primaryShow":"B00"}},{"type":"Feature","geometry":{"type":"Point","coordinates":[126.828941,37.309455]},"properties":{"id":"kr-baeknyeon-마루솥뚜껑와인삼겹살-194","name":"마루솥뚜껑 와인삼겹살","city":"안산시","country":"경기","emoji":"🥩","status":"open","award":"백년가게 · 2001년 창업","note":"2001년 창업 · 2022년 백년가게 선정","shows":["B00"],"primaryShow":"B00"}},{"type":"Feature","geometry":{"type":"Point","coordinates":[126.851044,37.301619]},"properties":{"id":"kr-baeknyeon-궁중삼게탕-195","name":"궁중삼게탕","city":"안산시","country":"경기","emoji":"🍲","status":"open","award":"백년가게 · 2022년 창업","note":"2022년 창업 · 2022년 백년가게 선정","shows":["B00"],"primaryShow":"B00"}},{"type":"Feature","geometry":{"type":"Point","coordinates":[126.965864,37.590542]},"properties":{"id":"kr-baeknyeon-용금옥-196","name":"용금옥","city":"종로구","country":"서울","emoji":"🍽️","status":"open","award":"백년가게 · 1982년 창업","note":"1982년 창업 · 2022년 백년가게 선정","shows":["B80"],"primaryShow":"B80"}},{"type":"Feature","geometry":{"type":"Point","coordinates":[127.95226,37.350918]},"properties":{"id":"kr-baeknyeon-무궁화집-197","name":"무궁화집","city":"원주시","country":"강원","emoji":"🍽️","status":"open","award":"백년가게 · 1982년 창업","note":"1982년 창업 · 2022년 백년가게 선정","shows":["B80"],"primaryShow":"B80"}},{"type":"Feature","geometry":{"type":"Point","coordinates":[129.114417,37.552438]},"properties":{"id":"kr-baeknyeon-동해안횟집-198","name":"동해안횟집","city":"동해시","country":"강원","emoji":"🐟","status":"open","award":"백년가게 · 1998년 창업","note":"1998년 창업 · 2022년 백년가게 선정","shows":["B90"],"primaryShow":"B90"}},{"type":"Feature","geometry":{"type":"Point","coordinates":[129.239782,37.337075]},"properties":{"id":"kr-baeknyeon-동막막국수-199","name":"동막막국수","city":"삼척시","country":"강원","emoji":"🍜","status":"open","award":"백년가게 · 2000년 창업","note":"2000년 창업 · 2022년 백년가게 선정","shows":["B00"],"primaryShow":"B00"}},{"type":"Feature","geometry":{"type":"Point","coordinates":[127.548954,37.403188]},"properties":{"id":"kr-baeknyeon-강계봉진막국수-200","name":"(주)강계봉진막국수","city":"여주시","country":"경기","emoji":"🍜","status":"open","award":"백년가게 · 1981년 창업","note":"1981년 창업 · 2022년 백년가게 선정","shows":["B80"],"primaryShow":"B80"}},{"type":"Feature","geometry":{"type":"Point","coordinates":[128.34418,36.125534]},"properties":{"id":"kr-baeknyeon-김태주선산곱창-201","name":"김태주선산곱창(주)","city":"구미시","country":"경북","emoji":"🥩","status":"open","award":"백년가게 · 1996년 창업","note":"1996년 창업 · 2022년 백년가게 선정","shows":["B90"],"primaryShow":"B90"}},{"type":"Feature","geometry":{"type":"Point","coordinates":[126.254154,33.222134]},"properties":{"id":"kr-baeknyeon-신세계제과점-202","name":"신세계제과점","city":"서귀포시","country":"제주","emoji":"🍞","status":"open","award":"백년가게 · 1984년 창업","note":"1984년 창업 · 2022년 백년가게 선정","shows":["B80"],"primaryShow":"B80"}},{"type":"Feature","geometry":{"type":"Point","coordinates":[127.182919,37.480715]},"properties":{"id":"kr-baeknyeon-용마루-203","name":"용마루","city":"광주시","country":"경기","emoji":"🍽️","status":"open","award":"백년가게 · 1980년 창업","note":"1980년 창업 · 2022년 백년가게 선정","shows":["B80"],"primaryShow":"B80"}},{"type":"Feature","geometry":{"type":"Point","coordinates":[127.50604,36.896863]},"properties":{"id":"kr-baeknyeon-신궁전가든-204","name":"신궁전가든","city":"진천군","country":"충북","emoji":"🍽️","status":"open","award":"백년가게 · 2001년 창업","note":"2001년 창업 · 2022년 백년가게 선정","shows":["B00"],"primaryShow":"B00"}},{"type":"Feature","geometry":{"type":"Point","coordinates":[128.481392,35.387324]},"properties":{"id":"kr-baeknyeon-복주집-205","name":"복주집","city":"창녕군","country":"경남","emoji":"🍽️","status":"open","award":"백년가게 · 1986년 창업","note":"1986년 창업 · 2022년 백년가게 선정","shows":["B80"],"primaryShow":"B80"}},{"type":"Feature","geometry":{"type":"Point","coordinates":[127.251397,36.983807]},"properties":{"id":"kr-baeknyeon-대물림안성장터국밥-206","name":"대물림안성장터국밥","city":"안성시","country":"경기","emoji":"🍲","status":"open","award":"백년가게 · 1995년 창업","note":"1995년 창업 · 2022년 백년가게 선정","shows":["B90"],"primaryShow":"B90"}},{"type":"Feature","geometry":{"type":"Point","coordinates":[127.03412,37.506871]},"properties":{"id":"kr-baeknyeon-베이징덕-207","name":"베이징덕","city":"강남구","country":"서울","emoji":"🍽️","status":"open","award":"백년가게 · 1991년 창업","note":"1991년 창업 · 2022년 백년가게 선정","shows":["B90"],"primaryShow":"B90"}},{"type":"Feature","geometry":{"type":"Point","coordinates":[127.101149,37.518243]},"properties":{"id":"kr-baeknyeon-송가네감자탕-208","name":"송가네 감자탕","city":"송파구","country":"서울","emoji":"🍲","status":"open","award":"백년가게 · 2002년 창업","note":"2002년 창업 · 2022년 백년가게 선정","shows":["B00"],"primaryShow":"B00"}},{"type":"Feature","geometry":{"type":"Point","coordinates":[127.078418,37.557157]},"properties":{"id":"kr-baeknyeon-능동아구탕-209","name":"능동아구탕","city":"광진구","country":"서울","emoji":"🍲","status":"open","award":"백년가게 · 1984년 창업","note":"1984년 창업 · 2022년 백년가게 선정","shows":["B80"],"primaryShow":"B80"}},{"type":"Feature","geometry":{"type":"Point","coordinates":[127.430087,36.334724]},"properties":{"id":"kr-baeknyeon-중국성-210","name":"중국성","city":"동구","country":"대전","emoji":"🍽️","status":"open","award":"백년가게 · 2018년 창업","note":"2018년 창업 · 2022년 백년가게 선정","shows":["B00"],"primaryShow":"B00"}},{"type":"Feature","geometry":{"type":"Point","coordinates":[128.650726,35.763451]},"properties":{"id":"kr-baeknyeon-호성베이커리-211","name":"호성베이커리(호찐빵만두나라)","city":"달성군","country":"대구","emoji":"🥟","status":"open","award":"백년가게 · 1995년 창업","note":"1995년 창업 · 2022년 백년가게 선정","shows":["B90"],"primaryShow":"B90"}},{"type":"Feature","geometry":{"type":"Point","coordinates":[127.52037,34.957525]},"properties":{"id":"kr-baeknyeon-향토정-212","name":"향토정","city":"순천시","country":"전남","emoji":"🍽️","status":"open","award":"백년가게 · 1997년 창업","note":"1997년 창업 · 2022년 백년가게 선정","shows":["B90"],"primaryShow":"B90"}},{"type":"Feature","geometry":{"type":"Point","coordinates":[127.517542,34.933831]},"properties":{"id":"kr-baeknyeon-순천복집-213","name":"순천복집","city":"순천시","country":"전남","emoji":"🍽️","status":"open","award":"백년가게 · 1991년 창업","note":"1991년 창업 · 2022년 백년가게 선정","shows":["B90"],"primaryShow":"B90"}},{"type":"Feature","geometry":{"type":"Point","coordinates":[127.515894,34.933726]},"properties":{"id":"kr-baeknyeon-박구윤회관-214","name":"박구윤회관","city":"순천시","country":"전남","emoji":"🐟","status":"open","award":"백년가게 · 1997년 창업","note":"1997년 창업 · 2022년 백년가게 선정","shows":["B90"],"primaryShow":"B90"}},{"type":"Feature","geometry":{"type":"Point","coordinates":[127.494219,34.945407]},"properties":{"id":"kr-baeknyeon-거목순대국밥-215","name":"거목순대국밥","city":"순천시","country":"전남","emoji":"🍲","status":"open","award":"백년가게 · 2000년 창업","note":"2000년 창업 · 2022년 백년가게 선정","shows":["B00"],"primaryShow":"B00"}},{"type":"Feature","geometry":{"type":"Point","coordinates":[128.45405,36.65729]},"properties":{"id":"kr-baeknyeon-한국관복어집-216","name":"한국관복어집","city":"예천군","country":"경북","emoji":"🍽️","status":"open","award":"백년가게 · 1987년 창업","note":"1987년 창업 · 2022년 백년가게 선정","shows":["B80"],"primaryShow":"B80"}},{"type":"Feature","geometry":{"type":"Point","coordinates":[129.080907,35.216079]},"properties":{"id":"kr-baeknyeon-원조꼬리곰집-217","name":"원조꼬리곰집","city":"동래구","country":"부산","emoji":"🍽️","status":"open","award":"백년가게 · 1982년 창업","note":"1982년 창업 · 2022년 백년가게 선정","shows":["B80"],"primaryShow":"B80"}},{"type":"Feature","geometry":{"type":"Point","coordinates":[126.385713,34.794095]},"properties":{"id":"kr-baeknyeon-관광오리탕목포본점-218","name":"관광오리탕 목포본점","city":"목포시","country":"전남","emoji":"🍗","status":"open","award":"백년가게 · 2001년 창업","note":"2001년 창업 · 2022년 백년가게 선정","shows":["B00"],"primaryShow":"B00"}},{"type":"Feature","geometry":{"type":"Point","coordinates":[127.562945,36.356714]},"properties":{"id":"kr-baeknyeon-새강변식당-219","name":"새강변식당","city":"옥천군","country":"충북","emoji":"🍽️","status":"open","award":"백년가게 · 1989년 창업","note":"1989년 창업 · 2022년 백년가게 선정","shows":["B80"],"primaryShow":"B80"}},{"type":"Feature","geometry":{"type":"Point","coordinates":[127.0725,37.894923]},"properties":{"id":"kr-baeknyeon-라르고-220","name":"라르고","city":"동두천시","country":"경기","emoji":"🍽️","status":"open","award":"백년가게 · 1997년 창업","note":"1997년 창업 · 2022년 백년가게 선정","shows":["B90"],"primaryShow":"B90"}},{"type":"Feature","geometry":{"type":"Point","coordinates":[126.710697,35.729062]},"properties":{"id":"kr-baeknyeon-계화회관-221","name":"계화회관","city":"부안군","country":"전북","emoji":"🐟","status":"open","award":"백년가게 · 1980년 창업","note":"1980년 창업 · 2022년 백년가게 선정","shows":["B80"],"primaryShow":"B80"}},{"type":"Feature","geometry":{"type":"Point","coordinates":[128.315888,36.111633]},"properties":{"id":"kr-baeknyeon-금오산길-222","name":"금오산길","city":"구미시","country":"경북","emoji":"🍽️","status":"open","award":"백년가게 · 1976년 창업","note":"1976년 창업 · 2022년 백년가게 선정","shows":["B70"],"primaryShow":"B70"}},{"type":"Feature","geometry":{"type":"Point","coordinates":[126.983415,35.060257]},"properties":{"id":"kr-baeknyeon-한양팥죽-223","name":"한양팥죽","city":"화순군","country":"전남","emoji":"🍲","status":"open","award":"백년가게 · 1991년 창업","note":"1991년 창업 · 2022년 백년가게 선정","shows":["B90"],"primaryShow":"B90"}},{"type":"Feature","geometry":{"type":"Point","coordinates":[126.928541,37.483188]},"properties":{"id":"kr-baeknyeon-오첨지-224","name":"오첨지","city":"관악구","country":"서울","emoji":"🍽️","status":"open","award":"백년가게 · 2022년 창업","note":"2022년 창업 · 2022년 백년가게 선정","shows":["B00"],"primaryShow":"B00"}},{"type":"Feature","geometry":{"type":"Point","coordinates":[127.075478,37.250876]},"properties":{"id":"kr-baeknyeon-두꺼비집-225","name":"두꺼비집","city":"수원시","country":"경기","emoji":"🍽️","status":"open","award":"백년가게 · 1981년 창업","note":"1981년 창업 · 2022년 백년가게 선정","shows":["B80"],"primaryShow":"B80"}},{"type":"Feature","geometry":{"type":"Point","coordinates":[128.563896,35.180496]},"properties":{"id":"kr-baeknyeon-마산족발-226","name":"마산족발","city":"창원시","country":"경남","emoji":"🍖","status":"open","award":"백년가게 · 1981년 창업","note":"1981년 창업 · 2022년 백년가게 선정","shows":["B80"],"primaryShow":"B80"}},{"type":"Feature","geometry":{"type":"Point","coordinates":[128.587329,35.218632]},"properties":{"id":"kr-baeknyeon-대가-227","name":"대가","city":"창원시","country":"경남","emoji":"🍽️","status":"open","award":"백년가게 · 1991년 창업","note":"1991년 창업 · 2022년 백년가게 선정","shows":["B90"],"primaryShow":"B90"}},{"type":"Feature","geometry":{"type":"Point","coordinates":[129.111348,36.378127]},"properties":{"id":"kr-baeknyeon-주왕산가든-228","name":"주왕산가든","city":"청송군","country":"경북","emoji":"🍽️","status":"open","award":"백년가게 · 1989년 창업","note":"1989년 창업 · 2022년 백년가게 선정","shows":["B80"],"primaryShow":"B80"}},{"type":"Feature","geometry":{"type":"Point","coordinates":[127.395182,36.319787]},"properties":{"id":"kr-baeknyeon-대들보함흥면옥-229","name":"대들보함흥면옥","city":"중구","country":"대전","emoji":"🍜","status":"open","award":"백년가게 · 1988년 창업","note":"1988년 창업 · 2022년 백년가게 선정","shows":["B80"],"primaryShow":"B80"}},{"type":"Feature","geometry":{"type":"Point","coordinates":[127.049214,37.273775]},"properties":{"id":"kr-baeknyeon-신라갈비-230","name":"신라갈비","city":"수원시","country":"경기","emoji":"🥩","status":"open","award":"백년가게 · 1986년 창업","note":"1986년 창업 · 2022년 백년가게 선정","shows":["B80"],"primaryShow":"B80"}},{"type":"Feature","geometry":{"type":"Point","coordinates":[128.672161,38.079434]},"properties":{"id":"kr-baeknyeon-문어랑새우횟집-231","name":"문어랑새우횟집","city":"양양군","country":"강원","emoji":"🐟","status":"open","award":"백년가게 · 1991년 창업","note":"1991년 창업 · 2022년 백년가게 선정","shows":["B90"],"primaryShow":"B90"}},{"type":"Feature","geometry":{"type":"Point","coordinates":[127.708041,37.871834]},"properties":{"id":"kr-baeknyeon-라모스-232","name":"라모스","city":"춘천시","country":"강원","emoji":"🍽️","status":"open","award":"백년가게 · 1973년 창업","note":"1973년 창업 · 2022년 백년가게 선정","shows":["B70"],"primaryShow":"B70"}},{"type":"Feature","geometry":{"type":"Point","coordinates":[128.907983,37.787225]},"properties":{"id":"kr-baeknyeon-보헤미안커피점-233","name":"보헤미안커피점","city":"강릉시","country":"강원","emoji":"☕","status":"open","award":"백년가게 · 2000년 창업","note":"2000년 창업 · 2022년 백년가게 선정","shows":["B00"],"primaryShow":"B00"}},{"type":"Feature","geometry":{"type":"Point","coordinates":[127.711209,37.873734]},"properties":{"id":"kr-baeknyeon-이디오피아집-234","name":"이디오피아집(벳)","city":"춘천시","country":"강원","emoji":"🍽️","status":"open","award":"백년가게 · 1976년 창업","note":"1976년 창업 · 2022년 백년가게 선정","shows":["B70"],"primaryShow":"B70"}},{"type":"Feature","geometry":{"type":"Point","coordinates":[126.904843,35.172376]},"properties":{"id":"kr-baeknyeon-백련옥-235","name":"백련옥","city":"북구","country":"광주","emoji":"🍽️","status":"open","award":"백년가게 · 1985년 창업","note":"1985년 창업 · 2022년 백년가게 선정","shows":["B80"],"primaryShow":"B80"}},{"type":"Feature","geometry":{"type":"Point","coordinates":[126.926491,35.150923]},"properties":{"id":"kr-baeknyeon-황토길-236","name":"황토길","city":"동구","country":"광주","emoji":"🍽️","status":"open","award":"백년가게 · 1992년 창업","note":"1992년 창업 · 2022년 백년가게 선정","shows":["B90"],"primaryShow":"B90"}},{"type":"Feature","geometry":{"type":"Point","coordinates":[126.990346,35.057622]},"properties":{"id":"kr-baeknyeon-태능숯불갈비-237","name":"태능숯불갈비","city":"화순군","country":"전남","emoji":"🥩","status":"open","award":"백년가게 · 1995년 창업","note":"1995년 창업 · 2022년 백년가게 선정","shows":["B90"],"primaryShow":"B90"}},{"type":"Feature","geometry":{"type":"Point","coordinates":[129.110492,35.144171]},"properties":{"id":"kr-baeknyeon-남천낙지-238","name":"남천낙지","city":"수영구","country":"부산","emoji":"🐟","status":"open","award":"백년가게 · 1987년 창업","note":"1987년 창업 · 2022년 백년가게 선정","shows":["B80"],"primaryShow":"B80"}},{"type":"Feature","geometry":{"type":"Point","coordinates":[126.429,37.533]},"properties":{"id":"kr-baeknyeon-하늘가든-239","name":"하늘가든","city":"옹진군","country":"인천","emoji":"🍽️","status":"open","award":"백년가게 · 1996년 창업","note":"1996년 창업 · 2021년 백년가게 선정","shows":["B90"],"primaryShow":"B90"}},{"type":"Feature","geometry":{"type":"Point","coordinates":[127.338298,37.591796]},"properties":{"id":"kr-baeknyeon-왈츠와닥터만-240","name":"왈츠와닥터만","city":"남양주시","country":"경기","emoji":"🍽️","status":"open","award":"백년가게 · 1986년 창업","note":"1986년 창업 · 2021년 백년가게 선정","shows":["B80"],"primaryShow":"B80"}},{"type":"Feature","geometry":{"type":"Point","coordinates":[126.99155,37.429042]},"properties":{"id":"kr-baeknyeon-통나무집-241","name":"통나무집","city":"과천시","country":"경기","emoji":"🍽️","status":"open","award":"백년가게 · 1990년 창업","note":"1990년 창업 · 2021년 백년가게 선정","shows":["B90"],"primaryShow":"B90"}},{"type":"Feature","geometry":{"type":"Point","coordinates":[126.989974,37.565769]},"properties":{"id":"kr-baeknyeon-풍남-242","name":"풍남","city":"중구","country":"서울","emoji":"🍽️","status":"open","award":"백년가게 · 1984년 창업","note":"1984년 창업 · 2021년 백년가게 선정","shows":["B80"],"primaryShow":"B80"}},{"type":"Feature","geometry":{"type":"Point","coordinates":[126.986398,37.572149]},"properties":{"id":"kr-baeknyeon-종가집-243","name":"종가집","city":"종로구","country":"서울","emoji":"🍽️","status":"open","award":"백년가게 · 1996년 창업","note":"1996년 창업 · 2021년 백년가게 선정","shows":["B90"],"primaryShow":"B90"}},{"type":"Feature","geometry":{"type":"Point","coordinates":[126.987624,37.571724]},"properties":{"id":"kr-baeknyeon-낙원아구찜-244","name":"낙원아구찜","city":"종로구","country":"서울","emoji":"🐟","status":"open","award":"백년가게 · 1977년 창업","note":"1977년 창업 · 2021년 백년가게 선정","shows":["B70"],"primaryShow":"B70"}},{"type":"Feature","geometry":{"type":"Point","coordinates":[126.904715,37.518254]},"properties":{"id":"kr-baeknyeon-송죽장-245","name":"송죽장","city":"영등포구","country":"서울","emoji":"🍲","status":"open","award":"백년가게 · 1999년 창업","note":"1999년 창업 · 2021년 백년가게 선정","shows":["B90"],"primaryShow":"B90"}},{"type":"Feature","geometry":{"type":"Point","coordinates":[126.926615,37.521725]},"properties":{"id":"kr-baeknyeon-고려정-246","name":"고려정","city":"영등포구","country":"서울","emoji":"🍽️","status":"open","award":"백년가게 · 1988년 창업","note":"1988년 창업 · 2021년 백년가게 선정","shows":["B80"],"primaryShow":"B80"}},{"type":"Feature","geometry":{"type":"Point","coordinates":[126.905417,37.479923]},"properties":{"id":"kr-baeknyeon-프랑세즈과자점-247","name":"프랑세즈과자점","city":"금천구","country":"서울","emoji":"🍽️","status":"open","award":"백년가게 · 1991년 창업","note":"1991년 창업 · 2021년 백년가게 선정","shows":["B90"],"primaryShow":"B90"}},{"type":"Feature","geometry":{"type":"Point","coordinates":[126.897156,37.455304]},"properties":{"id":"kr-baeknyeon-동흥관-248","name":"동흥관","city":"금천구","country":"서울","emoji":"🍽️","status":"open","award":"백년가게 · 1992년 창업","note":"1992년 창업 · 2021년 백년가게 선정","shows":["B90"],"primaryShow":"B90"}},{"type":"Feature","geometry":{"type":"Point","coordinates":[127.088136,37.554747]},"properties":{"id":"kr-baeknyeon-장군갈비-249","name":"장군갈비","city":"광진구","country":"서울","emoji":"🥩","status":"open","award":"백년가게 · 1980년 창업","note":"1980년 창업 · 2021년 백년가게 선정","shows":["B80"],"primaryShow":"B80"}},{"type":"Feature","geometry":{"type":"Point","coordinates":[126.817125,37.577175]},"properties":{"id":"kr-baeknyeon-신촌기사식당-250","name":"신촌기사식당","city":"강서구","country":"서울","emoji":"🍽️","status":"open","award":"백년가게 · 1993년 창업","note":"1993년 창업 · 2021년 백년가게 선정","shows":["B90"],"primaryShow":"B90"}},{"type":"Feature","geometry":{"type":"Point","coordinates":[127.049223,37.519648]},"properties":{"id":"kr-baeknyeon-진성식당-251","name":"진성식당","city":"강남구","country":"서울","emoji":"🍽️","status":"open","award":"백년가게 · 1989년 창업","note":"1989년 창업 · 2021년 백년가게 선정","shows":["B80"],"primaryShow":"B80"}},{"type":"Feature","geometry":{"type":"Point","coordinates":[127.032444,37.524986]},"properties":{"id":"kr-baeknyeon-삼원가든-252","name":"㈜삼원가든","city":"강남구","country":"서울","emoji":"🍽️","status":"open","award":"백년가게 · 1981년 창업","note":"1981년 창업 · 2021년 백년가게 선정","shows":["B80"],"primaryShow":"B80"}},{"type":"Feature","geometry":{"type":"Point","coordinates":[127.707374,37.870019]},"properties":{"id":"kr-baeknyeon-춘천명물닭갈비-253","name":"춘천명물닭갈비","city":"춘천시","country":"강원","emoji":"🍗","status":"open","award":"백년가게 · 1990년 창업","note":"1990년 창업 · 2021년 백년가게 선정","shows":["B90"],"primaryShow":"B90"}},{"type":"Feature","geometry":{"type":"Point","coordinates":[128.171711,38.068667]},"properties":{"id":"kr-baeknyeon-일미장-254","name":"일미장","city":"인제군","country":"강원","emoji":"🍽️","status":"open","award":"백년가게 · 1972년 창업","note":"1972년 창업 · 2021년 백년가게 선정","shows":["B70"],"primaryShow":"B70"}},{"type":"Feature","geometry":{"type":"Point","coordinates":[129.119929,37.559116]},"properties":{"id":"kr-baeknyeon-황해횟집-255","name":"황해횟집","city":"동해시","country":"강원","emoji":"🐟","status":"open","award":"백년가게 · 1985년 창업","note":"1985년 창업 · 2021년 백년가게 선정","shows":["B80"],"primaryShow":"B80"}},{"type":"Feature","geometry":{"type":"Point","coordinates":[129.030574,35.099833]},"properties":{"id":"kr-baeknyeon-삼송-256","name":"삼송","city":"중구","country":"부산","emoji":"🍽️","status":"open","award":"백년가게 · 1985년 창업","note":"1985년 창업 · 2021년 백년가게 선정","shows":["B80"],"primaryShow":"B80"}},{"type":"Feature","geometry":{"type":"Point","coordinates":[129.134263,35.156704]},"properties":{"id":"kr-baeknyeon-워터스톤-257","name":"㈜워터스톤","city":"수영구","country":"부산","emoji":"🍽️","status":"open","award":"백년가게 · 1980년 창업","note":"1980년 창업 · 2021년 백년가게 선정","shows":["B80"],"primaryShow":"B80"}},{"type":"Feature","geometry":{"type":"Point","coordinates":[127.424735,36.325891]},"properties":{"id":"kr-baeknyeon-진로집-258","name":"진로집","city":"중구","country":"대전","emoji":"🍽️","status":"open","award":"백년가게 · 1983년 창업","note":"1983년 창업 · 2021년 백년가게 선정","shows":["B80"],"primaryShow":"B80"}},{"type":"Feature","geometry":{"type":"Point","coordinates":[128.616248,35.830591]},"properties":{"id":"kr-baeknyeon-용지봉-259","name":"용지봉","city":"수성구","country":"대구","emoji":"🍽️","status":"open","award":"백년가게 · 1990년 창업","note":"1990년 창업 · 2021년 백년가게 선정","shows":["B90"],"primaryShow":"B90"}},{"type":"Feature","geometry":{"type":"Point","coordinates":[128.628711,35.864092]},"properties":{"id":"kr-baeknyeon-상락식당-260","name":"상락식당","city":"수성구","country":"대구","emoji":"🍽️","status":"open","award":"백년가게 · 1994년 창업","note":"1994년 창업 · 2021년 백년가게 선정","shows":["B90"],"primaryShow":"B90"}},{"type":"Feature","geometry":{"type":"Point","coordinates":[128.611297,35.855866]},"properties":{"id":"kr-baeknyeon-브레드바바-261","name":"브레드바바","city":"수성구","country":"대구","emoji":"🍽️","status":"open","award":"백년가게 · 2001년 창업","note":"2001년 창업 · 2021년 백년가게 선정","shows":["B00"],"primaryShow":"B00"}},{"type":"Feature","geometry":{"type":"Point","coordinates":[128.616096,35.857149]},"properties":{"id":"kr-baeknyeon-본전식당-262","name":"본전식당","city":"수성구","country":"대구","emoji":"🍽️","status":"open","award":"백년가게 · 1996년 창업","note":"1996년 창업 · 2021년 백년가게 선정","shows":["B90"],"primaryShow":"B90"}},{"type":"Feature","geometry":{"type":"Point","coordinates":[128.617669,35.830263]},"properties":{"id":"kr-baeknyeon-녹양구이-263","name":"녹양구이","city":"수성구","country":"대구","emoji":"🥩","status":"open","award":"백년가게 · 1978년 창업","note":"1978년 창업 · 2021년 백년가게 선정","shows":["B70"],"primaryShow":"B70"}},{"type":"Feature","geometry":{"type":"Point","coordinates":[128.488843,35.746685]},"properties":{"id":"kr-baeknyeon-김태희손국수식당-264","name":"김태희손국수식당","city":"달성군","country":"대구","emoji":"🍜","status":"open","award":"백년가게 · 1999년 창업","note":"1999년 창업 · 2021년 백년가게 선정","shows":["B90"],"primaryShow":"B90"}},{"type":"Feature","geometry":{"type":"Point","coordinates":[128.465048,35.844548]},"properties":{"id":"kr-baeknyeon-경산식당-265","name":"경산식당","city":"달성군","country":"대구","emoji":"🍽️","status":"open","award":"백년가게 · 1988년 창업","note":"1988년 창업 · 2021년 백년가게 선정","shows":["B80"],"primaryShow":"B80"}},{"type":"Feature","geometry":{"type":"Point","coordinates":[128.635982,35.790126]},"properties":{"id":"kr-baeknyeon-강원도집-266","name":"강원도집","city":"달성군","country":"대구","emoji":"🍽️","status":"open","award":"백년가게 · 2001년 창업","note":"2001년 창업 · 2021년 백년가게 선정","shows":["B00"],"primaryShow":"B00"}},{"type":"Feature","geometry":{"type":"Point","coordinates":[128.512738,35.858985]},"properties":{"id":"kr-baeknyeon-레이몬드베이커리-267","name":"레이몬드베이커리","city":"달서구","country":"대구","emoji":"🍛","status":"open","award":"백년가게 · 2000년 창업","note":"2000년 창업 · 2021년 백년가게 선정","shows":["B00"],"primaryShow":"B00"}},{"type":"Feature","geometry":{"type":"Point","coordinates":[128.578574,35.841488]},"properties":{"id":"kr-baeknyeon-정우식당-268","name":"정우식당","city":"남구","country":"대구","emoji":"🍽️","status":"open","award":"백년가게 · 1990년 창업","note":"1990년 창업 · 2021년 백년가게 선정","shows":["B90"],"primaryShow":"B90"}},{"type":"Feature","geometry":{"type":"Point","coordinates":[128.572367,35.830517]},"properties":{"id":"kr-baeknyeon-대덕식당-269","name":"대덕식당","city":"남구","country":"대구","emoji":"🍽️","status":"open","award":"백년가게 · 1979년 창업","note":"1979년 창업 · 2021년 백년가게 선정","shows":["B70"],"primaryShow":"B70"}},{"type":"Feature","geometry":{"type":"Point","coordinates":[129.369157,36.04155]},"properties":{"id":"kr-baeknyeon-포항특미물회식당-270","name":"포항특미물회식당","city":"포항시","country":"경북","emoji":"🐟","status":"open","award":"백년가게 · 1991년 창업","note":"1991년 창업 · 2021년 백년가게 선정","shows":["B90"],"primaryShow":"B90"}},{"type":"Feature","geometry":{"type":"Point","coordinates":[129.365624,36.035891]},"properties":{"id":"kr-baeknyeon-장기식당-271","name":"장기식당","city":"포항시","country":"경북","emoji":"🍽️","status":"open","award":"백년가게 · 1990년 창업","note":"1990년 창업 · 2021년 백년가게 선정","shows":["B90"],"primaryShow":"B90"}},{"type":"Feature","geometry":{"type":"Point","coordinates":[129.364924,36.038386]},"properties":{"id":"kr-baeknyeon-길성관-272","name":"길성관","city":"포항시","country":"경북","emoji":"🍽️","status":"open","award":"백년가게 · 1994년 창업","note":"1994년 창업 · 2021년 백년가게 선정","shows":["B90"],"primaryShow":"B90"}},{"type":"Feature","geometry":{"type":"Point","coordinates":[128.45155,36.095724]},"properties":{"id":"kr-baeknyeon-천생산오리사냥-273","name":"천생산오리사냥","city":"구미시","country":"경북","emoji":"🍗","status":"open","award":"백년가게 · 1986년 창업","note":"1986년 창업 · 2021년 백년가게 선정","shows":["B80"],"primaryShow":"B80"}},{"type":"Feature","geometry":{"type":"Point","coordinates":[128.23065,36.190959]},"properties":{"id":"kr-baeknyeon-배신식당-274","name":"배신식당","city":"김천시","country":"경북","emoji":"🍽️","status":"open","award":"백년가게 · 1988년 창업","note":"1988년 창업 · 2021년 백년가게 선정","shows":["B80"],"primaryShow":"B80"}},{"type":"Feature","geometry":{"type":"Point","coordinates":[128.32341,36.121526]},"properties":{"id":"kr-baeknyeon-궁원-275","name":"궁원(비원)","city":"구미시","country":"경북","emoji":"🍽️","status":"open","award":"백년가게 · 1999년 창업","note":"1999년 창업 · 2021년 백년가게 선정","shows":["B90"],"primaryShow":"B90"}},{"type":"Feature","geometry":{"type":"Point","coordinates":[129.206307,35.842757]},"properties":{"id":"kr-baeknyeon-충효닭집-276","name":"충효닭집","city":"경주시","country":"경북","emoji":"🍗","status":"open","award":"백년가게 · 1988년 창업","note":"1988년 창업 · 2021년 백년가게 선정","shows":["B80"],"primaryShow":"B80"}},{"type":"Feature","geometry":{"type":"Point","coordinates":[126.85441,35.578243]},"properties":{"id":"kr-baeknyeon-레스토랑마리서사본점-277","name":"레스토랑마리서사본점","city":"정읍시","country":"전북","emoji":"🍽️","status":"open","award":"백년가게 · 1997년 창업","note":"1997년 창업 · 2021년 백년가게 선정","shows":["B90"],"primaryShow":"B90"}},{"type":"Feature","geometry":{"type":"Point","coordinates":[127.117146,35.819759]},"properties":{"id":"kr-baeknyeon-피엔비-278","name":"피엔비 (PNB)","city":"전주시","country":"전북","emoji":"🍽️","status":"open","award":"백년가게 · 1974년 창업","note":"1974년 창업 · 2021년 백년가게 선정","shows":["B70"],"primaryShow":"B70"}},{"type":"Feature","geometry":{"type":"Point","coordinates":[127.117162,35.850076]},"properties":{"id":"kr-baeknyeon-무궁화한정식-279","name":"무궁화한정식","city":"전주시","country":"전북","emoji":"🍚","status":"open","award":"백년가게 · 1991년 창업","note":"1991년 창업 · 2021년 백년가게 선정","shows":["B90"],"primaryShow":"B90"}},{"type":"Feature","geometry":{"type":"Point","coordinates":[126.940128,35.951892]},"properties":{"id":"kr-baeknyeon-배불뚝집본점-280","name":"배불뚝집 본점","city":"익산시","country":"전북","emoji":"🍽️","status":"open","award":"백년가게 · 1992년 창업","note":"1992년 창업 · 2021년 백년가게 선정","shows":["B90"],"primaryShow":"B90"}},{"type":"Feature","geometry":{"type":"Point","coordinates":[127.342464,34.83712]},"properties":{"id":"kr-baeknyeon-소문난곱창-281","name":"소문난곱창","city":"보성군","country":"전남","emoji":"🥩","status":"open","award":"백년가게 · 1993년 창업","note":"1993년 창업 · 2021년 백년가게 선정","shows":["B90"],"primaryShow":"B90"}},{"type":"Feature","geometry":{"type":"Point","coordinates":[127.319927,34.510311]},"properties":{"id":"kr-baeknyeon-하얀마을제과점-282","name":"하얀마을 제과점","city":"고흥군","country":"전남","emoji":"🍞","status":"open","award":"백년가게 · 1999년 창업","note":"1999년 창업 · 2021년 백년가게 선정","shows":["B90"],"primaryShow":"B90"}},{"type":"Feature","geometry":{"type":"Point","coordinates":[127.506501,34.94318]},"properties":{"id":"kr-baeknyeon-유한회사제이베이커스-283","name":"유한회사 제이베이커스","city":"순천시","country":"전남","emoji":"🐟","status":"open","award":"백년가게 · 1995년 창업","note":"1995년 창업 · 2021년 백년가게 선정","shows":["B90"],"primaryShow":"B90"}},{"type":"Feature","geometry":{"type":"Point","coordinates":[127.956046,36.905318]},"properties":{"id":"kr-baeknyeon-자연가든-284","name":"자연가든","city":"충주시","country":"충북","emoji":"🍽️","status":"open","award":"백년가게 · 1982년 창업","note":"1982년 창업 · 2021년 백년가게 선정","shows":["B80"],"primaryShow":"B80"}},{"type":"Feature","geometry":{"type":"Point","coordinates":[127.942576,36.994171]},"properties":{"id":"kr-baeknyeon-옹기장터-285","name":"옹기장터","city":"충주시","country":"충북","emoji":"🍽️","status":"open","award":"백년가게 · 1999년 창업","note":"1999년 창업 · 2021년 백년가게 선정","shows":["B90"],"primaryShow":"B90"}},{"type":"Feature","geometry":{"type":"Point","coordinates":[127.485154,36.635496]},"properties":{"id":"kr-baeknyeon-서문우동-286","name":"서문우동","city":"청주시","country":"충북","emoji":"🍜","status":"open","award":"백년가게 · 1979년 창업","note":"1979년 창업 · 2021년 백년가게 선정","shows":["B70"],"primaryShow":"B70"}},{"type":"Feature","geometry":{"type":"Point","coordinates":[127.399888,36.881234]},"properties":{"id":"kr-baeknyeon-느티나무집-287","name":"느티나무집","city":"진천군","country":"충북","emoji":"🍽️","status":"open","award":"백년가게 · 1991년 창업","note":"1991년 창업 · 2021년 백년가게 선정","shows":["B90"],"primaryShow":"B90"}},{"type":"Feature","geometry":{"type":"Point","coordinates":[128.180201,37.030079]},"properties":{"id":"kr-baeknyeon-청풍황금송어-288","name":"청풍황금송어","city":"제천시","country":"충북","emoji":"🍽️","status":"open","award":"백년가게 · 1994년 창업","note":"1994년 창업 · 2021년 백년가게 선정","shows":["B90"],"primaryShow":"B90"}},{"type":"Feature","geometry":{"type":"Point","coordinates":[128.208351,37.139389]},"properties":{"id":"kr-baeknyeon-덩실분식-289","name":"덩실분식","city":"제천시","country":"충북","emoji":"🍢","status":"open","award":"백년가게 · 1996년 창업","note":"1996년 창업 · 2021년 백년가게 선정","shows":["B90"],"primaryShow":"B90"}},{"type":"Feature","geometry":{"type":"Point","coordinates":[127.580669,36.314447]},"properties":{"id":"kr-baeknyeon-문정식당-290","name":"문정식당","city":"옥천군","country":"충북","emoji":"🍚","status":"open","award":"백년가게 · 1979년 창업","note":"1979년 창업 · 2021년 백년가게 선정","shows":["B70"],"primaryShow":"B70"}},{"type":"Feature","geometry":{"type":"Point","coordinates":[127.821645,36.532409]},"properties":{"id":"kr-baeknyeon-경희식당-291","name":"경희식당","city":"보은군","country":"충북","emoji":"🍽️","status":"open","award":"백년가게 · 1989년 창업","note":"1989년 창업 · 2021년 백년가게 선정","shows":["B80"],"primaryShow":"B80"}},{"type":"Feature","geometry":{"type":"Point","coordinates":[126.85305,36.410482]},"properties":{"id":"kr-baeknyeon-칠갑산골-292","name":"칠갑산골","city":"청양군","country":"충남","emoji":"🍽️","status":"open","award":"백년가게 · 1985년 창업","note":"1985년 창업 · 2021년 백년가게 선정","shows":["B80"],"primaryShow":"B80"}},{"type":"Feature","geometry":{"type":"Point","coordinates":[127.147848,36.808978]},"properties":{"id":"kr-baeknyeon-학화호도과자-293","name":"학화호도과자","city":"천안시","country":"충남","emoji":"🍽️","status":"open","award":"백년가게 · 1975년 창업","note":"1975년 창업 · 2021년 백년가게 선정","shows":["B70"],"primaryShow":"B70"}},{"type":"Feature","geometry":{"type":"Point","coordinates":[127.298994,36.762193]},"properties":{"id":"kr-baeknyeon-청화집순대-294","name":"청화집순대","city":"천안시","country":"충남","emoji":"🍢","status":"open","award":"백년가게 · 1968년 창업","note":"1968년 창업 · 2021년 백년가게 선정","shows":["B60"],"primaryShow":"B60"}},{"type":"Feature","geometry":{"type":"Point","coordinates":[127.150289,36.800584]},"properties":{"id":"kr-baeknyeon-원조옥수사-295","name":"원조옥수사","city":"천안시","country":"충남","emoji":"🍽️","status":"open","award":"백년가게 · 1986년 창업","note":"1986년 창업 · 2021년 백년가게 선정","shows":["B80"],"primaryShow":"B80"}},{"type":"Feature","geometry":{"type":"Point","coordinates":[126.98671,36.785377]},"properties":{"id":"kr-baeknyeon-홍콩반점-296","name":"홍콩반점","city":"아산시","country":"충남","emoji":"🍽️","status":"open","award":"백년가게 · 1989년 창업","note":"1989년 창업 · 2021년 백년가게 선정","shows":["B80"],"primaryShow":"B80"}},{"type":"Feature","geometry":{"type":"Point","coordinates":[126.69749,36.901258]},"properties":{"id":"kr-baeknyeon-독일베이커리-297","name":"독일베이커리","city":"당진시","country":"충남","emoji":"🍛","status":"open","award":"백년가게 · 1999년 창업","note":"1999년 창업 · 2021년 백년가게 선정","shows":["B90"],"primaryShow":"B90"}},{"type":"Feature","geometry":{"type":"Point","coordinates":[127.466276,36.190508]},"properties":{"id":"kr-baeknyeon-옛날고도리추어탕-298","name":"옛날고도리추어탕","city":"금산군","country":"충남","emoji":"🍲","status":"open","award":"백년가게 · 1993년 창업","note":"1993년 창업 · 2021년 백년가게 선정","shows":["B90"],"primaryShow":"B90"}},{"type":"Feature","geometry":{"type":"Point","coordinates":[127.588893,36.11756]},"properties":{"id":"kr-baeknyeon-남촌가든-299","name":"남촌가든","city":"금산군","country":"충남","emoji":"🍽️","status":"open","award":"백년가게 · 1981년 창업","note":"1981년 창업 · 2021년 백년가게 선정","shows":["B80"],"primaryShow":"B80"}},{"type":"Feature","geometry":{"type":"Point","coordinates":[126.794032,36.477972]},"properties":{"id":"kr-baeknyeon-별장가든-300","name":"별장가든","city":"청양군","country":"충남","emoji":"🍽️","status":"open","award":"백년가게 · 1992년 창업","note":"1992년 창업 · 2021년 백년가게 선정","shows":["B90"],"primaryShow":"B90"}},{"type":"Feature","geometry":{"type":"Point","coordinates":[127.019763,36.556367]},"properties":{"id":"kr-baeknyeon-귀빈식당-301","name":"귀빈식당","city":"공주시","country":"충남","emoji":"🍽️","status":"open","award":"백년가게 · 1984년 창업","note":"1984년 창업 · 2021년 백년가게 선정","shows":["B80"],"primaryShow":"B80"}},{"type":"Feature","geometry":{"type":"Point","coordinates":[126.307631,33.228346]},"properties":{"id":"kr-baeknyeon-진미명가식당-302","name":"진미명가식당","city":"서귀포시","country":"제주","emoji":"🍽️","status":"open","award":"백년가게 · 1983년 창업","note":"1983년 창업 · 2021년 백년가게 선정","shows":["B80"],"primaryShow":"B80"}},{"type":"Feature","geometry":{"type":"Point","coordinates":[127.14367,35.823285]},"properties":{"id":"kr-baeknyeon-그때산집-303","name":"그때산집","city":"전주시","country":"전북","emoji":"🍽️","status":"open","award":"백년가게 · 1991년 창업","note":"1991년 창업 · 2021년 백년가게 선정","shows":["B90"],"primaryShow":"B90"}},{"type":"Feature","geometry":{"type":"Point","coordinates":[127.053883,35.997877]},"properties":{"id":"kr-baeknyeon-물머리집-304","name":"물머리집","city":"익산시","country":"전북","emoji":"🍽️","status":"open","award":"백년가게 · 1994년 창업","note":"1994년 창업 · 2021년 백년가게 선정","shows":["B90"],"primaryShow":"B90"}},{"type":"Feature","geometry":{"type":"Point","coordinates":[126.980831,35.960752]},"properties":{"id":"kr-baeknyeon-모성-305","name":"모성","city":"익산시","country":"전북","emoji":"🍽️","status":"open","award":"백년가게 · 1993년 창업","note":"1993년 창업 · 2021년 백년가게 선정","shows":["B90"],"primaryShow":"B90"}},{"type":"Feature","geometry":{"type":"Point","coordinates":[127.380979,35.402747]},"properties":{"id":"kr-baeknyeon-추어향-306","name":"추어향","city":"남원시","country":"전북","emoji":"🍽️","status":"open","award":"백년가게 · 1994년 창업","note":"1994년 창업 · 2021년 백년가게 선정","shows":["B90"],"primaryShow":"B90"}},{"type":"Feature","geometry":{"type":"Point","coordinates":[127.391708,35.416028]},"properties":{"id":"kr-baeknyeon-인산인해-307","name":"인산인해","city":"남원시","country":"전북","emoji":"🍽️","status":"open","award":"백년가게 · 2000년 창업","note":"2000년 창업 · 2021년 백년가게 선정","shows":["B00"],"primaryShow":"B00"}},{"type":"Feature","geometry":{"type":"Point","coordinates":[126.710262,35.983011]},"properties":{"id":"kr-baeknyeon-빵굽는오남매-308","name":"빵굽는오남매","city":"군산시","country":"전북","emoji":"🍞","status":"open","award":"백년가게 · 2000년 창업","note":"2000년 창업 · 2021년 백년가게 선정","shows":["B00"],"primaryShow":"B00"}},{"type":"Feature","geometry":{"type":"Point","coordinates":[126.71388,35.988934]},"properties":{"id":"kr-baeknyeon-빈해원-309","name":"빈해원","city":"군산시","country":"전북","emoji":"🍽️","status":"open","award":"백년가게 · 1991년 창업","note":"1991년 창업 · 2021년 백년가게 선정","shows":["B90"],"primaryShow":"B90"}},{"type":"Feature","geometry":{"type":"Point","coordinates":[126.627736,35.46256]},"properties":{"id":"kr-baeknyeon-인천장가든-310","name":"인천장가든","city":"고창군","country":"전북","emoji":"🍽️","status":"open","award":"백년가게 · 1996년 창업","note":"1996년 창업 · 2021년 백년가게 선정","shows":["B90"],"primaryShow":"B90"}},{"type":"Feature","geometry":{"type":"Point","coordinates":[127.631527,34.798057]},"properties":{"id":"kr-baeknyeon-덕양은혜곱창-311","name":"덕양 은혜 곱창","city":"여수시","country":"전남","emoji":"🥩","status":"open","award":"백년가게 · 1995년 창업","note":"1995년 창업 · 2021년 백년가게 선정","shows":["B90"],"primaryShow":"B90"}},{"type":"Feature","geometry":{"type":"Point","coordinates":[127.473467,34.920881]},"properties":{"id":"kr-baeknyeon-미주농원-312","name":"미주농원","city":"순천시","country":"전남","emoji":"🍽️","status":"open","award":"백년가게 · 1999년 창업","note":"1999년 창업 · 2021년 백년가게 선정","shows":["B90"],"primaryShow":"B90"}},{"type":"Feature","geometry":{"type":"Point","coordinates":[126.631792,37.474493]},"properties":{"id":"kr-baeknyeon-인현통닭삼계탕-313","name":"인현통닭삼계탕","city":"중구","country":"인천","emoji":"🍗","status":"open","award":"백년가게 · 1978년 창업","note":"1978년 창업 · 2021년 백년가게 선정","shows":["B70"],"primaryShow":"B70"}},{"type":"Feature","geometry":{"type":"Point","coordinates":[126.722071,37.493465]},"properties":{"id":"kr-baeknyeon-락캠프-314","name":"락캠프","city":"부평구","country":"인천","emoji":"🍽️","status":"open","award":"백년가게 · 1998년 창업","note":"1998년 창업 · 2021년 백년가게 선정","shows":["B90"],"primaryShow":"B90"}},{"type":"Feature","geometry":{"type":"Point","coordinates":[126.635959,37.473603]},"properties":{"id":"kr-baeknyeon-깜상네-315","name":"깜상네","city":"동구","country":"인천","emoji":"🍽️","status":"open","award":"백년가게 · 1966년 창업","note":"1966년 창업 · 2021년 백년가게 선정","shows":["B60"],"primaryShow":"B60"}},{"type":"Feature","geometry":{"type":"Point","coordinates":[126.423044,37.633994]},"properties":{"id":"kr-baeknyeon-단골식당-316","name":"단골식당","city":"강화군","country":"인천","emoji":"🍽️","status":"open","award":"백년가게 · 1997년 창업","note":"1997년 창업 · 2021년 백년가게 선정","shows":["B90"],"primaryShow":"B90"}},{"type":"Feature","geometry":{"type":"Point","coordinates":[126.9215,37.619246]},"properties":{"id":"kr-baeknyeon-연서순대국-317","name":"연서순대국","city":"은평구","country":"서울","emoji":"🍲","status":"open","award":"백년가게 · 1989년 창업","note":"1989년 창업 · 2021년 백년가게 선정","shows":["B80"],"primaryShow":"B80"}},{"type":"Feature","geometry":{"type":"Point","coordinates":[126.915597,37.612644]},"properties":{"id":"kr-baeknyeon-싸리골-318","name":"싸리골","city":"은평구","country":"서울","emoji":"🍽️","status":"open","award":"백년가게 · 1990년 창업","note":"1990년 창업 · 2021년 백년가게 선정","shows":["B90"],"primaryShow":"B90"}},{"type":"Feature","geometry":{"type":"Point","coordinates":[126.921573,37.617363]},"properties":{"id":"kr-baeknyeon-두꺼비집-319","name":"두꺼비집","city":"은평구","country":"서울","emoji":"🍽️","status":"open","award":"백년가게 · 1983년 창업","note":"1983년 창업 · 2021년 백년가게 선정","shows":["B80"],"primaryShow":"B80"}},{"type":"Feature","geometry":{"type":"Point","coordinates":[126.863939,37.548513]},"properties":{"id":"kr-baeknyeon-골목집-320","name":"골목집","city":"양천구","country":"서울","emoji":"🍽️","status":"open","award":"백년가게 · 1999년 창업","note":"1999년 창업 · 2021년 백년가게 선정","shows":["B90"],"primaryShow":"B90"}},{"type":"Feature","geometry":{"type":"Point","coordinates":[127.097134,37.504284]},"properties":{"id":"kr-baeknyeon-주식회사산무리-321","name":"주식회사 산무리","city":"송파구","country":"서울","emoji":"🐟","status":"open","award":"백년가게 · 1990년 창업","note":"1990년 창업 · 2021년 백년가게 선정","shows":["B90"],"primaryShow":"B90"}},{"type":"Feature","geometry":{"type":"Point","coordinates":[127.01153,37.49137]},"properties":{"id":"kr-baeknyeon-3대삼계장인-322","name":"3대 삼계장인","city":"서초구","country":"서울","emoji":"🍽️","status":"open","award":"백년가게 · 1988년 창업","note":"1988년 창업 · 2021년 백년가게 선정","shows":["B80"],"primaryShow":"B80"}},{"type":"Feature","geometry":{"type":"Point","coordinates":[126.946978,37.542926]},"properties":{"id":"kr-baeknyeon-주식회사맛난세상-323","name":"주식회사 맛난세상","city":"마포구","country":"서울","emoji":"🐟","status":"open","award":"백년가게 · 1966년 창업","note":"1966년 창업 · 2021년 백년가게 선정","shows":["B60"],"primaryShow":"B60"}},{"type":"Feature","geometry":{"type":"Point","coordinates":[126.90593,37.554724]},"properties":{"id":"kr-baeknyeon-르네상스제과점-324","name":"르네상스제과점","city":"마포구","country":"서울","emoji":"🍞","status":"open","award":"백년가게 · 1986년 창업","note":"1986년 창업 · 2021년 백년가게 선정","shows":["B80"],"primaryShow":"B80"}},{"type":"Feature","geometry":{"type":"Point","coordinates":[127.035953,37.65058]},"properties":{"id":"kr-baeknyeon-함스브로트-325","name":"함스브로트","city":"도봉구","country":"서울","emoji":"🍽️","status":"open","award":"백년가게 · 1999년 창업","note":"1999년 창업 · 2021년 백년가게 선정","shows":["B90"],"primaryShow":"B90"}},{"type":"Feature","geometry":{"type":"Point","coordinates":[127.070543,37.63494]},"properties":{"id":"kr-baeknyeon-참누렁소-326","name":"참누렁소","city":"노원구","country":"서울","emoji":"🍽️","status":"open","award":"백년가게 · 2000년 창업","note":"2000년 창업 · 2021년 백년가게 선정","shows":["B00"],"primaryShow":"B00"}},{"type":"Feature","geometry":{"type":"Point","coordinates":[126.837943,37.559565]},"properties":{"id":"kr-baeknyeon-구이구이돼지촌쭈꾸미-327","name":"구이구이돼지촌쭈꾸미","city":"강서구","country":"서울","emoji":"🥩","status":"open","award":"백년가게 · 1994년 창업","note":"1994년 창업 · 2021년 백년가게 선정","shows":["B90"],"primaryShow":"B90"}},{"type":"Feature","geometry":{"type":"Point","coordinates":[127.007975,37.669926]},"properties":{"id":"kr-baeknyeon-옥류헌-328","name":"옥류헌","city":"강북구","country":"서울","emoji":"🍽️","status":"open","award":"백년가게 · 1956년 창업","note":"1956년 창업 · 2021년 백년가게 선정","shows":["B60"],"primaryShow":"B60"}},{"type":"Feature","geometry":{"type":"Point","coordinates":[127.034645,37.613868]},"properties":{"id":"kr-baeknyeon-섬진강식당-329","name":"섬진강식당","city":"강북구","country":"서울","emoji":"🍽️","status":"open","award":"백년가게 · 1984년 창업","note":"1984년 창업 · 2021년 백년가게 선정","shows":["B80"],"primaryShow":"B80"}},{"type":"Feature","geometry":{"type":"Point","coordinates":[127.128835,37.549915]},"properties":{"id":"kr-baeknyeon-초롱이고모부대찌개-330","name":"초롱이고모부대찌개","city":"강동구","country":"서울","emoji":"🍲","status":"open","award":"백년가게 · 1990년 창업","note":"1990년 창업 · 2021년 백년가게 선정","shows":["B90"],"primaryShow":"B90"}},{"type":"Feature","geometry":{"type":"Point","coordinates":[127.143259,37.551066]},"properties":{"id":"kr-baeknyeon-별미손칼국수-331","name":"별미손칼국수","city":"강동구","country":"서울","emoji":"🍜","status":"open","award":"백년가게 · 1989년 창업","note":"1989년 창업 · 2021년 백년가게 선정","shows":["B80"],"primaryShow":"B80"}},{"type":"Feature","geometry":{"type":"Point","coordinates":[127.053014,37.5037]},"properties":{"id":"kr-baeknyeon-베이크하우스-332","name":"베이크 하우스","city":"강남구","country":"서울","emoji":"🍽️","status":"open","award":"백년가게 · 1987년 창업","note":"1987년 창업 · 2021년 백년가게 선정","shows":["B80"],"primaryShow":"B80"}},{"type":"Feature","geometry":{"type":"Point","coordinates":[129.17165,35.158444]},"properties":{"id":"kr-baeknyeon-선창횟집-333","name":"선창횟집","city":"해운대구","country":"부산","emoji":"🐟","status":"open","award":"백년가게 · 1991년 창업","note":"1991년 창업 · 2021년 백년가게 선정","shows":["B90"],"primaryShow":"B90"}},{"type":"Feature","geometry":{"type":"Point","coordinates":[129.035201,35.103482]},"properties":{"id":"kr-baeknyeon-어머니간장게장-334","name":"어머니간장게장","city":"중구","country":"부산","emoji":"🐟","status":"open","award":"백년가게 · 1984년 창업","note":"1984년 창업 · 2021년 백년가게 선정","shows":["B80"],"primaryShow":"B80"}},{"type":"Feature","geometry":{"type":"Point","coordinates":[129.114114,35.146041]},"properties":{"id":"kr-baeknyeon-뚜쥬루과자점-335","name":"뚜쥬루과자점","city":"수영구","country":"부산","emoji":"🍽️","status":"open","award":"백년가게 · 1999년 창업","note":"1999년 창업 · 2021년 백년가게 선정","shows":["B90"],"primaryShow":"B90"}},{"type":"Feature","geometry":{"type":"Point","coordinates":[129.10129,35.203458]},