{"type":"FeatureCollection","metadata":{"profile":"baeknyeon","generated":"2026-07-15T02:22:37.585Z","counts":{"places":878,"source":"sbiz.or.kr 백년가게 음식점업"}},"features":[{"type":"Feature","geometry":{"type":"Point","coordinates":[128.32972,35.74121]},"properties":{"id":"kr-baeknyeon-고령금산한우-0","name":"고령금산한우","city":"고령군","country":"경북","emoji":"🥩","status":"open","award":"백년가게 · 1995년 창업","note":"1995년 창업 · 2024년 백년가게 선정","shows":["B90"],"primaryShow":"B90"}},{"type":"Feature","geometry":{"type":"Point","coordinates":[126.909551,37.584146]},"properties":{"id":"kr-baeknyeon-도투리샤브칼국수불광천-1","name":"도투리 샤브칼국수 불광천","city":"은평구","country":"서울","emoji":"🍜","status":"open","award":"백년가게 · 2015년 창업","note":"2015년 창업 · 2023년 백년가게 선정","shows":["B00"],"primaryShow":"B00"}},{"type":"Feature","geometry":{"type":"Point","coordinates":[126.933894,37.35792]},"properties":{"id":"kr-baeknyeon-완산정-2","name":"완산정","city":"군포시","country":"경기","emoji":"🍽️","status":"open","award":"백년가게 · 2002년 창업","note":"2002년 창업 · 2022년 백년가게 선정","shows":["B00"],"primaryShow":"B00"}},{"type":"Feature","geometry":{"type":"Point","coordinates":[128.35559,36.10212]},"properties":{"id":"kr-baeknyeon-오리산성-3","name":"오리산성","city":"구미시","country":"경북","emoji":"🍗","status":"open","award":"백년가게 · 1994년 창업","note":"1994년 창업 · 2023년 백년가게 선정","shows":["B90"],"primaryShow":"B90"}},{"type":"Feature","geometry":{"type":"Point","coordinates":[128.273407,36.606914]},"properties":{"id":"kr-baeknyeon-용궁순대-4","name":"용궁순대","city":"예천군","country":"경북","emoji":"🍢","status":"open","award":"백년가게 · 2011년 창업","note":"2011년 창업 · 2023년 백년가게 선정","shows":["B00"],"primaryShow":"B00"}},{"type":"Feature","geometry":{"type":"Point","coordinates":[129.043879,35.351158]},"properties":{"id":"kr-baeknyeon-손두부전문점-5","name":"손두부전문점","city":"양산시","country":"경남","emoji":"🍲","status":"open","award":"백년가게 · 1998년 창업","note":"1998년 창업 · 2021년 백년가게 선정","shows":["B90"],"primaryShow":"B90"}},{"type":"Feature","geometry":{"type":"Point","coordinates":[128.315826,36.120854]},"properties":{"id":"kr-baeknyeon-금오산고향촌식당-6","name":"금오산고향촌식당","city":"구미시","country":"경북","emoji":"🍽️","status":"open","award":"백년가게 · 1990년 창업","note":"1990년 창업 · 2024년 백년가게 선정","shows":["B90"],"primaryShow":"B90"}},{"type":"Feature","geometry":{"type":"Point","coordinates":[127.005474,37.591531]},"properties":{"id":"kr-baeknyeon-옛날중국집-7","name":"옛날중국집","city":"성북구","country":"서울","emoji":"🍽️","status":"open","award":"백년가게 · 2019년 창업","note":"2019년 창업 · 2023년 백년가게 선정","shows":["B00"],"primaryShow":"B00"}},{"type":"Feature","geometry":{"type":"Point","coordinates":[127.488262,35.243559]},"properties":{"id":"kr-baeknyeon-예원-8","name":"예원","city":"구례군","country":"전남","emoji":"🍽️","status":"open","award":"백년가게 · 2007년 창업","note":"2007년 창업 · 2023년 백년가게 선정","shows":["B00"],"primaryShow":"B00"}},{"type":"Feature","geometry":{"type":"Point","coordinates":[128.370635,36.982036]},"properties":{"id":"kr-baeknyeon-달동네마늘순대-9","name":"달동네마늘순대","city":"단양군","country":"충북","emoji":"🍢","status":"open","award":"백년가게 · 2013년 창업","note":"2013년 창업 · 2023년 백년가게 선정","shows":["B00"],"primaryShow":"B00"}},{"type":"Feature","geometry":{"type":"Point","coordinates":[127.729764,37.881057]},"properties":{"id":"kr-baeknyeon-봄담은산채-10","name":"봄담은산채","city":"춘천시","country":"강원","emoji":"🍽️","status":"open","award":"백년가게 · 1988년 창업","note":"1988년 창업 · 2024년 백년가게 선정","shows":["B80"],"primaryShow":"B80"}},{"type":"Feature","geometry":{"type":"Point","coordinates":[129.32176,35.554816]},"properties":{"id":"kr-baeknyeon-궁중삼계탕-11","name":"궁중삼계탕","city":"중구","country":"울산","emoji":"🍗","status":"open","award":"백년가게 · 1995년 창업","note":"1995년 창업 · 2024년 백년가게 선정","shows":["B90"],"primaryShow":"B90"}},{"type":"Feature","geometry":{"type":"Point","coordinates":[129.210066,35.847344]},"properties":{"id":"kr-baeknyeon-주식회사영양숯불갈비-12","name":"주식회사 영양숯불갈비","city":"경주시","country":"경북","emoji":"🥩","status":"open","award":"백년가게 · 2021년 창업","note":"2021년 창업 · 2024년 백년가게 선정","shows":["B00"],"primaryShow":"B00"}},{"type":"Feature","geometry":{"type":"Point","coordinates":[126.953911,35.275609]},"properties":{"id":"kr-baeknyeon-달빛뜨락-13","name":"달빛뜨락","city":"담양군","country":"전남","emoji":"🍽️","status":"open","award":"백년가게 · 1997년 창업","note":"1997년 창업 · 2023년 백년가게 선정","shows":["B90"],"primaryShow":"B90"}},{"type":"Feature","geometry":{"type":"Point","coordinates":[127.142457,35.817756]},"properties":{"id":"kr-baeknyeon-신한양불고기-14","name":"신한양불고기","city":"전주시","country":"전북","emoji":"🥩","status":"open","award":"백년가게 · 2020년 창업","note":"2020년 창업 · 2024년 백년가게 선정","shows":["B00"],"primaryShow":"B00"}},{"type":"Feature","geometry":{"type":"Point","coordinates":[127.483603,36.646073]},"properties":{"id":"kr-baeknyeon-원조백년옻닭-15","name":"원조백년옻닭","city":"청주시","country":"충북","emoji":"🍗","status":"open","award":"백년가게 · 1994년 창업","note":"1994년 창업 · 2021년 백년가게 선정","shows":["B90"],"primaryShow":"B90"}},{"type":"Feature","geometry":{"type":"Point","coordinates":[126.915567,37.587006]},"properties":{"id":"kr-baeknyeon-시골감자국-16","name":"시골감자국","city":"은평구","country":"서울","emoji":"🍽️","status":"open","award":"백년가게 · 1990년 창업","note":"1990년 창업 · 2021년 백년가게 선정","shows":["B90"],"primaryShow":"B90"}},{"type":"Feature","geometry":{"type":"Point","coordinates":[126.809611,37.331541]},"properties":{"id":"kr-baeknyeon-이조칼국수-17","name":"이조칼국수","city":"안산시","country":"경기","emoji":"🍜","status":"open","award":"백년가게 · 2017년 창업","note":"2017년 창업 · 2023년 백년가게 선정","shows":["B00"],"primaryShow":"B00"}},{"type":"Feature","geometry":{"type":"Point","coordinates":[129.055783,35.160135]},"properties":{"id":"kr-baeknyeon-태화육개장-18","name":"태화육개장","city":"부산진구","country":"부산","emoji":"🍲","status":"open","award":"백년가게 · 2011년 창업","note":"2011년 창업 · 2024년 백년가게 선정","shows":["B00"],"primaryShow":"B00"}},{"type":"Feature","geometry":{"type":"Point","coordinates":[127.145004,37.520027]},"properties":{"id":"kr-baeknyeon-오금버드나무집-19","name":"오금버드나무집","city":"송파구","country":"서울","emoji":"🍽️","status":"open","award":"백년가게 · 1986년 창업","note":"1986년 창업 · 2023년 백년가게 선정","shows":["B80"],"primaryShow":"B80"}},{"type":"Feature","geometry":{"type":"Point","coordinates":[127.513448,34.946303]},"properties":{"id":"kr-baeknyeon-신화정-20","name":"신화정","city":"순천시","country":"전남","emoji":"🍽️","status":"open","award":"백년가게 · 2004년 창업","note":"2004년 창업 · 2023년 백년가게 선정","shows":["B00"],"primaryShow":"B00"}},{"type":"Feature","geometry":{"type":"Point","coordinates":[128.407592,34.83296]},"properties":{"id":"kr-baeknyeon-케네디홀레스토랑-21","name":"케네디홀레스토랑","city":"통영시","country":"경남","emoji":"🍽️","status":"open","award":"백년가게 · 2001년 창업","note":"2001년 창업 · 2021년 백년가게 선정","shows":["B00"],"primaryShow":"B00"}},{"type":"Feature","geometry":{"type":"Point","coordinates":[128.212991,37.138214]},"properties":{"id":"kr-baeknyeon-무궁화식당-22","name":"무궁화식당","city":"제천시","country":"충북","emoji":"🍽️","status":"open","award":"백년가게 · 1985년 창업","note":"1985년 창업 · 2021년 백년가게 선정","shows":["B80"],"primaryShow":"B80"}},{"type":"Feature","geometry":{"type":"Point","coordinates":[128.523244,36.870885]},"properties":{"id":"kr-baeknyeon-한결청국장-23","name":"한결청국장","city":"영주시","country":"경북","emoji":"🍲","status":"open","award":"백년가게 · 2008년 창업","note":"2008년 창업 · 2024년 백년가게 선정","shows":["B00"],"primaryShow":"B00"}},{"type":"Feature","geometry":{"type":"Point","coordinates":[127.439767,36.638932]},"properties":{"id":"kr-baeknyeon-부모산가든-24","name":"부모산가든","city":"청주시","country":"충북","emoji":"🍽️","status":"open","award":"백년가게 · 2001년 창업","note":"2001년 창업 · 2021년 백년가게 선정","shows":["B00"],"primaryShow":"B00"}},{"type":"Feature","geometry":{"type":"Point","coordinates":[126.78253,37.47034]},"properties":{"id":"kr-baeknyeon-밀가랑-25","name":"밀가랑","city":"시흥시","country":"경기","emoji":"🍽️","status":"open","award":"백년가게 · 2018년 창업","note":"2018년 창업 · 2023년 백년가게 선정","shows":["B00"],"primaryShow":"B00"}},{"type":"Feature","geometry":{"type":"Point","coordinates":[127.724776,37.8666]},"properties":{"id":"kr-baeknyeon-예미옥주식회사-26","name":"예미옥주식회사","city":"춘천시","country":"강원","emoji":"🐟","status":"open","award":"백년가게 · 2012년 창업","note":"2012년 창업 · 2023년 백년가게 선정","shows":["B00"],"primaryShow":"B00"}},{"type":"Feature","geometry":{"type":"Point","coordinates":[128.27409,38.1547]},"properties":{"id":"kr-baeknyeon-진부령식당-27","name":"진부령식당","city":"인제군","country":"강원","emoji":"🍽️","status":"open","award":"백년가게 · 1993년 창업","note":"1993년 창업 · 2021년 백년가게 선정","shows":["B90"],"primaryShow":"B90"}},{"type":"Feature","geometry":{"type":"Point","coordinates":[128.572689,35.210803]},"properties":{"id":"kr-baeknyeon-인혜돌곱창-28","name":"인혜돌곱창","city":"창원시","country":"경남","emoji":"🥩","status":"open","award":"백년가게 · 1985년 창업","note":"1985년 창업 · 2021년 백년가게 선정","shows":["B80"],"primaryShow":"B80"}},{"type":"Feature","geometry":{"type":"Point","coordinates":[127.052764,37.902775]},"properties":{"id":"kr-baeknyeon-실비집-29","name":"실비집","city":"동두천시","country":"경기","emoji":"🍽️","status":"open","award":"백년가게 · 1980년 창업","note":"1980년 창업 · 2023년 백년가게 선정","shows":["B80"],"primaryShow":"B80"}},{"type":"Feature","geometry":{"type":"Point","coordinates":[126.845918,36.679261]},"properties":{"id":"kr-baeknyeon-동흥루-30","name":"동흥루","city":"예산군","country":"충남","emoji":"🍽️","status":"open","award":"백년가게 · 1976년 창업","note":"1976년 창업 · 2021년 백년가게 선정","shows":["B70"],"primaryShow":"B70"}},{"type":"Feature","geometry":{"type":"Point","coordinates":[126.54708,36.54898]},"properties":{"id":"kr-baeknyeon-결성칼국수-31","name":"결성칼국수","city":"홍성군","country":"충남","emoji":"🍜","status":"open","award":"백년가게 · 2000년 창업","note":"2000년 창업 · 2021년 백년가게 선정","shows":["B00"],"primaryShow":"B00"}},{"type":"Feature","geometry":{"type":"Point","coordinates":[126.793574,35.140451]},"properties":{"id":"kr-baeknyeon-형제송정-32","name":"형제송정","city":"광산구","country":"광주","emoji":"🍽️","status":"open","award":"백년가게 · 2020년 창업","note":"2020년 창업 · 2023년 백년가게 선정","shows":["B00"],"primaryShow":"B00"}},{"type":"Feature","geometry":{"type":"Point","coordinates":[126.929454,36.989263]},"properties":{"id":"kr-baeknyeon-가마솥식당-33","name":"가마솥식당","city":"평택시","country":"경기","emoji":"🍽️","status":"open","award":"백년가게 · 1994년 창업","note":"1994년 창업 · 2023년 백년가게 선정","shows":["B90"],"primaryShow":"B90"}},{"type":"Feature","geometry":{"type":"Point","coordinates":[127.140726,37.537011]},"properties":{"id":"kr-baeknyeon-단골숯불갈비-34","name":"단골숯불갈비","city":"강동구","country":"서울","emoji":"🥩","status":"open","award":"백년가게 · 1998년 창업","note":"1998년 창업 · 2023년 백년가게 선정","shows":["B90"],"primaryShow":"B90"}},{"type":"Feature","geometry":{"type":"Point","coordinates":[126.946736,37.353673]},"properties":{"id":"kr-baeknyeon-제일황소-35","name":"제일황소","city":"군포시","country":"경기","emoji":"🍽️","status":"open","award":"백년가게 · 1987년 창업","note":"1987년 창업 · 2021년 백년가게 선정","shows":["B80"],"primaryShow":"B80"}},{"type":"Feature","geometry":{"type":"Point","coordinates":[128.59544,36.14663]},"properties":{"id":"kr-baeknyeon-효령매운탕-36","name":"효령매운탕","city":"군위군","country":"경북","emoji":"🍲","status":"open","award":"백년가게 · 1998년 창업","note":"1998년 창업 · 2024년 백년가게 선정","shows":["B90"],"primaryShow":"B90"}},{"type":"Feature","geometry":{"type":"Point","coordinates":[128.40649,34.91653]},"properties":{"id":"kr-baeknyeon-은혜갈비식육식당-37","name":"은혜갈비, 식육식당","city":"통영시","country":"경남","emoji":"🥩","status":"open","award":"백년가게 · 1991년 창업","note":"1991년 창업 · 2021년 백년가게 선정","shows":["B90"],"primaryShow":"B90"}},{"type":"Feature","geometry":{"type":"Point","coordinates":[128.889686,37.75368]},"properties":{"id":"kr-baeknyeon-뚱보냉면-38","name":"뚱보냉면","city":"강릉시","country":"강원","emoji":"🍜","status":"open","award":"백년가게 · 1992년 창업","note":"1992년 창업 · 2021년 백년가게 선정","shows":["B90"],"primaryShow":"B90"}},{"type":"Feature","geometry":{"type":"Point","coordinates":[127.437042,36.490536]},"properties":{"id":"kr-baeknyeon-금호송어장-39","name":"금호송어장","city":"청주시","country":"충북","emoji":"🍽️","status":"open","award":"백년가게 · 1985년 창업","note":"1985년 창업 · 2021년 백년가게 선정","shows":["B80"],"primaryShow":"B80"}},{"type":"Feature","geometry":{"type":"Point","coordinates":[127.152595,35.815776]},"properties":{"id":"kr-baeknyeon-교동다원-40","name":"교동다원","city":"전주시","country":"전북","emoji":"🍽️","status":"open","award":"백년가게 · 1999년 창업","note":"1999년 창업 · 2024년 백년가게 선정","shows":["B90"],"primaryShow":"B90"}},{"type":"Feature","geometry":{"type":"Point","coordinates":[127.078855,37.536117]},"properties":{"id":"kr-baeknyeon-민정식당-41","name":"민정식당","city":"광진구","country":"서울","emoji":"🍚","status":"open","award":"백년가게 · 1995년 창업","note":"1995년 창업 · 2021년 백년가게 선정","shows":["B90"],"primaryShow":"B90"}},{"type":"Feature","geometry":{"type":"Point","coordinates":[128.594565,35.86932]},"properties":{"id":"kr-baeknyeon-중화반점-42","name":"중화반점","city":"중구","country":"대구","emoji":"🍜","status":"open","award":"백년가게 · 2003년 창업","note":"2003년 창업 · 2023년 백년가게 선정","shows":["B00"],"primaryShow":"B00"}},{"type":"Feature","geometry":{"type":"Point","coordinates":[126.832526,37.632483]},"properties":{"id":"kr-baeknyeon-화정맛집민쿡다시마-43","name":"화정맛집민쿡다시마","city":"고양시","country":"경기","emoji":"🍽️","status":"open","award":"백년가게 · 2002년 창업","note":"2002년 창업 · 2023년 백년가게 선정","shows":["B00"],"primaryShow":"B00"}},{"type":"Feature","geometry":{"type":"Point","coordinates":[126.911069,36.275673]},"properties":{"id":"kr-baeknyeon-구드래돌쌈밥-44","name":"구드래돌쌈밥","city":"부여군","country":"충남","emoji":"🍚","status":"open","award":"백년가게 · 1997년 창업","note":"1997년 창업 · 2024년 백년가게 선정","shows":["B90"],"primaryShow":"B90"}},{"type":"Feature","geometry":{"type":"Point","coordinates":[127.440023,36.91959]},"properties":{"id":"kr-baeknyeon-할머니집식당-45","name":"할머니집식당","city":"진천군","country":"충북","emoji":"🍽️","status":"open","award":"백년가게 · 2019년 창업","note":"2019년 창업 · 2024년 백년가게 선정","shows":["B00"],"primaryShow":"B00"}},{"type":"Feature","geometry":{"type":"Point","coordinates":[126.810485,35.163363]},"properties":{"id":"kr-baeknyeon-하남낙지마당-46","name":"하남낙지마당","city":"광산구","country":"광주","emoji":"🐟","status":"open","award":"백년가게 · 2001년 창업","note":"2001년 창업 · 2023년 백년가게 선정","shows":["B00"],"primaryShow":"B00"}},{"type":"Feature","geometry":{"type":"Point","coordinates":[129.352602,36.009373]},"properties":{"id":"kr-baeknyeon-장룡민물장어나라-47","name":"장룡민물장어나라","city":"포항시","country":"경북","emoji":"🐟","status":"open","award":"백년가게 · 2016년 창업","note":"2016년 창업 · 2023년 백년가게 선정","shows":["B00"],"primaryShow":"B00"}},{"type":"Feature","geometry":{"type":"Point","coordinates":[127.488439,36.628739]},"properties":{"id":"kr-baeknyeon-육거리소문난만두-48","name":"육거리소문난만두","city":"청주시","country":"충북","emoji":"🥟","status":"open","award":"백년가게 · 2020년 창업","note":"2020년 창업 · 2023년 백년가게 선정","shows":["B00"],"primaryShow":"B00"}},{"type":"Feature","geometry":{"type":"Point","coordinates":[127.30007,36.601759]},"properties":{"id":"kr-baeknyeon-몽마르뜨-49","name":"몽마르뜨","city":"조치원읍","country":"세종","emoji":"🍽️","status":"open","award":"백년가게 · 1994년 창업","note":"1994년 창업 · 2022년 백년가게 선정","shows":["B90"],"primaryShow":"B90"}},{"type":"Feature","geometry":{"type":"Point","coordinates":[126.594538,34.576195]},"properties":{"id":"kr-baeknyeon-소망식당-50","name":"소망식당","city":"해남군","country":"전남","emoji":"🍽️","status":"open","award":"백년가게 · 1994년 창업","note":"1994년 창업 · 2021년 백년가게 선정","shows":["B90"],"primaryShow":"B90"}},{"type":"Feature","geometry":{"type":"Point","coordinates":[127.006648,37.606857]},"properties":{"id":"kr-baeknyeon-청수장-51","name":"청수장","city":"성북구","country":"서울","emoji":"🍽️","status":"open","award":"백년가게 · 2000년 창업","note":"2000년 창업 · 2024년 백년가게 선정","shows":["B00"],"primaryShow":"B00"}},{"type":"Feature","geometry":{"type":"Point","coordinates":[126.982295,35.319301]},"properties":{"id":"kr-baeknyeon-바밀제과-52","name":"바밀제과","city":"담양군","country":"전남","emoji":"🍞","status":"open","award":"백년가게 · 1990년 창업","note":"1990년 창업 · 2023년 백년가게 선정","shows":["B90"],"primaryShow":"B90"}},{"type":"Feature","geometry":{"type":"Point","coordinates":[126.970788,37.575828]},"properties":{"id":"kr-baeknyeon-포도나무-53","name":"포도나무","city":"종로구","country":"서울","emoji":"🍽️","status":"open","award":"백년가게 · 2013년 창업","note":"2013년 창업 · 2024년 백년가게 선정","shows":["B00"],"primaryShow":"B00"}},{"type":"Feature","geometry":{"type":"Point","coordinates":[127.121927,36.466114]},"properties":{"id":"kr-baeknyeon-토속식당-54","name":"토속식당","city":"공주시","country":"충남","emoji":"🍽️","status":"open","award":"백년가게 · 2015년 창업","note":"2015년 창업 · 2024년 백년가게 선정","shows":["B00"],"primaryShow":"B00"}},{"type":"Feature","geometry":{"type":"Point","coordinates":[127.153803,36.817901]},"properties":{"id":"kr-baeknyeon-안골-55","name":"안골","city":"천안시","country":"충남","emoji":"🍽️","status":"open","award":"백년가게 · 1994년 창업","note":"1994년 창업 · 2022년 백년가게 선정","shows":["B90"],"primaryShow":"B90"}},{"type":"Feature","geometry":{"type":"Point","coordinates":[127.042111,37.359582]},"properties":{"id":"kr-baeknyeon-고기돌담집-56","name":"고기돌담집","city":"용인시","country":"경기","emoji":"🥩","status":"open","award":"백년가게 · 1999년 창업","note":"1999년 창업 · 2021년 백년가게 선정","shows":["B90"],"primaryShow":"B90"}},{"type":"Feature","geometry":{"type":"Point","coordinates":[128.54479,35.83951]},"properties":{"id":"kr-baeknyeon-갈비둥지로-57","name":"갈비둥지로","city":"달서구","country":"대구","emoji":"🥩","status":"open","award":"백년가게 · 1999년 창업","note":"1999년 창업 · 2024년 백년가게 선정","shows":["B90"],"primaryShow":"B90"}},{"type":"Feature","geometry":{"type":"Point","coordinates":[127.054878,37.295168]},"properties":{"id":"kr-baeknyeon-대훈생고기-58","name":"대훈생고기","city":"수원시","country":"경기","emoji":"🥩","status":"open","award":"백년가게 · 1983년 창업","note":"1983년 창업 · 2021년 백년가게 선정","shows":["B80"],"primaryShow":"B80"}},{"type":"Feature","geometry":{"type":"Point","coordinates":[128.1029,35.08741]},"properties":{"id":"kr-baeknyeon-덕합반점-59","name":"덕합반점","city":"사천시","country":"경남","emoji":"🍽️","status":"open","award":"백년가게 · 1966년 창업","note":"1966년 창업 · 2021년 백년가게 선정","shows":["B60"],"primaryShow":"B60"}},{"type":"Feature","geometry":{"type":"Point","coordinates":[127.09936,37.511142]},"properties":{"id":"kr-baeknyeon-삼우정-60","name":"삼우정","city":"송파구","country":"서울","emoji":"🍽️","status":"open","award":"백년가게 · 2008년 창업","note":"2008년 창업 · 2023년 백년가게 선정","shows":["B00"],"primaryShow":"B00"}},{"type":"Feature","geometry":{"type":"Point","coordinates":[128.521497,35.819319]},"properties":{"id":"kr-baeknyeon-주식회사석정한우마을-61","name":"주식회사 석정한우마을","city":"달서구","country":"대구","emoji":"🥩","status":"open","award":"백년가게 · 2019년 창업","note":"2019년 창업 · 2023년 백년가게 선정","shows":["B00"],"primaryShow":"B00"}},{"type":"Feature","geometry":{"type":"Point","coordinates":[128.616814,35.847289]},"properties":{"id":"kr-baeknyeon-한티불낙-62","name":"한티불낙","city":"수성구","country":"대구","emoji":"🍽️","status":"open","award":"백년가게 · 1999년 창업","note":"1999년 창업 · 2023년 백년가게 선정","shows":["B90"],"primaryShow":"B90"}},{"type":"Feature","geometry":{"type":"Point","coordinates":[128.733229,36.548975]},"properties":{"id":"kr-baeknyeon-금강옥-63","name":"금강옥","city":"안동시","country":"경북","emoji":"🍽️","status":"open","award":"백년가게 · 2020년 창업","note":"2020년 창업 · 2023년 백년가게 선정","shows":["B00"],"primaryShow":"B00"}},{"type":"Feature","geometry":{"type":"Point","coordinates":[129.3185,35.528494]},"properties":{"id":"kr-baeknyeon-촌당-64","name":"촌당","city":"남구","country":"울산","emoji":"🍽️","status":"open","award":"백년가게 · 1996년 창업","note":"1996년 창업 · 2021년 백년가게 선정","shows":["B90"],"primaryShow":"B90"}},{"type":"Feature","geometry":{"type":"Point","coordinates":[128.064664,35.172841]},"properties":{"id":"kr-baeknyeon-야래향-65","name":"야래향","city":"진주시","country":"경남","emoji":"🍽️","status":"open","award":"백년가게 · 2021년 창업","note":"2021년 창업 · 2023년 백년가게 선정","shows":["B00"],"primaryShow":"B00"}},{"type":"Feature","geometry":{"type":"Point","coordinates":[127.035994,37.522116]},"properties":{"id":"kr-baeknyeon-한우리외식산업-66","name":"한우리외식산업","city":"강남구","country":"서울","emoji":"🥩","status":"open","award":"백년가게 · 1988년 창업","note":"1988년 창업 · 2023년 백년가게 선정","shows":["B80"],"primaryShow":"B80"}},{"type":"Feature","geometry":{"type":"Point","coordinates":[126.98386,37.572695]},"properties":{"id":"kr-baeknyeon-이문설농탕-67","name":"이문설농탕","city":"종로구","country":"서울","emoji":"🍲","status":"open","award":"백년가게 · 1981년 창업","note":"1981년 창업 · 2021년 백년가게 선정","shows":["B80"],"primaryShow":"B80"}},{"type":"Feature","geometry":{"type":"Point","coordinates":[128.683196,35.153346]},"properties":{"id":"kr-baeknyeon-동전집-68","name":"동전집","city":"창원시","country":"경남","emoji":"🥞","status":"open","award":"백년가게 · 2020년 창업","note":"2020년 창업 · 2024년 백년가게 선정","shows":["B00"],"primaryShow":"B00"}},{"type":"Feature","geometry":{"type":"Point","coordinates":[128.584454,38.199717]},"properties":{"id":"kr-baeknyeon-감자바우집-69","name":"감자바우집","city":"속초시","country":"강원","emoji":"🍽️","status":"open","award":"백년가게 · 2009년 창업","note":"2009년 창업 · 2023년 백년가게 선정","shows":["B00"],"primaryShow":"B00"}},{"type":"Feature","geometry":{"type":"Point","coordinates":[127.394607,35.412515]},"properties":{"id":"kr-baeknyeon-해용집-70","name":"해용집","city":"남원시","country":"전북","emoji":"🍽️","status":"open","award":"백년가게 · 1984년 창업","note":"1984년 창업 · 2023년 백년가게 선정","shows":["B80"],"primaryShow":"B80"}},{"type":"Feature","geometry":{"type":"Point","coordinates":[126.804388,36.456191]},"properties":{"id":"kr-baeknyeon-농가의빵집-71","name":"농가의빵집","city":"청양군","country":"충남","emoji":"🍞","status":"open","award":"백년가게 · 2017년 창업","note":"2017년 창업 · 2023년 백년가게 선정","shows":["B00"],"primaryShow":"B00"}},{"type":"Feature","geometry":{"type":"Point","coordinates":[126.933075,33.461136]},"properties":{"id":"kr-baeknyeon-제주뚝배기-72","name":"제주뚝배기","city":"서귀포시","country":"제주","emoji":"🍽️","status":"open","award":"백년가게 · 2005년 창업","note":"2005년 창업 · 2023년 백년가게 선정","shows":["B00"],"primaryShow":"B00"}},{"type":"Feature","geometry":{"type":"Point","coordinates":[126.78539,36.39868]},"properties":{"id":"kr-baeknyeon-대일식당-73","name":"대일식당","city":"청양군","country":"충남","emoji":"🍽️","status":"open","award":"백년가게 · 1993년 창업","note":"1993년 창업 · 2023년 백년가게 선정","shows":["B90"],"primaryShow":"B90"}},{"type":"Feature","geometry":{"type":"Point","coordinates":[126.662961,36.596903]},"properties":{"id":"kr-baeknyeon-삽다리곱창전문점-74","name":"삽다리곱창전문점","city":"홍성군","country":"충남","emoji":"🥩","status":"open","award":"백년가게 · 1992년 창업","note":"1992년 창업 · 2021년 백년가게 선정","shows":["B90"],"primaryShow":"B90"}},{"type":"Feature","geometry":{"type":"Point","coordinates":[128.80296,35.320247]},"properties":{"id":"kr-baeknyeon-시장횟집-75","name":"시장횟집(한림면)","city":"김해시","country":"경남","emoji":"🐟","status":"open","award":"백년가게 · 1994년 창업","note":"1994년 창업 · 2021년 백년가게 선정","shows":["B90"],"primaryShow":"B90"}},{"type":"Feature","geometry":{"type":"Point","coordinates":[127.129495,36.827335]},"properties":{"id":"kr-baeknyeon-듀팡과자점-76","name":"듀팡과자점","city":"천안시","country":"충남","emoji":"🍽️","status":"open","award":"백년가게 · 1996년 창업","note":"1996년 창업 · 2023년 백년가게 선정","shows":["B90"],"primaryShow":"B90"}},{"type":"Feature","geometry":{"type":"Point","coordinates":[129.123778,35.155202]},"properties":{"id":"kr-baeknyeon-광안리신라횟집-77","name":"광안리 신라횟집","city":"수영구","country":"부산","emoji":"🐟","status":"open","award":"백년가게 · 2022년 창업","note":"2022년 창업 · 2023년 백년가게 선정","shows":["B00"],"primaryShow":"B00"}},{"type":"Feature","geometry":{"type":"Point","coordinates":[127.925989,36.990734]},"properties":{"id":"kr-baeknyeon-만나밥집-78","name":"만나밥집","city":"충주시","country":"충북","emoji":"🍚","status":"open","award":"백년가게 · 1996년 창업","note":"1996년 창업 · 2021년 백년가게 선정","shows":["B90"],"primaryShow":"B90"}},{"type":"Feature","geometry":{"type":"Point","coordinates":[127.21486,37.07156]},"properties":{"id":"kr-baeknyeon-창진산장휴게소-79","name":"창진산장휴게소","city":"안성시","country":"경기","emoji":"🍽️","status":"open","award":"백년가게 · 1994년 창업","note":"1994년 창업 · 2023년 백년가게 선정","shows":["B90"],"primaryShow":"B90"}},{"type":"Feature","geometry":{"type":"Point","coordinates":[128.212876,37.15081]},"properties":{"id":"kr-baeknyeon-강박사냉면숯불갈비-80","name":"강박사냉면숯불갈비","city":"제천시","country":"충북","emoji":"🍜","status":"open","award":"백년가게 · 1987년 창업","note":"1987년 창업 · 2021년 백년가게 선정","shows":["B80"],"primaryShow":"B80"}},{"type":"Feature","geometry":{"type":"Point","coordinates":[128.426411,34.861002]},"properties":{"id":"kr-baeknyeon-향토집-81","name":"향토집","city":"통영시","country":"경남","emoji":"🍽️","status":"open","award":"백년가게 · 1997년 창업","note":"1997년 창업 · 2024년 백년가게 선정","shows":["B90"],"primaryShow":"B90"}},{"type":"Feature","geometry":{"type":"Point","coordinates":[126.950925,37.319564]},"properties":{"id":"kr-baeknyeon-부곡통닭집-82","name":"부곡통닭집","city":"의왕시","country":"경기","emoji":"🍗","status":"open","award":"백년가게 · 1980년 창업","note":"1980년 창업 · 2024년 백년가게 선정","shows":["B80"],"primaryShow":"B80"}},{"type":"Feature","geometry":{"type":"Point","coordinates":[127.03158,37.501036]},"properties":{"id":"kr-baeknyeon-나주곰탕우정집-83","name":"나주곰탕우정집","city":"강남구","country":"서울","emoji":"🍲","status":"open","award":"백년가게 · 1989년 창업","note":"1989년 창업 · 2021년 백년가게 선정","shows":["B80"],"primaryShow":"B80"}},{"type":"Feature","geometry":{"type":"Point","coordinates":[129.330035,35.537247]},"properties":{"id":"kr-baeknyeon-정자참가자미-84","name":"정자참가자미","city":"남구","country":"울산","emoji":"🍽️","status":"open","award":"백년가게 · 2011년 창업","note":"2011년 창업 · 2024년 백년가게 선정","shows":["B00"],"primaryShow":"B00"}},{"type":"Feature","geometry":{"type":"Point","coordinates":[127.093,37.6063]},"properties":{"id":"kr-baeknyeon-청평매운탕-85","name":"청평매운탕","city":"중랑구","country":"서울","emoji":"🍲","status":"open","award":"백년가게 · 1989년 창업","note":"1989년 창업 · 2021년 백년가게 선정","shows":["B80"],"primaryShow":"B80"}},{"type":"Feature","geometry":{"type":"Point","coordinates":[127.44143,36.854803]},"properties":{"id":"kr-baeknyeon-오박사냉면전문식당-86","name":"오박사냉면전문식당","city":"진천군","country":"충북","emoji":"🍜","status":"open","award":"백년가게 · 1995년 창업","note":"1995년 창업 · 2021년 백년가게 선정","shows":["B90"],"primaryShow":"B90"}},{"type":"Feature","geometry":{"type":"Point","coordinates":[126.978518,37.193098]},"properties":{"id":"kr-baeknyeon-여명본점-87","name":"여명본점","city":"화성시","country":"경기","emoji":"🍽️","status":"open","award":"백년가게 · 2007년 창업","note":"2007년 창업 · 2024년 백년가게 선정","shows":["B00"],"primaryShow":"B00"}},{"type":"Feature","geometry":{"type":"Point","coordinates":[128.624014,35.879573]},"properties":{"id":"kr-baeknyeon-해금강-88","name":"해금강","city":"동구","country":"대구","emoji":"🍽️","status":"open","award":"백년가게 · 2013년 창업","note":"2013년 창업 · 2024년 백년가게 선정","shows":["B00"],"primaryShow":"B00"}},{"type":"Feature","geometry":{"type":"Point","coordinates":[126.970182,37.5367]},"properties":{"id":"kr-baeknyeon-진미식당-89","name":"진미식당","city":"용산구","country":"서울","emoji":"🍽️","status":"open","award":"백년가게 · 1989년 창업","note":"1989년 창업 · 2021년 백년가게 선정","shows":["B80"],"primaryShow":"B80"}},{"type":"Feature","geometry":{"type":"Point","coordinates":[126.972011,37.484457]},"properties":{"id":"kr-baeknyeon-마실-90","name":"마실","city":"동작구","country":"서울","emoji":"🍽️","status":"open","award":"백년가게 · 2011년 창업","note":"2011년 창업 · 2023년 백년가게 선정","shows":["B00"],"primaryShow":"B00"}},{"type":"Feature","geometry":{"type":"Point","coordinates":[127.057545,37.666908]},"properties":{"id":"kr-baeknyeon-엘리제제과점-91","name":"엘리제제과점","city":"노원구","country":"서울","emoji":"🍞","status":"open","award":"백년가게 · 1994년 창업","note":"1994년 창업 · 2021년 백년가게 선정","shows":["B90"],"primaryShow":"B90"}},{"type":"Feature","geometry":{"type":"Point","coordinates":[127.147836,35.820305]},"properties":{"id":"kr-baeknyeon-영흥관-92","name":"영흥관","city":"전주시","country":"전북","emoji":"🍽️","status":"open","award":"백년가게 · 2000년 창업","note":"2000년 창업 · 2024년 백년가게 선정","shows":["B00"],"primaryShow":"B00"}},{"type":"Feature","geometry":{"type":"Point","coordinates":[128.346832,36.117132]},"properties":{"id":"kr-baeknyeon-거제복집-93","name":"거제복집","city":"구미시","country":"경북","emoji":"🍽️","status":"open","award":"백년가게 · 1994년 창업","note":"1994년 창업 · 2023년 백년가게 선정","shows":["B90"],"primaryShow":"B90"}},{"type":"Feature","geometry":{"type":"Point","coordinates":[126.967489,37.56485]},"properties":{"id":"kr-baeknyeon-석교식당-94","name":"석교식당","city":"서대문구","country":"서울","emoji":"🍽️","status":"open","award":"백년가게 · 2019년 창업","note":"2019년 창업 · 2023년 백년가게 선정","shows":["B00"],"primaryShow":"B00"}},{"type":"Feature","geometry":{"type":"Point","coordinates":[126.957349,35.949962]},"properties":{"id":"kr-baeknyeon-보름베이커리-95","name":"보름베이커리","city":"익산시","country":"전북","emoji":"🍛","status":"open","award":"백년가게 · 2019년 창업","note":"2019년 창업 · 2024년 백년가게 선정","shows":["B00"],"primaryShow":"B00"}},{"type":"Feature","geometry":{"type":"Point","coordinates":[126.770218,37.684656]},"properties":{"id":"kr-baeknyeon-문산순대국-96","name":"문산순대국","city":"고양시","country":"경기","emoji":"🍲","status":"open","award":"백년가게 · 1976년 창업","note":"1976년 창업 · 2021년 백년가게 선정","shows":["B70"],"primaryShow":"B70"}},{"type":"Feature","geometry":{"type":"Point","coordinates":[126.999029,37.5687]},"properties":{"id":"kr-baeknyeon-은주식당-97","name":"은주식당","city":"중구","country":"서울","emoji":"🍽️","status":"open","award":"백년가게 · 1990년 창업","note":"1990년 창업 · 2023년 백년가게 선정","shows":["B90"],"primaryShow":"B90"}},{"type":"Feature","geometry":{"type":"Point","coordinates":[127.545578,37.441974]},"properties":{"id":"kr-baeknyeon-신내보리밥-98","name":"신내보리밥","city":"양평군","country":"경기","emoji":"🍚","status":"open","award":"백년가게 · 1991년 창업","note":"1991년 창업 · 2022년 백년가게 선정","shows":["B90"],"primaryShow":"B90"}},{"type":"Feature","geometry":{"type":"Point","coordinates":[126.703773,34.986256]},"properties":{"id":"kr-baeknyeon-주몽가든맛집-99","name":"주몽가든맛집","city":"나주시","country":"전남","emoji":"🍽️","status":"open","award":"백년가게 · 2014년 창업","note":"2014년 창업 · 2024년 백년가게 선정","shows":["B00"],"primaryShow":"B00"}},{"type":"Feature","geometry":{"type":"Point","coordinates":[128.81913,35.19824]},"properties":{"id":"kr-baeknyeon-시장횟집-100","name":"시장횟집(무계동)","city":"김해시","country":"경남","emoji":"🐟","status":"open","award":"백년가게 · 1995년 창업","note":"1995년 창업 · 2021년 백년가게 선정","shows":["B90"],"primaryShow":"B90"}},{"type":"Feature","geometry":{"type":"Point","coordinates":[126.806728,36.453189]},"properties":{"id":"kr-baeknyeon-비봉횟집-101","name":"비봉횟집","city":"청양군","country":"충남","emoji":"🐟","status":"open","award":"백년가게 · 1982년 창업","note":"1982년 창업 · 2022년 백년가게 선정","shows":["B80"],"primaryShow":"B80"}},{"type":"Feature","geometry":{"type":"Point","coordinates":[127.000667,37.306228]},"properties":{"id":"kr-baeknyeon-송풍갈비-102","name":"송풍갈비","city":"수원시","country":"경기","emoji":"🥩","status":"open","award":"백년가게 · 1995년 창업","note":"1995년 창업 · 2022년 백년가게 선정","shows":["B90"],"primaryShow":"B90"}},{"type":"Feature","geometry":{"type":"Point","coordinates":[127.377474,36.358859]},"properties":{"id":"kr-baeknyeon-신라복집-103","name":"신라복집","city":"서구","country":"대전","emoji":"🍽️","status":"open","award":"백년가게 · 1995년 창업","note":"1995년 창업 · 2023년 백년가게 선정","shows":["B90"],"primaryShow":"B90"}},{"type":"Feature","geometry":{"type":"Point","coordinates":[128.101256,35.185449]},"properties":{"id":"kr-baeknyeon-송기원진주냉면본점-104","name":"송기원 진주냉면본점","city":"진주시","country":"경남","emoji":"🍜","status":"open","award":"백년가게 · 1992년 창업","note":"1992년 창업 · 2023년 백년가게 선정","shows":["B90"],"primaryShow":"B90"}},{"type":"Feature","geometry":{"type":"Point","coordinates":[127.118186,35.810643]},"properties":{"id":"kr-baeknyeon-엄마손김치찌개-105","name":"엄마손김치찌개","city":"전주시","country":"전북","emoji":"🍲","status":"open","award":"백년가게 · 1993년 창업","note":"1993년 창업 · 2023년 백년가게 선정","shows":["B90"],"primaryShow":"B90"}},{"type":"Feature","geometry":{"type":"Point","coordinates":[128.578465,35.235512]},"properties":{"id":"kr-baeknyeon-강변횟집-106","name":"강변횟집","city":"창원시","country":"경남","emoji":"🐟","status":"open","award":"백년가게 · 1987년 창업","note":"1987년 창업 · 2021년 백년가게 선정","shows":["B80"],"primaryShow":"B80"}},{"type":"Feature","geometry":{"type":"Point","coordinates":[129.116733,37.569162]},"properties":{"id":"kr-baeknyeon-오부자냄비물회-107","name":"오부자냄비물회","city":"동해시","country":"강원","emoji":"🐟","status":"open","award":"백년가게 · 1998년 창업","note":"1998년 창업 · 2021년 백년가게 선정","shows":["B90"],"primaryShow":"B90"}},{"type":"Feature","geometry":{"type":"Point","coordinates":[129.125783,35.156486]},"properties":{"id":"kr-baeknyeon-방파제-108","name":"방파제","city":"수영구","country":"부산","emoji":"🍽️","status":"open","award":"백년가게 · 1990년 창업","note":"1990년 창업 · 2023년 백년가게 선정","shows":["B90"],"primaryShow":"B90"}},{"type":"Feature","geometry":{"type":"Point","coordinates":[128.07563,34.923982]},"properties":{"id":"kr-baeknyeon-삼천포원조삼학물회-109","name":"삼천포원조 삼학물회","city":"사천시","country":"경남","emoji":"🐟","status":"open","award":"백년가게 · 1977년 창업","note":"1977년 창업 · 2023년 백년가게 선정","shows":["B70"],"primaryShow":"B70"}},{"type":"Feature","geometry":{"type":"Point","coordinates":[127.103021,35.815325]},"properties":{"id":"kr-baeknyeon-만성한정식-110","name":"만성한정식","city":"전주시","country":"전북","emoji":"🍚","status":"open","award":"백년가게 · 2015년 창업","note":"2015년 창업 · 2024년 백년가게 선정","shows":["B00"],"primaryShow":"B00"}},{"type":"Feature","geometry":{"type":"Point","coordinates":[127.129204,37.507479]},"properties":{"id":"kr-baeknyeon-향호면옥-111","name":"향호면옥","city":"송파구","country":"서울","emoji":"🍽️","status":"open","award":"백년가게 · 2008년 창업","note":"2008년 창업 · 2024년 백년가게 선정","shows":["B00"],"primaryShow":"B00"}},{"type":"Feature","geometry":{"type":"Point","coordinates":[128.077406,34.927632]},"properties":{"id":"kr-baeknyeon-미래특수통닭-112","name":"미래특수통닭","city":"사천시","country":"경남","emoji":"🍗","status":"open","award":"백년가게 · 1987년 창업","note":"1987년 창업 · 2024년 백년가게 선정","shows":["B80"],"primaryShow":"B80"}},{"type":"Feature","geometry":{"type":"Point","coordinates":[126.834747,37.617496]},"properties":{"id":"kr-baeknyeon-태능숯불갈비-113","name":"태능숯불갈비","city":"고양시","country":"경기","emoji":"🥩","status":"open","award":"백년가게 · 2003년 창업","note":"2003년 창업 · 2023년 백년가게 선정","shows":["B00"],"primaryShow":"B00"}},{"type":"Feature","geometry":{"type":"Point","coordinates":[127.026457,37.639637]},"properties":{"id":"kr-baeknyeon-군산해물탕-114","name":"군산해물탕","city":"강북구","country":"서울","emoji":"🍲","status":"open","award":"백년가게 · 1984년 창업","note":"1984년 창업 · 2021년 백년가게 선정","shows":["B80"],"primaryShow":"B80"}},{"type":"Feature","geometry":{"type":"Point","coordinates":[128.635604,35.857065]},"properties":{"id":"kr-baeknyeon-육일만두-115","name":"육일만두","city":"수성구","country":"대구","emoji":"🥟","status":"open","award":"백년가게 · 1995년 창업","note":"1995년 창업 · 2023년 백년가게 선정","shows":["B90"],"primaryShow":"B90"}},{"type":"Feature","geometry":{"type":"Point","coordinates":[126.988441,37.496689]},"properties":{"id":"kr-baeknyeon-블랑제리-116","name":"블랑제리 (르팡)","city":"서초구","country":"서울","emoji":"🍽️","status":"open","award":"백년가게 · 1997년 창업","note":"1997년 창업 · 2021년 백년가게 선정","shows":["B90"],"primaryShow":"B90"}},{"type":"Feature","geometry":{"type":"Point","coordinates":[127.775773,36.17101]},"properties":{"id":"kr-baeknyeon-감골생고기타운-117","name":"감골생고기타운","city":"영동군","country":"충북","emoji":"🥩","status":"open","award":"백년가게 · 1993년 창업","note":"1993년 창업 · 2021년 백년가게 선정","shows":["B90"],"primaryShow":"B90"}},{"type":"Feature","geometry":{"type":"Point","coordinates":[126.643846,37.472382]},"properties":{"id":"kr-baeknyeon-반공방첩-118","name":"반공방첩","city":"동구","country":"인천","emoji":"🍽️","status":"open","award":"백년가게 · 2003년 창업","note":"2003년 창업 · 2024년 백년가게 선정","shows":["B00"],"primaryShow":"B00"}},{"type":"Feature","geometry":{"type":"Point","coordinates":[126.89235,36.8637]},"properties":{"id":"kr-baeknyeon-숲속장어구이-119","name":"숲속장어구이","city":"아산시","country":"충남","emoji":"🥩","status":"open","award":"백년가게 · 1991년 창업","note":"1991년 창업 · 2022년 백년가게 선정","shows":["B90"],"primaryShow":"B90"}},{"type":"Feature","geometry":{"type":"Point","coordinates":[128.02885,37.002449]},"properties":{"id":"kr-baeknyeon-남한강횟집-120","name":"남한강횟집","city":"충주시","country":"충북","emoji":"🐟","status":"open","award":"백년가게 · 2006년 창업","note":"2006년 창업 · 2024년 백년가게 선정","shows":["B00"],"primaryShow":"B00"}},{"type":"Feature","geometry":{"type":"Point","coordinates":[128.222862,37.70084]},"properties":{"id":"kr-baeknyeon-생곡막국수-121","name":"생곡막국수","city":"홍천군","country":"강원","emoji":"🍜","status":"open","award":"백년가게 · 1996년 창업","note":"1996년 창업 · 2023년 백년가게 선정","shows":["B90"],"primaryShow":"B90"}},{"type":"Feature","geometry":{"type":"Point","coordinates":[127.070078,37.341049]},"properties":{"id":"kr-baeknyeon-귀래정-122","name":"귀래정","city":"용인시","country":"경기","emoji":"🍽️","status":"open","award":"백년가게 · 1996년 창업","note":"1996년 창업 · 2021년 백년가게 선정","shows":["B90"],"primaryShow":"B90"}},{"type":"Feature","geometry":{"type":"Point","coordinates":[128.895982,37.772698]},"properties":{"id":"kr-baeknyeon-황정숙본막국수-123","name":"황정숙본막국수","city":"강릉시","country":"강원","emoji":"🍜","status":"open","award":"백년가게 · 1989년 창업","note":"1989년 창업 · 2022년 백년가게 선정","shows":["B80"],"primaryShow":"B80"}},{"type":"Feature","geometry":{"type":"Point","coordinates":[127.121927,36.466114]},"properties":{"id":"kr-baeknyeon-원진노기순청국장-124","name":"원진노기순청국장","city":"공주시","country":"충남","emoji":"🍲","status":"open","award":"백년가게 · 2015년 창업","note":"2015년 창업 · 2023년 백년가게 선정","shows":["B00"],"primaryShow":"B00"}},{"type":"Feature","geometry":{"type":"Point","coordinates":[126.967151,37.564452]},"properties":{"id":"kr-baeknyeon-평양옥-125","name":"평양옥","city":"서대문구","country":"서울","emoji":"🍜","status":"open","award":"백년가게 · 1986년 창업","note":"1986년 창업 · 2024년 백년가게 선정","shows":["B80"],"primaryShow":"B80"}},{"type":"Feature","geometry":{"type":"Point","coordinates":[128.653061,35.725002]},"properties":{"id":"kr-baeknyeon-큰나무집궁중약백숙-126","name":"큰나무집 궁중약백숙","city":"달성군","country":"대구","emoji":"🍗","status":"open","award":"백년가게 · 2000년 창업","note":"2000년 창업 · 2024년 백년가게 선정","shows":["B00"],"primaryShow":"B00"}},{"type":"Feature","geometry":{"type":"Point","coordinates":[128.714653,36.58529]},"properties":{"id":"kr-baeknyeon-석송가든-127","name":"석송가든","city":"안동시","country":"경북","emoji":"🍽️","status":"open","award":"백년가게 · 1990년 창업","note":"1990년 창업 · 2023년 백년가게 선정","shows":["B90"],"primaryShow":"B90"}},{"type":"Feature","geometry":{"type":"Point","coordinates":[127.085477,36.993954]},"properties":{"id":"kr-baeknyeon-평택주물럭-128","name":"평택주물럭","city":"평택시","country":"경기","emoji":"🍽️","status":"open","award":"백년가게 · 2019년 창업","note":"2019년 창업 · 2023년 백년가게 선정","shows":["B00"],"primaryShow":"B00"}},{"type":"Feature","geometry":{"type":"Point","coordinates":[128.875952,37.752532]},"properties":{"id":"kr-baeknyeon-송죽원추어탕-129","name":"송죽원 추어탕","city":"강릉시","country":"강원","emoji":"🍲","status":"open","award":"백년가게 · 2007년 창업","note":"2007년 창업 · 2023년 백년가게 선정","shows":["B00"],"primaryShow":"B00"}},{"type":"Feature","geometry":{"type":"Point","coordinates":[128.606763,36.812564]},"properties":{"id":"kr-baeknyeon-두부마을식당-130","name":"두부마을식당","city":"영주시","country":"경북","emoji":"🍲","status":"open","award":"백년가게 · 1998년 창업","note":"1998년 창업 · 2023년 백년가게 선정","shows":["B90"],"primaryShow":"B90"}},{"type":"Feature","geometry":{"type":"Point","coordinates":[127.734969,37.860098]},"properties":{"id":"kr-baeknyeon-대원당-131","name":"대원당","city":"춘천시","country":"강원","emoji":"🍽️","status":"open","award":"백년가게 · 2013년 창업","note":"2013년 창업 · 2024년 백년가게 선정","shows":["B00"],"primaryShow":"B00"}},{"type":"Feature","geometry":{"type":"Point","coordinates":[128.047646,35.20659]},"properties":{"id":"kr-baeknyeon-산청흑돼지-132","name":"산청흑돼지","city":"진주시","country":"경남","emoji":"🥩","status":"open","award":"백년가게 · 2017년 창업","note":"2017년 창업 · 2023년 백년가게 선정","shows":["B00"],"primaryShow":"B00"}},{"type":"Feature","geometry":{"type":"Point","coordinates":[128.433205,34.854254]},"properties":{"id":"kr-baeknyeon-부일식당-133","name":"부일식당","city":"통영시","country":"경남","emoji":"🍽️","status":"open","award":"백년가게 · 2005년 창업","note":"2005년 창업 · 2024년 백년가게 선정","shows":["B00"],"primaryShow":"B00"}},{"type":"Feature","geometry":{"type":"Point","coordinates":[127.054284,37.180968]},"properties":{"id":"kr-baeknyeon-무진장-134","name":"무진장","city":"오산시","country":"경기","emoji":"🍽️","status":"open","award":"백년가게 · 1993년 창업","note":"1993년 창업 · 2021년 백년가게 선정","shows":["B90"],"primaryShow":"B90"}},{"type":"Feature","geometry":{"type":"Point","coordinates":[128.606763,36.812564]},"properties":{"id":"kr-baeknyeon-소백산생고기식당-135","name":"소백산생고기식당","city":"영주시","country":"경북","emoji":"🥩","status":"open","award":"백년가게 · 2013년 창업","note":"2013년 창업 · 2024년 백년가게 선정","shows":["B00"],"primaryShow":"B00"}},{"type":"Feature","geometry":{"type":"Point","coordinates":[127.005596,37.560767]},"properties":{"id":"kr-baeknyeon-뚱뚱이할머니집-136","name":"뚱뚱이할머니집","city":"중구","country":"서울","emoji":"🍽️","status":"open","award":"백년가게 · 1990년 창업","note":"1990년 창업 · 2024년 백년가게 선정","shows":["B90"],"primaryShow":"B90"}},{"type":"Feature","geometry":{"type":"Point","coordinates":[127.809105,36.974511]},"properties":{"id":"kr-baeknyeon-운정식당-137","name":"운정식당","city":"충주시","country":"충북","emoji":"🍚","status":"open","award":"백년가게 · 1978년 창업","note":"1978년 창업 · 2022년 백년가게 선정","shows":["B70"],"primaryShow":"B70"}},{"type":"Feature","geometry":{"type":"Point","coordinates":[129.208397,35.84469]},"properties":{"id":"kr-baeknyeon-어향원-138","name":"어향원","city":"경주시","country":"경북","emoji":"🍽️","status":"open","award":"백년가게 · 1961년 창업","note":"1961년 창업 · 2023년 백년가게 선정","shows":["B60"],"primaryShow":"B60"}},{"type":"Feature","geometry":{"type":"Point","coordinates":[127.140457,37.599248]},"properties":{"id":"kr-baeknyeon-충남식당-139","name":"충남식당","city":"구리시","country":"경기","emoji":"🍽️","status":"open","award":"백년가게 · 2019년 창업","note":"2019년 창업 · 2024년 백년가게 선정","shows":["B00"],"primaryShow":"B00"}},{"type":"Feature","geometry":{"type":"Point","coordinates":[126.979469,37.569689]},"properties":{"id":"kr-baeknyeon-신성-140","name":"신성","city":"종로구","country":"서울","emoji":"🍽️","status":"open","award":"백년가게 · 1999년 창업","note":"1999년 창업 · 2021년 백년가게 선정","shows":["B90"],"primaryShow":"B90"}},{"type":"Feature","geometry":{"type":"Point","coordinates":[127.994537,36.769287]},"properties":{"id":"kr-baeknyeon-새재황토방-141","name":"새재황토방","city":"괴산군","country":"충북","emoji":"🍽️","status":"open","award":"백년가게 · 2023년 창업","note":"2023년 창업 · 2024년 백년가게 선정","shows":["B00"],"primaryShow":"B00"}},{"type":"Feature","geometry":{"type":"Point","coordinates":[129.305297,35.530699]},"properties":{"id":"kr-baeknyeon-주식회사만리장성-142","name":"주식회사 만리장성","city":"남구","country":"울산","emoji":"🐟","status":"open","award":"백년가게 · 1995년 창업","note":"1995년 창업 · 2021년 백년가게 선정","shows":["B90"],"primaryShow":"B90"}},{"type":"Feature","geometry":{"type":"Point","coordinates":[126.54123,36.775082]},"properties":{"id":"kr-baeknyeon-반도회관-143","name":"반도회관","city":"서산시","country":"충남","emoji":"🐟","status":"open","award":"백년가게 · 1988년 창업","note":"1988년 창업 · 2022년 백년가게 선정","shows":["B80"],"primaryShow":"B80"}},{"type":"Feature","geometry":{"type":"Point","coordinates":[128.734514,36.566856]},"properties":{"id":"kr-baeknyeon-경상도추어탕-144","name":"경상도추어탕","city":"안동시","country":"경북","emoji":"🍲","status":"open","award":"백년가게 · 2012년 창업","note":"2012년 창업 · 2024년 백년가게 선정","shows":["B00"],"primaryShow":"B00"}},{"type":"Feature","geometry":{"type":"Point","coordinates":[127.055475,37.617491]},"properties":{"id":"kr-baeknyeon-삼천포식당-145","name":"삼천포식당","city":"강북구","country":"서울","emoji":"🍽️","status":"open","award":"백년가게 · 1992년 창업","note":"1992년 창업 · 2021년 백년가게 선정","shows":["B90"],"primaryShow":"B90"}},{"type":"Feature","geometry":{"type":"Point","coordinates":[126.848366,37.727526]},"properties":{"id":"kr-baeknyeon-종화네돌솥추어탕-146","name":"종화네 돌솥 추어탕","city":"고양시","country":"경기","emoji":"🍲","status":"open","award":"백년가게 · 1991년 창업","note":"1991년 창업 · 2023년 백년가게 선정","shows":["B90"],"primaryShow":"B90"}},{"type":"Feature","geometry":{"type":"Point","coordinates":[126.811372,35.155853]},"properties":{"id":"kr-baeknyeon-임가네일반음식점-147","name":"임가네 일반음식점","city":"광산구","country":"광주","emoji":"🍽️","status":"open","award":"백년가게 · 1994년 창업","note":"1994년 창업 · 2024년 백년가게 선정","shows":["B90"],"primaryShow":"B90"}},{"type":"Feature","geometry":{"type":"Point","coordinates":[127.456069,37.517988]},"properties":{"id":"kr-baeknyeon-보광정-148","name":"보광정","city":"양평군","country":"경기","emoji":"🍽️","status":"open","award":"백년가게 · 1996년 창업","note":"1996년 창업 · 2023년 백년가게 선정","shows":["B90"],"primaryShow":"B90"}},{"type":"Feature","geometry":{"type":"Point","coordinates":[127.929609,36.971716]},"properties":{"id":"kr-baeknyeon-은혜본가-149","name":"은혜본가","city":"충주시","country":"충북","emoji":"🍽️","status":"open","award":"백년가게 · 1987년 창업","note":"1987년 창업 · 2022년 백년가게 선정","shows":["B80"],"primaryShow":"B80"}},{"type":"Feature","geometry":{"type":"Point","coordinates":[127.293285,36.583401]},"properties":{"id":"kr-baeknyeon-번암반점-150","name":"번암반점","city":"조치원읍","country":"세종","emoji":"🍽️","status":"open","award":"백년가게 · 1999년 창업","note":"1999년 창업 · 2023년 백년가게 선정","shows":["B90"],"primaryShow":"B90"}},{"type":"Feature","geometry":{"type":"Point","coordinates":[127.300879,36.603511]},"properties":{"id":"kr-baeknyeon-우보설렁탕-151","name":"우보설렁탕","city":"조치원읍","country":"세종","emoji":"🍲","status":"open","award":"백년가게 · 1995년 창업","note":"1995년 창업 · 2021년 백년가게 선정","shows":["B90"],"primaryShow":"B90"}},{"type":"Feature","geometry":{"type":"Point","coordinates":[128.921808,35.219993]},"properties":{"id":"kr-baeknyeon-원조할매추어탕-152","name":"원조할매추어탕","city":"김해시","country":"경남","emoji":"🍲","status":"open","award":"백년가게 · 2000년 창업","note":"2000년 창업 · 2021년 백년가게 선정","shows":["B00"],"primaryShow":"B00"}},{"type":"Feature","geometry":{"type":"Point","coordinates":[126.888413,35.154153]},"properties":{"id":"kr-baeknyeon-문경정짱뚱어탕전문점-153","name":"문경정 짱뚱어탕 전문점","city":"서구","country":"광주","emoji":"🍽️","status":"open","award":"백년가게 · 1999년 창업","note":"1999년 창업 · 2024년 백년가게 선정","shows":["B90"],"primaryShow":"B90"}},{"type":"Feature","geometry":{"type":"Point","coordinates":[128.580136,35.207134]},"properties":{"id":"kr-baeknyeon-판문점-154","name":"판문점","city":"마산시","country":"경남","emoji":"🍽️","status":"open","award":"백년가게 · 1979년 창업","note":"1979년 창업 · 2019년 백년가게 선정","shows":["B70"],"primaryShow":"B70"}},{"type":"Feature","geometry":{"type":"Point","coordinates":[129.01547,36.539684]},"properties":{"id":"kr-baeknyeon-명궁약수가든-155","name":"명궁약수가든","city":"청송군","country":"경북","emoji":"🍽️","status":"open","award":"백년가게 · 1986년 창업","note":"1986년 창업 · 2023년 백년가게 선정","shows":["B80"],"primaryShow":"B80"}},{"type":"Feature","geometry":{"type":"Point","coordinates":[128.734514,36.566856]},"properties":{"id":"kr-baeknyeon-안동회관-156","name":"안동회관","city":"안동시","country":"경북","emoji":"🐟","status":"open","award":"백년가게 · 1972년 창업","note":"1972년 창업 · 2022년 백년가게 선정","shows":["B70"],"primaryShow":"B70"}},{"type":"Feature","geometry":{"type":"Point","coordinates":[126.858858,37.515492]},"properties":{"id":"kr-baeknyeon-히노야마-157","name":"히노야마","city":"양천구","country":"서울","emoji":"🍽️","status":"open","award":"백년가게 · 1993년 창업","note":"1993년 창업 · 2022년 백년가게 선정","shows":["B90"],"primaryShow":"B90"}},{"type":"Feature","geometry":{"type":"Point","coordinates":[126.689991,35.958402]},"properties":{"id":"kr-baeknyeon-전주우족설렁탕-158","name":"전주우족설렁탕","city":"군산시","country":"전북","emoji":"🍲","status":"open","award":"백년가게 · 1976년 창업","note":"1976년 창업 · 2022년 백년가게 선정","shows":["B70"],"primaryShow":"B70"}},{"type":"Feature","geometry":{"type":"Point","coordinates":[127.006126,37.57029]},"properties":{"id":"kr-baeknyeon-명동닭한마리본점-159","name":"명동닭한마리 본점","city":"종로구","country":"서울","emoji":"🍗","status":"open","award":"백년가게 · 1991년 창업","note":"1991년 창업 · 2022년 백년가게 선정","shows":["B90"],"primaryShow":"B90"}},{"type":"Feature","geometry":{"type":"Point","coordinates":[127.14107,35.817927]},"properties":{"id":"kr-baeknyeon-삼백집-160","name":"삼백집","city":"전주시","country":"전북","emoji":"🍽️","status":"open","award":"백년가게 · 1989년 창업","note":"1989년 창업 · 2022년 백년가게 선정","shows":["B80"],"primaryShow":"B80"}},{"type":"Feature","geometry":{"type":"Point","coordinates":[127.426745,36.364893]},"properties":{"id":"kr-baeknyeon-은혜반찬2-161","name":"은혜반찬2","city":"대덕구","country":"대전","emoji":"🍽️","status":"open","award":"백년가게 · 2002년 창업","note":"2002년 창업 · 2022년 백년가게 선정","shows":["B00"],"primaryShow":"B00"}},{"type":"Feature","geometry":{"type":"Point","coordinates":[127.383848,36.355179]},"properties":{"id":"kr-baeknyeon-동원손칼국수-162","name":"동원손칼국수","city":"서구","country":"대전","emoji":"🍜","status":"open","award":"백년가게 · 1995년 창업","note":"1995년 창업 · 2022년 백년가게 선정","shows":["B90"],"primaryShow":"B90"}},{"type":"Feature","geometry":{"type":"Point","coordinates":[126.803119,35.180532]},"properties":{"id":"kr-baeknyeon-연경-163","name":"연경","city":"광산구","country":"광주","emoji":"🍽️","status":"open","award":"백년가게 · 1987년 창업","note":"1987년 창업 · 2022년 백년가게 선정","shows":["B80"],"primaryShow":"B80"}},{"type":"Feature","geometry":{"type":"Point","coordinates":[126.917334,35.147723]},"properties":{"id":"kr-baeknyeon-궁전제과-164","name":"궁전제과","city":"동구","country":"광주","emoji":"🍞","status":"open","award":"백년가게 · 1986년 창업","note":"1986년 창업 · 2022년 백년가게 선정","shows":["B80"],"primaryShow":"B80"}},{"type":"Feature","geometry":{"type":"Point","coordinates":[127.137681,35.819534]},"properties":{"id":"kr-baeknyeon-진미집-165","name":"진미집","city":"전주시","country":"전북","emoji":"🍽️","status":"open","award":"백년가게 · 1980년 창업","note":"1980년 창업 · 2022년 백년가게 선정","shows":["B80"],"primaryShow":"B80"}},{"type":"Feature","geometry":{"type":"Point","coordinates":[127.142599,35.819463]},"properties":{"id":"kr-baeknyeon-금일옥-166","name":"금일옥","city":"전주시","country":"전북","emoji":"🍽️","status":"open","award":"백년가게 · 1983년 창업","note":"1983년 창업 · 2022년 백년가게 선정","shows":["B80"],"primaryShow":"B80"}},{"type":"Feature","geometry":{"type":"Point","coordinates":[127.433298,36.369938]},"properties":{"id":"kr-baeknyeon-매봉식당-167","name":"매봉식당","city":"대덕구","country":"대전","emoji":"🍽️","status":"open","award":"백년가게 · 2018년 창업","note":"2018년 창업 · 2022년 백년가게 선정","shows":["B00"],"primaryShow":"B00"}},{"type":"Feature","geometry":{"type":"Point","coordinates":[127.05141,37.487347]},"properties":{"id":"kr-baeknyeon-김영모과자점-168","name":"(주)김영모과자점","city":"강남구","country":"서울","emoji":"🍽️","status":"open","award":"백년가게 · 1982년 창업","note":"1982년 창업 · 2022년 백년가게 선정","shows":["B80"],"primaryShow":"B80"}},{"type":"Feature","geometry":{"type":"Point","coordinates":[127.336321,36.365919]},"properties":{"id":"kr-baeknyeon-바질리코레스토랑-169","name":"바질리코레스토랑","city":"유성구","country":"대전","emoji":"🍽️","status":"open","award":"백년가게 · 1999년 창업","note":"1999년 창업 · 2022년 백년가게 선정","shows":["B90"],"primaryShow":"B90"}},{"type":"Feature","geometry":{"type":"Point","coordinates":[127.42589,36.365837]},"properties":{"id":"kr-baeknyeon-자연산형제횟집-170","name":"자연산형제횟집","city":"대덕구","country":"대전","emoji":"🐟","status":"open","award":"백년가게 · 1996년 창업","note":"1996년 창업 · 2022년 백년가게 선정","shows":["B90"],"primaryShow":"B90"}},{"type":"Feature","geometry":{"type":"Point","coordinates":[127.208326,37.634029]},"properties":{"id":"kr-baeknyeon-박성구과자점-171","name":"박성구과자점","city":"남양주시","country":"경기","emoji":"🍽️","status":"open","award":"백년가게 · 1983년 창업","note":"1983년 창업 · 2022년 백년가게 선정","shows":["B80"],"primaryShow":"B80"}},{"type":"Feature","geometry":{"type":"Point","coordinates":[129.350094,36.042283]},"properties":{"id":"kr-baeknyeon-팡페이장과자점-172","name":"팡페이장과자점","city":"포항시","country":"경북","emoji":"🍽️","status":"open","award":"백년가게 · 1997년 창업","note":"1997년 창업 · 2022년 백년가게 선정","shows":["B90"],"primaryShow":"B90"}},{"type":"Feature","geometry":{"type":"Point","coordinates":[127.055566,37.917296]},"properties":{"id":"kr-baeknyeon-오륙하우스-173","name":"오륙하우스","city":"동두천시","country":"경기","emoji":"🍽️","status":"open","award":"백년가게 · 1972년 창업","note":"1972년 창업 · 2022년 백년가게 선정","shows":["B70"],"primaryShow":"B70"}},{"type":"Feature","geometry":{"type":"Point","coordinates":[127.829291,36.523828]},"properties":{"id":"kr-baeknyeon-배영숙산야초밥상-174","name":"배영숙산야초밥상","city":"보은군","country":"충북","emoji":"🍣","status":"open","award":"백년가게 · 1995년 창업","note":"1995년 창업 · 2022년 백년가게 선정","shows":["B90"],"primaryShow":"B90"}},{"type":"Feature","geometry":{"type":"Point","coordinates":[127.460452,37.519187]},"properties":{"id":"kr-baeknyeon-옥천면옥-175","name":"옥천면옥","city":"양평군","country":"경기","emoji":"🍽️","status":"open","award":"백년가게 · 1988년 창업","note":"1988년 창업 · 2022년 백년가게 선정","shows":["B80"],"primaryShow":"B80"}},{"type":"Feature","geometry":{"type":"Point","coordinates":[127.065057,37.331233]},"properties":{"id":"kr-baeknyeon-정미소김치관-176","name":"정미소 김치관","city":"용인시","country":"경기","emoji":"🍽️","status":"open","award":"백년가게 · 2001년 창업","note":"2001년 창업 · 2022년 백년가게 선정","shows":["B00"],"primaryShow":"B00"}},{"type":"Feature","geometry":{"type":"Point","coordinates":[127.070078,37.341049]},"properties":{"id":"kr-baeknyeon-장수촌-177","name":"장수촌","city":"용인시","country":"경기","emoji":"🍽️","status":"open","award":"백년가게 · 2014년 창업","note":"2014년 창업 · 2022년 백년가게 선정","shows":["B00"],"primaryShow":"B00"}},{"type":"Feature","geometry":{"type":"Point","coordinates":[129.41033,35.95874]},"properties":{"id":"kr-baeknyeon-미세스고등어본점-178","name":"미세스고등어 본점","city":"포항시","country":"경북","emoji":"🍽️","status":"open","award":"백년가게 · 2001년 창업","note":"2001년 창업 · 2022년 백년가게 선정","shows":["B00"],"primaryShow":"B00"}},{"type":"Feature","geometry":{"type":"Point","coordinates":[126.824158,37.605324]},"properties":{"id":"kr-baeknyeon-한일가든-179","name":"한일가든","city":"고양시","country":"경기","emoji":"🍽️","status":"open","award":"백년가게 · 1960년 창업","note":"1960년 창업 · 2022년 백년가게 선정","shows":["B60"],"primaryShow":"B60"}},{"type":"Feature","geometry":{"type":"Point","coordinates":[129.355711,36.019746]},"properties":{"id":"kr-baeknyeon-금산삼계탕-180","name":"금산삼계탕","city":"포항시","country":"경북","emoji":"🍗","status":"open","award":"백년가게 · 1996년 창업","note":"1996년 창업 · 2022년 백년가게 선정","shows":["B90"],"primaryShow":"B90"}},{"type":"Feature","geometry":{"type":"Point","coordinates":[128.53523,35.835047]},"properties":{"id":"kr-baeknyeon-옛맛집-181","name":"옛맛집","city":"달서구","country":"대구","emoji":"🍽️","status":"open","award":"백년가게 · 1998년 창업","note":"1998년 창업 · 2022년 백년가게 선정","shows":["B90"],"primaryShow":"B90"}},{"type":"Feature","geometry":{"type":"Point","coordinates":[126.700408,37.472436]},"properties":{"id":"kr-baeknyeon-초가숯불갈비-182","name":"초가숯불갈비","city":"부평구","country":"인천","emoji":"🥩","status":"open","award":"백년가게 · 1999년 창업","note":"1999년 창업 · 2022년 백년가게 선정","shows":["B90"],"primaryShow":"B90"}},{"type":"Feature","geometry":{"type":"Point","coordinates":[129.332279,36.238332]},"properties":{"id":"kr-baeknyeon-진주식당-183","name":"진주식당","city":"포항시","country":"경북","emoji":"🍽️","status":"open","award":"백년가게 · 1980년 창업","note":"1980년 창업 · 2022년 백년가게 선정","shows":["B80"],"primaryShow":"B80"}},{"type":"Feature","geometry":{"type":"Point","coordinates":[128.616814,35.847289]},"properties":{"id":"kr-baeknyeon-서민갈비-184","name":"서민갈비","city":"수성구","country":"대구","emoji":"🥩","status":"open","award":"백년가게 · 2001년 창업","note":"2001년 창업 · 2022년 백년가게 선정","shows":["B00"],"primaryShow":"B00"}},{"type":"Feature","geometry":{"type":"Point","coordinates":[128.710343,35.837668]},"properties":{"id":"kr-baeknyeon-동해회집-185","name":"동해회집","city":"수성구","country":"대구","emoji":"🐟","status":"open","award":"백년가게 · 1995년 창업","note":"1995년 창업 · 2022년 백년가게 선정","shows":["B90"],"primaryShow":"B90"}},{"type":"Feature","geometry":{"type":"Point","coordinates":[128.70089,35.843505]},"properties":{"id":"kr-baeknyeon-데일리호스브라운-186","name":"데일리호스브라운","city":"수성구","country":"대구","emoji":"🍽️","status":"open","award":"백년가게 · 1986년 창업","note":"1986년 창업 · 2022년 백년가게 선정","shows":["B80"],"primaryShow":"B80"}},{"type":"Feature","geometry":{"type":"Point","coordinates":[127.054815,37.071301]},"properties":{"id":"kr-baeknyeon-케익나라-187","name":"케익나라","city":"평택시","country":"경기","emoji":"🍽️","status":"open","award":"백년가게 · 1984년 창업","note":"1984년 창업 · 2022년 백년가게 선정","shows":["B80"],"primaryShow":"B80"}},{"type":"Feature","geometry":{"type":"Point","coordinates":[127.053214,37.902536]},"properties":{"id":"kr-baeknyeon-호수식당-188","name":"호수식당","city":"동두천시","country":"경기","emoji":"🍽️","status":"open","award":"백년가게 · 2000년 창업","note":"2000년 창업 · 2022년 백년가게 선정","shows":["B00"],"primaryShow":"B00"}},{"type":"Feature","geometry":{"type":"Point","coordinates":[127.149185,35.818311]},"properties":{"id":"kr-baeknyeon-왱이집-189","name":"왱이집","city":"전주시","country":"전북","emoji":"🍽️","status":"open","award":"백년가게 · 1991년 창업","note":"1991년 창업 · 2022년 백년가게 선정","shows":["B90"],"primaryShow":"B90"}},{"type":"Feature","geometry":{"type":"Point","coordinates":[128.81517,35.95022]},"properties":{"id":"kr-baeknyeon-박터진흥부네-190","name":"박터진흥부네","city":"경산시","country":"경북","emoji":"🍽️","status":"open","award":"백년가게 · 1988년 창업","note":"1988년 창업 · 2022년 백년가게 선정","shows":["B80"],"primaryShow":"B80"}},{"type":"Feature","geometry":{"type":"Point","coordinates":[128.427427,36.098366]},"properties":{"id":"kr-baeknyeon-복터진집본점-191","name":"복터진집 본점","city":"구미시","country":"경북","emoji":"🍽️","status":"open","award":"백년가게 · 2001년 창업","note":"2001년 창업 · 2022년 백년가게 선정","shows":["B00"],"primaryShow":"B00"}},{"type":"Feature","geometry":{"type":"Point","coordinates":[127.98354,34.73405]},"properties":{"id":"kr-baeknyeon-재두식당-192","name":"재두식당","city":"남해군","country":"경남","emoji":"🍽️","status":"open","award":"백년가게 · 1967년 창업","note":"1967년 창업 · 2022년 백년가게 선정","shows":["B60"],"primaryShow":"B60"}},{"type":"Feature","geometry":{"type":"Point","coordinates":[128.340469,36.159199]},"properties":{"id":"kr-baeknyeon-평양아바이순대국밥-193","name":"평양아바이순대국밥","city":"구미시","country":"경북","emoji":"🍲","status":"open","award":"백년가게 · 2000년 창업","note":"2000년 창업 · 2022년 백년가게 선정","shows":["B00"],"primaryShow":"B00"}},{"type":"Feature","geometry":{"type":"Point","coordinates":[126.828941,37.309455]},"properties":{"id":"kr-baeknyeon-마루솥뚜껑와인삼겹살-194","name":"마루솥뚜껑 와인삼겹살","city":"안산시","country":"경기","emoji":"🥩","status":"open","award":"백년가게 · 2001년 창업","note":"2001년 창업 · 2022년 백년가게 선정","shows":["B00"],"primaryShow":"B00"}},{"type":"Feature","geometry":{"type":"Point","coordinates":[126.851044,37.301619]},"properties":{"id":"kr-baeknyeon-궁중삼게탕-195","name":"궁중삼게탕","city":"안산시","country":"경기","emoji":"🍲","status":"open","award":"백년가게 · 2022년 창업","note":"2022년 창업 · 2022년 백년가게 선정","shows":["B00"],"primaryShow":"B00"}},{"type":"Feature","geometry":{"type":"Point","coordinates":[126.965864,37.590542]},"properties":{"id":"kr-baeknyeon-용금옥-196","name":"용금옥","city":"종로구","country":"서울","emoji":"🍽️","status":"open","award":"백년가게 · 1982년 창업","note":"1982년 창업 · 2022년 백년가게 선정","shows":["B80"],"primaryShow":"B80"}},{"type":"Feature","geometry":{"type":"Point","coordinates":[127.952058,37.350628]},"properties":{"id":"kr-baeknyeon-무궁화집-197","name":"무궁화집","city":"원주시","country":"강원","emoji":"🍽️","status":"open","award":"백년가게 · 1982년 창업","note":"1982년 창업 · 2022년 백년가게 선정","shows":["B80"],"primaryShow":"B80"}},{"type":"Feature","geometry":{"type":"Point","coordinates":[129.116733,37.569162]},"properties":{"id":"kr-baeknyeon-동해안횟집-198","name":"동해안횟집","city":"동해시","country":"강원","emoji":"🐟","status":"open","award":"백년가게 · 1998년 창업","note":"1998년 창업 · 2022년 백년가게 선정","shows":["B90"],"primaryShow":"B90"}},{"type":"Feature","geometry":{"type":"Point","coordinates":[129.225754,37.37888]},"properties":{"id":"kr-baeknyeon-동막막국수-199","name":"동막막국수","city":"삼척시","country":"강원","emoji":"🍜","status":"open","award":"백년가게 · 2000년 창업","note":"2000년 창업 · 2022년 백년가게 선정","shows":["B00"],"primaryShow":"B00"}},{"type":"Feature","geometry":{"type":"Point","coordinates":[127.548958,37.403197]},"properties":{"id":"kr-baeknyeon-강계봉진막국수-200","name":"(주)강계봉진막국수","city":"여주시","country":"경기","emoji":"🍜","status":"open","award":"백년가게 · 1981년 창업","note":"1981년 창업 · 2022년 백년가게 선정","shows":["B80"],"primaryShow":"B80"}},{"type":"Feature","geometry":{"type":"Point","coordinates":[128.342781,36.12254]},"properties":{"id":"kr-baeknyeon-김태주선산곱창-201","name":"김태주선산곱창(주)","city":"구미시","country":"경북","emoji":"🥩","status":"open","award":"백년가게 · 1996년 창업","note":"1996년 창업 · 2022년 백년가게 선정","shows":["B90"],"primaryShow":"B90"}},{"type":"Feature","geometry":{"type":"Point","coordinates":[126.254154,33.222134]},"properties":{"id":"kr-baeknyeon-신세계제과점-202","name":"신세계제과점","city":"서귀포시","country":"제주","emoji":"🍞","status":"open","award":"백년가게 · 1984년 창업","note":"1984년 창업 · 2022년 백년가게 선정","shows":["B80"],"primaryShow":"B80"}},{"type":"Feature","geometry":{"type":"Point","coordinates":[127.182919,37.480715]},"properties":{"id":"kr-baeknyeon-용마루-203","name":"용마루","city":"광주시","country":"경기","emoji":"🍽️","status":"open","award":"백년가게 · 1980년 창업","note":"1980년 창업 · 2022년 백년가게 선정","shows":["B80"],"primaryShow":"B80"}},{"type":"Feature","geometry":{"type":"Point","coordinates":[127.50604,36.896863]},"properties":{"id":"kr-baeknyeon-신궁전가든-204","name":"신궁전가든","city":"진천군","country":"충북","emoji":"🍽️","status":"open","award":"백년가게 · 2001년 창업","note":"2001년 창업 · 2022년 백년가게 선정","shows":["B00"],"primaryShow":"B00"}},{"type":"Feature","geometry":{"type":"Point","coordinates":[128.43144,35.42803]},"properties":{"id":"kr-baeknyeon-복주집-205","name":"복주집","city":"창녕군","country":"경남","emoji":"🍽️","status":"open","award":"백년가게 · 1986년 창업","note":"1986년 창업 · 2022년 백년가게 선정","shows":["B80"],"primaryShow":"B80"}},{"type":"Feature","geometry":{"type":"Point","coordinates":[127.245617,36.991956]},"properties":{"id":"kr-baeknyeon-대물림안성장터국밥-206","name":"대물림안성장터국밥","city":"안성시","country":"경기","emoji":"🍲","status":"open","award":"백년가게 · 1995년 창업","note":"1995년 창업 · 2022년 백년가게 선정","shows":["B90"],"primaryShow":"B90"}},{"type":"Feature","geometry":{"type":"Point","coordinates":[127.03412,37.506871]},"properties":{"id":"kr-baeknyeon-베이징덕-207","name":"베이징덕","city":"강남구","country":"서울","emoji":"🍽️","status":"open","award":"백년가게 · 1991년 창업","note":"1991년 창업 · 2022년 백년가게 선정","shows":["B90"],"primaryShow":"B90"}},{"type":"Feature","geometry":{"type":"Point","coordinates":[127.101149,37.518243]},"properties":{"id":"kr-baeknyeon-송가네감자탕-208","name":"송가네 감자탕","city":"송파구","country":"서울","emoji":"🍲","status":"open","award":"백년가게 · 2002년 창업","note":"2002년 창업 · 2022년 백년가게 선정","shows":["B00"],"primaryShow":"B00"}},{"type":"Feature","geometry":{"type":"Point","coordinates":[127.078418,37.557157]},"properties":{"id":"kr-baeknyeon-능동아구탕-209","name":"능동아구탕","city":"광진구","country":"서울","emoji":"🍲","status":"open","award":"백년가게 · 1984년 창업","note":"1984년 창업 · 2022년 백년가게 선정","shows":["B80"],"primaryShow":"B80"}},{"type":"Feature","geometry":{"type":"Point","coordinates":[127.429732,36.335226]},"properties":{"id":"kr-baeknyeon-중국성-210","name":"중국성","city":"동구","country":"대전","emoji":"🍽️","status":"open","award":"백년가게 · 2018년 창업","note":"2018년 창업 · 2022년 백년가게 선정","shows":["B00"],"primaryShow":"B00"}},{"type":"Feature","geometry":{"type":"Point","coordinates":[128.650726,35.763451]},"properties":{"id":"kr-baeknyeon-호성베이커리-211","name":"호성베이커리(호찐빵만두나라)","city":"달성군","country":"대구","emoji":"🥟","status":"open","award":"백년가게 · 1995년 창업","note":"1995년 창업 · 2022년 백년가게 선정","shows":["B90"],"primaryShow":"B90"}},{"type":"Feature","geometry":{"type":"Point","coordinates":[127.52037,34.957525]},"properties":{"id":"kr-baeknyeon-향토정-212","name":"향토정","city":"순천시","country":"전남","emoji":"🍽️","status":"open","award":"백년가게 · 1997년 창업","note":"1997년 창업 · 2022년 백년가게 선정","shows":["B90"],"primaryShow":"B90"}},{"type":"Feature","geometry":{"type":"Point","coordinates":[127.517542,34.933831]},"properties":{"id":"kr-baeknyeon-순천복집-213","name":"순천복집","city":"순천시","country":"전남","emoji":"🍽️","status":"open","award":"백년가게 · 1991년 창업","note":"1991년 창업 · 2022년 백년가게 선정","shows":["B90"],"primaryShow":"B90"}},{"type":"Feature","geometry":{"type":"Point","coordinates":[127.515894,34.933726]},"properties":{"id":"kr-baeknyeon-박구윤회관-214","name":"박구윤회관","city":"순천시","country":"전남","emoji":"🐟","status":"open","award":"백년가게 · 1997년 창업","note":"1997년 창업 · 2022년 백년가게 선정","shows":["B90"],"primaryShow":"B90"}},{"type":"Feature","geometry":{"type":"Point","coordinates":[127.494219,34.945407]},"properties":{"id":"kr-baeknyeon-거목순대국밥-215","name":"거목순대국밥","city":"순천시","country":"전남","emoji":"🍲","status":"open","award":"백년가게 · 2000년 창업","note":"2000년 창업 · 2022년 백년가게 선정","shows":["B00"],"primaryShow":"B00"}},{"type":"Feature","geometry":{"type":"Point","coordinates":[128.4521,36.6547]},"properties":{"id":"kr-baeknyeon-한국관복어집-216","name":"한국관복어집","city":"예천군","country":"경북","emoji":"🍽️","status":"open","award":"백년가게 · 1987년 창업","note":"1987년 창업 · 2022년 백년가게 선정","shows":["B80"],"primaryShow":"B80"}},{"type":"Feature","geometry":{"type":"Point","coordinates":[129.082478,35.218721]},"properties":{"id":"kr-baeknyeon-원조꼬리곰집-217","name":"원조꼬리곰집","city":"동래구","country":"부산","emoji":"🍽️","status":"open","award":"백년가게 · 1982년 창업","note":"1982년 창업 · 2022년 백년가게 선정","shows":["B80"],"primaryShow":"B80"}},{"type":"Feature","geometry":{"type":"Point","coordinates":[126.385713,34.794095]},"properties":{"id":"kr-baeknyeon-관광오리탕목포본점-218","name":"관광오리탕 목포본점","city":"목포시","country":"전남","emoji":"🍗","status":"open","award":"백년가게 · 2001년 창업","note":"2001년 창업 · 2022년 백년가게 선정","shows":["B00"],"primaryShow":"B00"}},{"type":"Feature","geometry":{"type":"Point","coordinates":[127.562945,36.356714]},"properties":{"id":"kr-baeknyeon-새강변식당-219","name":"새강변식당","city":"옥천군","country":"충북","emoji":"🍽️","status":"open","award":"백년가게 · 1989년 창업","note":"1989년 창업 · 2022년 백년가게 선정","shows":["B80"],"primaryShow":"B80"}},{"type":"Feature","geometry":{"type":"Point","coordinates":[127.0725,37.894923]},"properties":{"id":"kr-baeknyeon-라르고-220","name":"라르고","city":"동두천시","country":"경기","emoji":"🍽️","status":"open","award":"백년가게 · 1997년 창업","note":"1997년 창업 · 2022년 백년가게 선정","shows":["B90"],"primaryShow":"B90"}},{"type":"Feature","geometry":{"type":"Point","coordinates":[126.710657,35.729093]},"properties":{"id":"kr-baeknyeon-계화회관-221","name":"계화회관","city":"부안군","country":"전북","emoji":"🐟","status":"open","award":"백년가게 · 1980년 창업","note":"1980년 창업 · 2022년 백년가게 선정","shows":["B80"],"primaryShow":"B80"}},{"type":"Feature","geometry":{"type":"Point","coordinates":[128.32263,36.100748]},"properties":{"id":"kr-baeknyeon-금오산길-222","name":"금오산길","city":"구미시","country":"경북","emoji":"🍽️","status":"open","award":"백년가게 · 1976년 창업","note":"1976년 창업 · 2022년 백년가게 선정","shows":["B70"],"primaryShow":"B70"}},{"type":"Feature","geometry":{"type":"Point","coordinates":[126.97312,35.05945]},"properties":{"id":"kr-baeknyeon-한양팥죽-223","name":"한양팥죽","city":"화순군","country":"전남","emoji":"🍲","status":"open","award":"백년가게 · 1991년 창업","note":"1991년 창업 · 2022년 백년가게 선정","shows":["B90"],"primaryShow":"B90"}},{"type":"Feature","geometry":{"type":"Point","coordinates":[126.928089,37.48396]},"properties":{"id":"kr-baeknyeon-오첨지-224","name":"오첨지","city":"관악구","country":"서울","emoji":"🍽️","status":"open","award":"백년가게 · 2022년 창업","note":"2022년 창업 · 2022년 백년가게 선정","shows":["B00"],"primaryShow":"B00"}},{"type":"Feature","geometry":{"type":"Point","coordinates":[127.075478,37.250876]},"properties":{"id":"kr-baeknyeon-두꺼비집-225","name":"두꺼비집","city":"수원시","country":"경기","emoji":"🍽️","status":"open","award":"백년가게 · 1981년 창업","note":"1981년 창업 · 2022년 백년가게 선정","shows":["B80"],"primaryShow":"B80"}},{"type":"Feature","geometry":{"type":"Point","coordinates":[128.567357,35.196974]},"properties":{"id":"kr-baeknyeon-마산족발-226","name":"마산족발","city":"창원시","country":"경남","emoji":"🍖","status":"open","award":"백년가게 · 1981년 창업","note":"1981년 창업 · 2022년 백년가게 선정","shows":["B80"],"primaryShow":"B80"}},{"type":"Feature","geometry":{"type":"Point","coordinates":[128.564847,35.205197]},"properties":{"id":"kr-baeknyeon-대가-227","name":"대가","city":"창원시","country":"경남","emoji":"🍽️","status":"open","award":"백년가게 · 1991년 창업","note":"1991년 창업 · 2022년 백년가게 선정","shows":["B90"],"primaryShow":"B90"}},{"type":"Feature","geometry":{"type":"Point","coordinates":[129.178753,36.35109]},"properties":{"id":"kr-baeknyeon-주왕산가든-228","name":"주왕산가든","city":"청송군","country":"경북","emoji":"🍽️","status":"open","award":"백년가게 · 1989년 창업","note":"1989년 창업 · 2022년 백년가게 선정","shows":["B80"],"primaryShow":"B80"}},{"type":"Feature","geometry":{"type":"Point","coordinates":[127.395454,36.319298]},"properties":{"id":"kr-baeknyeon-대들보함흥면옥-229","name":"대들보함흥면옥","city":"중구","country":"대전","emoji":"🍜","status":"open","award":"백년가게 · 1988년 창업","note":"1988년 창업 · 2022년 백년가게 선정","shows":["B80"],"primaryShow":"B80"}},{"type":"Feature","geometry":{"type":"Point","coordinates":[127.049214,37.273775]},"properties":{"id":"kr-baeknyeon-신라갈비-230","name":"신라갈비","city":"수원시","country":"경기","emoji":"🥩","status":"open","award":"백년가게 · 1986년 창업","note":"1986년 창업 · 2022년 백년가게 선정","shows":["B80"],"primaryShow":"B80"}},{"type":"Feature","geometry":{"type":"Point","coordinates":[128.641777,38.060024]},"properties":{"id":"kr-baeknyeon-문어랑새우횟집-231","name":"문어랑새우횟집","city":"양양군","country":"강원","emoji":"🐟","status":"open","award":"백년가게 · 1991년 창업","note":"1991년 창업 · 2022년 백년가게 선정","shows":["B90"],"primaryShow":"B90"}},{"type":"Feature","geometry":{"type":"Point","coordinates":[127.698402,37.845035]},"properties":{"id":"kr-baeknyeon-라모스-232","name":"라모스","city":"춘천시","country":"강원","emoji":"🍽️","status":"open","award":"백년가게 · 1973년 창업","note":"1973년 창업 · 2022년 백년가게 선정","shows":["B70"],"primaryShow":"B70"}},{"type":"Feature","geometry":{"type":"Point","coordinates":[128.836916,37.860055]},"properties":{"id":"kr-baeknyeon-보헤미안커피점-233","name":"보헤미안커피점","city":"강릉시","country":"강원","emoji":"☕","status":"open","award":"백년가게 · 2000년 창업","note":"2000년 창업 · 2022년 백년가게 선정","shows":["B00"],"primaryShow":"B00"}},{"type":"Feature","geometry":{"type":"Point","coordinates":[127.729764,37.881057]},"properties":{"id":"kr-baeknyeon-이디오피아집-234","name":"이디오피아집(벳)","city":"춘천시","country":"강원","emoji":"🍽️","status":"open","award":"백년가게 · 1976년 창업","note":"1976년 창업 · 2022년 백년가게 선정","shows":["B70"],"primaryShow":"B70"}},{"type":"Feature","geometry":{"type":"Point","coordinates":[126.904843,35.172376]},"properties":{"id":"kr-baeknyeon-백련옥-235","name":"백련옥","city":"북구","country":"광주","emoji":"🍽️","status":"open","award":"백년가게 · 1985년 창업","note":"1985년 창업 · 2022년 백년가게 선정","shows":["B80"],"primaryShow":"B80"}},{"type":"Feature","geometry":{"type":"Point","coordinates":[126.926491,35.150923]},"properties":{"id":"kr-baeknyeon-황토길-236","name":"황토길","city":"동구","country":"광주","emoji":"🍽️","status":"open","award":"백년가게 · 1992년 창업","note":"1992년 창업 · 2022년 백년가게 선정","shows":["B90"],"primaryShow":"B90"}},{"type":"Feature","geometry":{"type":"Point","coordinates":[126.990201,35.061017]},"properties":{"id":"kr-baeknyeon-태능숯불갈비-237","name":"태능숯불갈비","city":"화순군","country":"전남","emoji":"🥩","status":"open","award":"백년가게 · 1995년 창업","note":"1995년 창업 · 2022년 백년가게 선정","shows":["B90"],"primaryShow":"B90"}},{"type":"Feature","geometry":{"type":"Point","coordinates":[129.110339,35.143716]},"properties":{"id":"kr-baeknyeon-남천낙지-238","name":"남천낙지","city":"수영구","country":"부산","emoji":"🐟","status":"open","award":"백년가게 · 1987년 창업","note":"1987년 창업 · 2022년 백년가게 선정","shows":["B80"],"primaryShow":"B80"}},{"type":"Feature","geometry":{"type":"Point","coordinates":[126.429,37.533]},"properties":{"id":"kr-baeknyeon-하늘가든-239","name":"하늘가든","city":"옹진군","country":"인천","emoji":"🍽️","status":"open","award":"백년가게 · 1996년 창업","note":"1996년 창업 · 2021년 백년가게 선정","shows":["B90"],"primaryShow":"B90"}},{"type":"Feature","geometry":{"type":"Point","coordinates":[127.29771,37.56882]},"properties":{"id":"kr-baeknyeon-왈츠와닥터만-240","name":"왈츠와닥터만","city":"남양주시","country":"경기","emoji":"🍽️","status":"open","award":"백년가게 · 1986년 창업","note":"1986년 창업 · 2021년 백년가게 선정","shows":["B80"],"primaryShow":"B80"}},{"type":"Feature","geometry":{"type":"Point","coordinates":[126.991455,37.428993]},"properties":{"id":"kr-baeknyeon-통나무집-241","name":"통나무집","city":"과천시","country":"경기","emoji":"🍽️","status":"open","award":"백년가게 · 1990년 창업","note":"1990년 창업 · 2021년 백년가게 선정","shows":["B90"],"primaryShow":"B90"}},{"type":"Feature","geometry":{"type":"Point","coordinates":[126.989974,37.565769]},"properties":{"id":"kr-baeknyeon-풍남-242","name":"풍남","city":"중구","country":"서울","emoji":"🍽️","status":"open","award":"백년가게 · 1984년 창업","note":"1984년 창업 · 2021년 백년가게 선정","shows":["B80"],"primaryShow":"B80"}},{"type":"Feature","geometry":{"type":"Point","coordinates":[126.985897,37.571973]},"properties":{"id":"kr-baeknyeon-종가집-243","name":"종가집","city":"종로구","country":"서울","emoji":"🍽️","status":"open","award":"백년가게 · 1996년 창업","note":"1996년 창업 · 2021년 백년가게 선정","shows":["B90"],"primaryShow":"B90"}},{"type":"Feature","geometry":{"type":"Point","coordinates":[126.987624,37.571724]},"properties":{"id":"kr-baeknyeon-낙원아구찜-244","name":"낙원아구찜","city":"종로구","country":"서울","emoji":"🐟","status":"open","award":"백년가게 · 1977년 창업","note":"1977년 창업 · 2021년 백년가게 선정","shows":["B70"],"primaryShow":"B70"}},{"type":"Feature","geometry":{"type":"Point","coordinates":[126.894795,37.519066]},"properties":{"id":"kr-baeknyeon-송죽장-245","name":"송죽장","city":"영등포구","country":"서울","emoji":"🍲","status":"open","award":"백년가게 · 1999년 창업","note":"1999년 창업 · 2021년 백년가게 선정","shows":["B90"],"primaryShow":"B90"}},{"type":"Feature","geometry":{"type":"Point","coordinates":[126.926517,37.521667]},"properties":{"id":"kr-baeknyeon-고려정-246","name":"고려정","city":"영등포구","country":"서울","emoji":"🍽️","status":"open","award":"백년가게 · 1988년 창업","note":"1988년 창업 · 2021년 백년가게 선정","shows":["B80"],"primaryShow":"B80"}},{"type":"Feature","geometry":{"type":"Point","coordinates":[126.93584,37.485438]},"properties":{"id":"kr-baeknyeon-프랑세즈과자점-247","name":"프랑세즈과자점","city":"금천구","country":"서울","emoji":"🍽️","status":"open","award":"백년가게 · 1991년 창업","note":"1991년 창업 · 2021년 백년가게 선정","shows":["B90"],"primaryShow":"B90"}},{"type":"Feature","geometry":{"type":"Point","coordinates":[126.897156,37.455304]},"properties":{"id":"kr-baeknyeon-동흥관-248","name":"동흥관","city":"금천구","country":"서울","emoji":"🍽️","status":"open","award":"백년가게 · 1992년 창업","note":"1992년 창업 · 2021년 백년가게 선정","shows":["B90"],"primaryShow":"B90"}},{"type":"Feature","geometry":{"type":"Point","coordinates":[127.088163,37.556283]},"properties":{"id":"kr-baeknyeon-장군갈비-249","name":"장군갈비","city":"광진구","country":"서울","emoji":"🥩","status":"open","award":"백년가게 · 1980년 창업","note":"1980년 창업 · 2021년 백년가게 선정","shows":["B80"],"primaryShow":"B80"}},{"type":"Feature","geometry":{"type":"Point","coordinates":[126.816516,37.559068]},"properties":{"id":"kr-baeknyeon-신촌기사식당-250","name":"신촌기사식당","city":"강서구","country":"서울","emoji":"🍽️","status":"open","award":"백년가게 · 1993년 창업","note":"1993년 창업 · 2021년 백년가게 선정","shows":["B90"],"primaryShow":"B90"}},{"type":"Feature","geometry":{"type":"Point","coordinates":[127.049223,37.519648]},"properties":{"id":"kr-baeknyeon-진성식당-251","name":"진성식당","city":"강남구","country":"서울","emoji":"🍽️","status":"open","award":"백년가게 · 1989년 창업","note":"1989년 창업 · 2021년 백년가게 선정","shows":["B80"],"primaryShow":"B80"}},{"type":"Feature","geometry":{"type":"Point","coordinates":[127.032444,37.524986]},"properties":{"id":"kr-baeknyeon-삼원가든-252","name":"㈜삼원가든","city":"강남구","country":"서울","emoji":"🍽️","status":"open","award":"백년가게 · 1981년 창업","note":"1981년 창업 · 2021년 백년가게 선정","shows":["B80"],"primaryShow":"B80"}},{"type":"Feature","geometry":{"type":"Point","coordinates":[127.698402,37.845035]},"properties":{"id":"kr-baeknyeon-춘천명물닭갈비-253","name":"춘천명물닭갈비","city":"춘천시","country":"강원","emoji":"🍗","status":"open","award":"백년가게 · 1990년 창업","note":"1990년 창업 · 2021년 백년가게 선정","shows":["B90"],"primaryShow":"B90"}},{"type":"Feature","geometry":{"type":"Point","coordinates":[128.169982,38.067939]},"properties":{"id":"kr-baeknyeon-일미장-254","name":"일미장","city":"인제군","country":"강원","emoji":"🍽️","status":"open","award":"백년가게 · 1972년 창업","note":"1972년 창업 · 2021년 백년가게 선정","shows":["B70"],"primaryShow":"B70"}},{"type":"Feature","geometry":{"type":"Point","coordinates":[129.116733,37.569162]},"properties":{"id":"kr-baeknyeon-황해횟집-255","name":"황해횟집","city":"동해시","country":"강원","emoji":"🐟","status":"open","award":"백년가게 · 1985년 창업","note":"1985년 창업 · 2021년 백년가게 선정","shows":["B80"],"primaryShow":"B80"}},{"type":"Feature","geometry":{"type":"Point","coordinates":[129.030574,35.099833]},"properties":{"id":"kr-baeknyeon-삼송-256","name":"삼송","city":"중구","country":"부산","emoji":"🍽️","status":"open","award":"백년가게 · 1985년 창업","note":"1985년 창업 · 2021년 백년가게 선정","shows":["B80"],"primaryShow":"B80"}},{"type":"Feature","geometry":{"type":"Point","coordinates":[129.130946,35.161052]},"properties":{"id":"kr-baeknyeon-워터스톤-257","name":"㈜워터스톤","city":"수영구","country":"부산","emoji":"🍽️","status":"open","award":"백년가게 · 1980년 창업","note":"1980년 창업 · 2021년 백년가게 선정","shows":["B80"],"primaryShow":"B80"}},{"type":"Feature","geometry":{"type":"Point","coordinates":[127.421172,36.32541]},"properties":{"id":"kr-baeknyeon-진로집-258","name":"진로집","city":"중구","country":"대전","emoji":"🍽️","status":"open","award":"백년가게 · 1983년 창업","note":"1983년 창업 · 2021년 백년가게 선정","shows":["B80"],"primaryShow":"B80"}},{"type":"Feature","geometry":{"type":"Point","coordinates":[128.616814,35.847289]},"properties":{"id":"kr-baeknyeon-용지봉-259","name":"용지봉","city":"수성구","country":"대구","emoji":"🍽️","status":"open","award":"백년가게 · 1990년 창업","note":"1990년 창업 · 2021년 백년가게 선정","shows":["B90"],"primaryShow":"B90"}},{"type":"Feature","geometry":{"type":"Point","coordinates":[128.628566,35.864631]},"properties":{"id":"kr-baeknyeon-상락식당-260","name":"상락식당","city":"수성구","country":"대구","emoji":"🍽️","status":"open","award":"백년가게 · 1994년 창업","note":"1994년 창업 · 2021년 백년가게 선정","shows":["B90"],"primaryShow":"B90"}},{"type":"Feature","geometry":{"type":"Point","coordinates":[128.611297,35.855866]},"properties":{"id":"kr-baeknyeon-브레드바바-261","name":"브레드바바","city":"수성구","country":"대구","emoji":"🍽️","status":"open","award":"백년가게 · 2001년 창업","note":"2001년 창업 · 2021년 백년가게 선정","shows":["B00"],"primaryShow":"B00"}},{"type":"Feature","geometry":{"type":"Point","coordinates":[128.61606,35.857264]},"properties":{"id":"kr-baeknyeon-본전식당-262","name":"본전식당","city":"수성구","country":"대구","emoji":"🍽️","status":"open","award":"백년가게 · 1996년 창업","note":"1996년 창업 · 2021년 백년가게 선정","shows":["B90"],"primaryShow":"B90"}},{"type":"Feature","geometry":{"type":"Point","coordinates":[128.617787,35.830538]},"properties":{"id":"kr-baeknyeon-녹양구이-263","name":"녹양구이","city":"수성구","country":"대구","emoji":"🥩","status":"open","award":"백년가게 · 1978년 창업","note":"1978년 창업 · 2021년 백년가게 선정","shows":["B70"],"primaryShow":"B70"}},{"type":"Feature","geometry":{"type":"Point","coordinates":[128.488796,35.766215]},"properties":{"id":"kr-baeknyeon-김태희손국수식당-264","name":"김태희손국수식당","city":"달성군","country":"대구","emoji":"🍜","status":"open","award":"백년가게 · 1999년 창업","note":"1999년 창업 · 2021년 백년가게 선정","shows":["B90"],"primaryShow":"B90"}},{"type":"Feature","geometry":{"type":"Point","coordinates":[128.465048,35.844548]},"properties":{"id":"kr-baeknyeon-경산식당-265","name":"경산식당","city":"달성군","country":"대구","emoji":"🍽️","status":"open","award":"백년가게 · 1988년 창업","note":"1988년 창업 · 2021년 백년가게 선정","shows":["B80"],"primaryShow":"B80"}},{"type":"Feature","geometry":{"type":"Point","coordinates":[128.634128,35.789904]},"properties":{"id":"kr-baeknyeon-강원도집-266","name":"강원도집","city":"달성군","country":"대구","emoji":"🍽️","status":"open","award":"백년가게 · 2001년 창업","note":"2001년 창업 · 2021년 백년가게 선정","shows":["B00"],"primaryShow":"B00"}},{"type":"Feature","geometry":{"type":"Point","coordinates":[128.512738,35.858985]},"properties":{"id":"kr-baeknyeon-레이몬드베이커리-267","name":"레이몬드베이커리","city":"달서구","country":"대구","emoji":"🍛","status":"open","award":"백년가게 · 2000년 창업","note":"2000년 창업 · 2021년 백년가게 선정","shows":["B00"],"primaryShow":"B00"}},{"type":"Feature","geometry":{"type":"Point","coordinates":[128.578562,35.840918]},"properties":{"id":"kr-baeknyeon-정우식당-268","name":"정우식당","city":"남구","country":"대구","emoji":"🍽️","status":"open","award":"백년가게 · 1990년 창업","note":"1990년 창업 · 2021년 백년가게 선정","shows":["B90"],"primaryShow":"B90"}},{"type":"Feature","geometry":{"type":"Point","coordinates":[128.572367,35.830517]},"properties":{"id":"kr-baeknyeon-대덕식당-269","name":"대덕식당","city":"남구","country":"대구","emoji":"🍽️","status":"open","award":"백년가게 · 1979년 창업","note":"1979년 창업 · 2021년 백년가게 선정","shows":["B70"],"primaryShow":"B70"}},{"type":"Feature","geometry":{"type":"Point","coordinates":[129.369166,36.041599]},"properties":{"id":"kr-baeknyeon-포항특미물회식당-270","name":"포항특미물회식당","city":"포항시","country":"경북","emoji":"🐟","status":"open","award":"백년가게 · 1991년 창업","note":"1991년 창업 · 2021년 백년가게 선정","shows":["B90"],"primaryShow":"B90"}},{"type":"Feature","geometry":{"type":"Point","coordinates":[129.365847,36.03597]},"properties":{"id":"kr-baeknyeon-장기식당-271","name":"장기식당","city":"포항시","country":"경북","emoji":"🍽️","status":"open","award":"백년가게 · 1990년 창업","note":"1990년 창업 · 2021년 백년가게 선정","shows":["B90"],"primaryShow":"B90"}},{"type":"Feature","geometry":{"type":"Point","coordinates":[129.364924,36.038386]},"properties":{"id":"kr-baeknyeon-길성관-272","name":"길성관","city":"포항시","country":"경북","emoji":"🍽️","status":"open","award":"백년가게 · 1994년 창업","note":"1994년 창업 · 2021년 백년가게 선정","shows":["B90"],"primaryShow":"B90"}},{"type":"Feature","geometry":{"type":"Point","coordinates":[128.452082,36.100582]},"properties":{"id":"kr-baeknyeon-천생산오리사냥-273","name":"천생산오리사냥","city":"구미시","country":"경북","emoji":"🍗","status":"open","award":"백년가게 · 1986년 창업","note":"1986년 창업 · 2021년 백년가게 선정","shows":["B80"],"primaryShow":"B80"}},{"type":"Feature","geometry":{"type":"Point","coordinates":[128.17442,36.21439]},"properties":{"id":"kr-baeknyeon-배신식당-274","name":"배신식당","city":"김천시","country":"경북","emoji":"🍽️","status":"open","award":"백년가게 · 1988년 창업","note":"1988년 창업 · 2021년 백년가게 선정","shows":["B80"],"primaryShow":"B80"}},{"type":"Feature","geometry":{"type":"Point","coordinates":[128.32341,36.121526]},"properties":{"id":"kr-baeknyeon-궁원-275","name":"궁원(비원)","city":"구미시","country":"경북","emoji":"🍽️","status":"open","award":"백년가게 · 1999년 창업","note":"1999년 창업 · 2021년 백년가게 선정","shows":["B90"],"primaryShow":"B90"}},{"type":"Feature","geometry":{"type":"Point","coordinates":[129.206401,35.842222]},"properties":{"id":"kr-baeknyeon-충효닭집-276","name":"충효닭집","city":"경주시","country":"경북","emoji":"🍗","status":"open","award":"백년가게 · 1988년 창업","note":"1988년 창업 · 2021년 백년가게 선정","shows":["B80"],"primaryShow":"B80"}},{"type":"Feature","geometry":{"type":"Point","coordinates":[126.854512,35.579024]},"properties":{"id":"kr-baeknyeon-레스토랑마리서사본점-277","name":"레스토랑마리서사본점","city":"정읍시","country":"전북","emoji":"🍽️","status":"open","award":"백년가게 · 1997년 창업","note":"1997년 창업 · 2021년 백년가게 선정","shows":["B90"],"primaryShow":"B90"}},{"type":"Feature","geometry":{"type":"Point","coordinates":[127.146808,35.819977]},"properties":{"id":"kr-baeknyeon-피엔비-278","name":"피엔비 (PNB)","city":"전주시","country":"전북","emoji":"🍽️","status":"open","award":"백년가게 · 1974년 창업","note":"1974년 창업 · 2021년 백년가게 선정","shows":["B70"],"primaryShow":"B70"}},{"type":"Feature","geometry":{"type":"Point","coordinates":[127.134006,35.838457]},"properties":{"id":"kr-baeknyeon-무궁화한정식-279","name":"무궁화한정식","city":"전주시","country":"전북","emoji":"🍚","status":"open","award":"백년가게 · 1991년 창업","note":"1991년 창업 · 2021년 백년가게 선정","shows":["B90"],"primaryShow":"B90"}},{"type":"Feature","geometry":{"type":"Point","coordinates":[126.981768,35.96176]},"properties":{"id":"kr-baeknyeon-배불뚝집본점-280","name":"배불뚝집 본점","city":"익산시","country":"전북","emoji":"🍽️","status":"open","award":"백년가게 · 1992년 창업","note":"1992년 창업 · 2021년 백년가게 선정","shows":["B90"],"primaryShow":"B90"}},{"type":"Feature","geometry":{"type":"Point","coordinates":[127.33979,34.84372]},"properties":{"id":"kr-baeknyeon-소문난곱창-281","name":"소문난곱창","city":"보성군","country":"전남","emoji":"🥩","status":"open","award":"백년가게 · 1993년 창업","note":"1993년 창업 · 2021년 백년가게 선정","shows":["B90"],"primaryShow":"B90"}},{"type":"Feature","geometry":{"type":"Point","coordinates":[127.32637,34.49263]},"properties":{"id":"kr-baeknyeon-하얀마을제과점-282","name":"하얀마을 제과점","city":"고흥군","country":"전남","emoji":"🍞","status":"open","award":"백년가게 · 1999년 창업","note":"1999년 창업 · 2021년 백년가게 선정","shows":["B90"],"primaryShow":"B90"}},{"type":"Feature","geometry":{"type":"Point","coordinates":[127.506501,34.94318]},"properties":{"id":"kr-baeknyeon-유한회사제이베이커스-283","name":"유한회사 제이베이커스","city":"순천시","country":"전남","emoji":"🐟","status":"open","award":"백년가게 · 1995년 창업","note":"1995년 창업 · 2021년 백년가게 선정","shows":["B90"],"primaryShow":"B90"}},{"type":"Feature","geometry":{"type":"Point","coordinates":[127.993153,36.911587]},"properties":{"id":"kr-baeknyeon-자연가든-284","name":"자연가든","city":"충주시","country":"충북","emoji":"🍽️","status":"open","award":"백년가게 · 1982년 창업","note":"1982년 창업 · 2021년 백년가게 선정","shows":["B80"],"primaryShow":"B80"}},{"type":"Feature","geometry":{"type":"Point","coordinates":[127.942096,36.995623]},"properties":{"id":"kr-baeknyeon-옹기장터-285","name":"옹기장터","city":"충주시","country":"충북","emoji":"🍽️","status":"open","award":"백년가게 · 1999년 창업","note":"1999년 창업 · 2021년 백년가게 선정","shows":["B90"],"primaryShow":"B90"}},{"type":"Feature","geometry":{"type":"Point","coordinates":[127.485331,36.635585]},"properties":{"id":"kr-baeknyeon-서문우동-286","name":"서문우동","city":"청주시","country":"충북","emoji":"🍜","status":"open","award":"백년가게 · 1979년 창업","note":"1979년 창업 · 2021년 백년가게 선정","shows":["B70"],"primaryShow":"B70"}},{"type":"Feature","geometry":{"type":"Point","coordinates":[127.44143,36.854803]},"properties":{"id":"kr-baeknyeon-느티나무집-287","name":"느티나무집","city":"진천군","country":"충북","emoji":"🍽️","status":"open","award":"백년가게 · 1991년 창업","note":"1991년 창업 · 2021년 백년가게 선정","shows":["B90"],"primaryShow":"B90"}},{"type":"Feature","geometry":{"type":"Point","coordinates":[128.17987,37.06555]},"properties":{"id":"kr-baeknyeon-청풍황금송어-288","name":"청풍황금송어","city":"제천시","country":"충북","emoji":"🍽️","status":"open","award":"백년가게 · 1994년 창업","note":"1994년 창업 · 2021년 백년가게 선정","shows":["B90"],"primaryShow":"B90"}},{"type":"Feature","geometry":{"type":"Point","coordinates":[128.212991,37.138214]},"properties":{"id":"kr-baeknyeon-덩실분식-289","name":"덩실분식","city":"제천시","country":"충북","emoji":"🍢","status":"open","award":"백년가게 · 1996년 창업","note":"1996년 창업 · 2021년 백년가게 선정","shows":["B90"],"primaryShow":"B90"}},{"type":"Feature","geometry":{"type":"Point","coordinates":[127.574777,36.307009]},"properties":{"id":"kr-baeknyeon-문정식당-290","name":"문정식당","city":"옥천군","country":"충북","emoji":"🍚","status":"open","award":"백년가게 · 1979년 창업","note":"1979년 창업 · 2021년 백년가게 선정","shows":["B70"],"primaryShow":"B70"}},{"type":"Feature","geometry":{"type":"Point","coordinates":[127.829291,36.523828]},"properties":{"id":"kr-baeknyeon-경희식당-291","name":"경희식당","city":"보은군","country":"충북","emoji":"🍽️","status":"open","award":"백년가게 · 1989년 창업","note":"1989년 창업 · 2021년 백년가게 선정","shows":["B80"],"primaryShow":"B80"}},{"type":"Feature","geometry":{"type":"Point","coordinates":[126.858196,36.447654]},"properties":{"id":"kr-baeknyeon-칠갑산골-292","name":"칠갑산골","city":"청양군","country":"충남","emoji":"🍽️","status":"open","award":"백년가게 · 1985년 창업","note":"1985년 창업 · 2021년 백년가게 선정","shows":["B80"],"primaryShow":"B80"}},{"type":"Feature","geometry":{"type":"Point","coordinates":[127.147848,36.808978]},"properties":{"id":"kr-baeknyeon-학화호도과자-293","name":"학화호도과자","city":"천안시","country":"충남","emoji":"🍽️","status":"open","award":"백년가게 · 1975년 창업","note":"1975년 창업 · 2021년 백년가게 선정","shows":["B70"],"primaryShow":"B70"}},{"type":"Feature","geometry":{"type":"Point","coordinates":[127.31095,36.78274]},"properties":{"id":"kr-baeknyeon-청화집순대-294","name":"청화집순대","city":"천안시","country":"충남","emoji":"🍢","status":"open","award":"백년가게 · 1968년 창업","note":"1968년 창업 · 2021년 백년가게 선정","shows":["B60"],"primaryShow":"B60"}},{"type":"Feature","geometry":{"type":"Point","coordinates":[127.150551,36.801983]},"properties":{"id":"kr-baeknyeon-원조옥수사-295","name":"원조옥수사","city":"천안시","country":"충남","emoji":"🍽️","status":"open","award":"백년가게 · 1986년 창업","note":"1986년 창업 · 2021년 백년가게 선정","shows":["B80"],"primaryShow":"B80"}},{"type":"Feature","geometry":{"type":"Point","coordinates":[126.98671,36.785377]},"properties":{"id":"kr-baeknyeon-홍콩반점-296","name":"홍콩반점","city":"아산시","country":"충남","emoji":"🍽️","status":"open","award":"백년가게 · 1989년 창업","note":"1989년 창업 · 2021년 백년가게 선정","shows":["B80"],"primaryShow":"B80"}},{"type":"Feature","geometry":{"type":"Point","coordinates":[126.641334,36.901481]},"properties":{"id":"kr-baeknyeon-독일베이커리-297","name":"독일베이커리","city":"당진시","country":"충남","emoji":"🍛","status":"open","award":"백년가게 · 1999년 창업","note":"1999년 창업 · 2021년 백년가게 선정","shows":["B90"],"primaryShow":"B90"}},{"type":"Feature","geometry":{"type":"Point","coordinates":[127.492391,36.206536]},"properties":{"id":"kr-baeknyeon-옛날고도리추어탕-298","name":"옛날고도리추어탕","city":"금산군","country":"충남","emoji":"🍲","status":"open","award":"백년가게 · 1993년 창업","note":"1993년 창업 · 2021년 백년가게 선정","shows":["B90"],"primaryShow":"B90"}},{"type":"Feature","geometry":{"type":"Point","coordinates":[127.552818,36.131058]},"properties":{"id":"kr-baeknyeon-남촌가든-299","name":"남촌가든","city":"금산군","country":"충남","emoji":"🍽️","status":"open","award":"백년가게 · 1981년 창업","note":"1981년 창업 · 2021년 백년가게 선정","shows":["B80"],"primaryShow":"B80"}},{"type":"Feature","geometry":{"type":"Point","coordinates":[126.806728,36.453189]},"properties":{"id":"kr-baeknyeon-별장가든-300","name":"별장가든","city":"청양군","country":"충남","emoji":"🍽️","status":"open","award":"백년가게 · 1992년 창업","note":"1992년 창업 · 2021년 백년가게 선정","shows":["B90"],"primaryShow":"B90"}},{"type":"Feature","geometry":{"type":"Point","coordinates":[127.032446,36.535989]},"properties":{"id":"kr-baeknyeon-귀빈식당-301","name":"귀빈식당","city":"공주시","country":"충남","emoji":"🍽️","status":"open","award":"백년가게 · 1984년 창업","note":"1984년 창업 · 2021년 백년가게 선정","shows":["B80"],"primaryShow":"B80"}},{"type":"Feature","geometry":{"type":"Point","coordinates":[126.307631,33.228346]},"properties":{"id":"kr-baeknyeon-진미명가식당-302","name":"진미명가식당","city":"서귀포시","country":"제주","emoji":"🍽️","status":"open","award":"백년가게 · 1983년 창업","note":"1983년 창업 · 2021년 백년가게 선정","shows":["B80"],"primaryShow":"B80"}},{"type":"Feature","geometry":{"type":"Point","coordinates":[127.14362,35.824061]},"properties":{"id":"kr-baeknyeon-그때산집-303","name":"그때산집","city":"전주시","country":"전북","emoji":"🍽️","status":"open","award":"백년가게 · 1991년 창업","note":"1991년 창업 · 2021년 백년가게 선정","shows":["B90"],"primaryShow":"B90"}},{"type":"Feature","geometry":{"type":"Point","coordinates":[127.039265,36.006588]},"properties":{"id":"kr-baeknyeon-물머리집-304","name":"물머리집","city":"익산시","country":"전북","emoji":"🍽️","status":"open","award":"백년가게 · 1994년 창업","note":"1994년 창업 · 2021년 백년가게 선정","shows":["B90"],"primaryShow":"B90"}},{"type":"Feature","geometry":{"type":"Point","coordinates":[126.996473,36.047646]},"properties":{"id":"kr-baeknyeon-모성-305","name":"모성","city":"익산시","country":"전북","emoji":"🍽️","status":"open","award":"백년가게 · 1993년 창업","note":"1993년 창업 · 2021년 백년가게 선정","shows":["B90"],"primaryShow":"B90"}},{"type":"Feature","geometry":{"type":"Point","coordinates":[127.394607,35.412515]},"properties":{"id":"kr-baeknyeon-추어향-306","name":"추어향","city":"남원시","country":"전북","emoji":"🍽️","status":"open","award":"백년가게 · 1994년 창업","note":"1994년 창업 · 2021년 백년가게 선정","shows":["B90"],"primaryShow":"B90"}},{"type":"Feature","geometry":{"type":"Point","coordinates":[127.392965,35.415156]},"properties":{"id":"kr-baeknyeon-인산인해-307","name":"인산인해","city":"남원시","country":"전북","emoji":"🍽️","status":"open","award":"백년가게 · 2000년 창업","note":"2000년 창업 · 2021년 백년가게 선정","shows":["B00"],"primaryShow":"B00"}},{"type":"Feature","geometry":{"type":"Point","coordinates":[126.709509,35.98075]},"properties":{"id":"kr-baeknyeon-빵굽는오남매-308","name":"빵굽는오남매","city":"군산시","country":"전북","emoji":"🍞","status":"open","award":"백년가게 · 2000년 창업","note":"2000년 창업 · 2021년 백년가게 선정","shows":["B00"],"primaryShow":"B00"}},{"type":"Feature","geometry":{"type":"Point","coordinates":[126.714202,35.986333]},"properties":{"id":"kr-baeknyeon-빈해원-309","name":"빈해원","city":"군산시","country":"전북","emoji":"🍽️","status":"open","award":"백년가게 · 1991년 창업","note":"1991년 창업 · 2021년 백년가게 선정","shows":["B90"],"primaryShow":"B90"}},{"type":"Feature","geometry":{"type":"Point","coordinates":[126.62207,35.45065]},"properties":{"id":"kr-baeknyeon-인천장가든-310","name":"인천장가든","city":"고창군","country":"전북","emoji":"🍽️","status":"open","award":"백년가게 · 1996년 창업","note":"1996년 창업 · 2021년 백년가게 선정","shows":["B90"],"primaryShow":"B90"}},{"type":"Feature","geometry":{"type":"Point","coordinates":[127.632994,34.797788]},"properties":{"id":"kr-baeknyeon-덕양은혜곱창-311","name":"덕양 은혜 곱창","city":"여수시","country":"전남","emoji":"🥩","status":"open","award":"백년가게 · 1995년 창업","note":"1995년 창업 · 2021년 백년가게 선정","shows":["B90"],"primaryShow":"B90"}},{"type":"Feature","geometry":{"type":"Point","coordinates":[127.473467,34.920881]},"properties":{"id":"kr-baeknyeon-미주농원-312","name":"미주농원","city":"순천시","country":"전남","emoji":"🍽️","status":"open","award":"백년가게 · 1999년 창업","note":"1999년 창업 · 2021년 백년가게 선정","shows":["B90"],"primaryShow":"B90"}},{"type":"Feature","geometry":{"type":"Point","coordinates":[126.635524,37.472496]},"properties":{"id":"kr-baeknyeon-인현통닭삼계탕-313","name":"인현통닭삼계탕","city":"중구","country":"인천","emoji":"🍗","status":"open","award":"백년가게 · 1978년 창업","note":"1978년 창업 · 2021년 백년가게 선정","shows":["B70"],"primaryShow":"B70"}},{"type":"Feature","geometry":{"type":"Point","coordinates":[126.722007,37.507022]},"properties":{"id":"kr-baeknyeon-락캠프-314","name":"락캠프","city":"부평구","country":"인천","emoji":"🍽️","status":"open","award":"백년가게 · 1998년 창업","note":"1998년 창업 · 2021년 백년가게 선정","shows":["B90"],"primaryShow":"B90"}},{"type":"Feature","geometry":{"type":"Point","coordinates":[126.636574,37.473179]},"properties":{"id":"kr-baeknyeon-깜상네-315","name":"깜상네","city":"동구","country":"인천","emoji":"🍽️","status":"open","award":"백년가게 · 1966년 창업","note":"1966년 창업 · 2021년 백년가게 선정","shows":["B60"],"primaryShow":"B60"}},{"type":"Feature","geometry":{"type":"Point","coordinates":[126.41892,37.616507]},"properties":{"id":"kr-baeknyeon-단골식당-316","name":"단골식당","city":"강화군","country":"인천","emoji":"🍽️","status":"open","award":"백년가게 · 1997년 창업","note":"1997년 창업 · 2021년 백년가게 선정","shows":["B90"],"primaryShow":"B90"}},{"type":"Feature","geometry":{"type":"Point","coordinates":[126.921959,37.619402]},"properties":{"id":"kr-baeknyeon-연서순대국-317","name":"연서순대국","city":"은평구","country":"서울","emoji":"🍲","status":"open","award":"백년가게 · 1989년 창업","note":"1989년 창업 · 2021년 백년가게 선정","shows":["B80"],"primaryShow":"B80"}},{"type":"Feature","geometry":{"type":"Point","coordinates":[126.911768,37.613462]},"properties":{"id":"kr-baeknyeon-싸리골-318","name":"싸리골","city":"은평구","country":"서울","emoji":"🍽️","status":"open","award":"백년가게 · 1990년 창업","note":"1990년 창업 · 2021년 백년가게 선정","shows":["B90"],"primaryShow":"B90"}},{"type":"Feature","geometry":{"type":"Point","coordinates":[126.921573,37.617363]},"properties":{"id":"kr-baeknyeon-두꺼비집-319","name":"두꺼비집","city":"은평구","country":"서울","emoji":"🍽️","status":"open","award":"백년가게 · 1983년 창업","note":"1983년 창업 · 2021년 백년가게 선정","shows":["B80"],"primaryShow":"B80"}},{"type":"Feature","geometry":{"type":"Point","coordinates":[126.863939,37.548513]},"properties":{"id":"kr-baeknyeon-골목집-320","name":"골목집","city":"양천구","country":"서울","emoji":"🍽️","status":"open","award":"백년가게 · 1999년 창업","note":"1999년 창업 · 2021년 백년가게 선정","shows":["B90"],"primaryShow":"B90"}},{"type":"Feature","geometry":{"type":"Point","coordinates":[127.097134,37.504284]},"properties":{"id":"kr-baeknyeon-주식회사산무리-321","name":"주식회사 산무리","city":"송파구","country":"서울","emoji":"🐟","status":"open","award":"백년가게 · 1990년 창업","note":"1990년 창업 · 2021년 백년가게 선정","shows":["B90"],"primaryShow":"B90"}},{"type":"Feature","geometry":{"type":"Point","coordinates":[127.011556,37.491357]},"properties":{"id":"kr-baeknyeon-3대삼계장인-322","name":"3대 삼계장인","city":"서초구","country":"서울","emoji":"🍽️","status":"open","award":"백년가게 · 1988년 창업","note":"1988년 창업 · 2021년 백년가게 선정","shows":["B80"],"primaryShow":"B80"}},{"type":"Feature","geometry":{"type":"Point","coordinates":[126.946978,37.542926]},"properties":{"id":"kr-baeknyeon-주식회사맛난세상-323","name":"주식회사 맛난세상","city":"마포구","country":"서울","emoji":"🐟","status":"open","award":"백년가게 · 1966년 창업","note":"1966년 창업 · 2021년 백년가게 선정","shows":["B60"],"primaryShow":"B60"}},{"type":"Feature","geometry":{"type":"Point","coordinates":[126.955975,37.542251]},"properties":{"id":"kr-baeknyeon-르네상스제과점-324","name":"르네상스제과점","city":"마포구","country":"서울","emoji":"🍞","status":"open","award":"백년가게 · 1986년 창업","note":"1986년 창업 · 2021년 백년가게 선정","shows":["B80"],"primaryShow":"B80"}},{"type":"Feature","geometry":{"type":"Point","coordinates":[127.035953,37.65058]},"properties":{"id":"kr-baeknyeon-함스브로트-325","name":"함스브로트","city":"도봉구","country":"서울","emoji":"🍽️","status":"open","award":"백년가게 · 1999년 창업","note":"1999년 창업 · 2021년 백년가게 선정","shows":["B90"],"primaryShow":"B90"}},{"type":"Feature","geometry":{"type":"Point","coordinates":[127.07068,37.635072]},"properties":{"id":"kr-baeknyeon-참누렁소-326","name":"참누렁소","city":"노원구","country":"서울","emoji":"🍽️","status":"open","award":"백년가게 · 2000년 창업","note":"2000년 창업 · 2021년 백년가게 선정","shows":["B00"],"primaryShow":"B00"}},{"type":"Feature","geometry":{"type":"Point","coordinates":[126.811755,37.567793]},"properties":{"id":"kr-baeknyeon-구이구이돼지촌쭈꾸미-327","name":"구이구이돼지촌쭈꾸미","city":"강서구","country":"서울","emoji":"🥩","status":"open","award":"백년가게 · 1994년 창업","note":"1994년 창업 · 2021년 백년가게 선정","shows":["B90"],"primaryShow":"B90"}},{"type":"Feature","geometry":{"type":"Point","coordinates":[127.006251,37.671463]},"properties":{"id":"kr-baeknyeon-옥류헌-328","name":"옥류헌","city":"강북구","country":"서울","emoji":"🍽️","status":"open","award":"백년가게 · 1956년 창업","note":"1956년 창업 · 2021년 백년가게 선정","shows":["B60"],"primaryShow":"B60"}},{"type":"Feature","geometry":{"type":"Point","coordinates":[127.055475,37.617491]},"properties":{"id":"kr-baeknyeon-섬진강식당-329","name":"섬진강식당","city":"강북구","country":"서울","emoji":"🍽️","status":"open","award":"백년가게 · 1984년 창업","note":"1984년 창업 · 2021년 백년가게 선정","shows":["B80"],"primaryShow":"B80"}},{"type":"Feature","geometry":{"type":"Point","coordinates":[127.12857,37.54968]},"properties":{"id":"kr-baeknyeon-초롱이고모부대찌개-330","name":"초롱이고모부대찌개","city":"강동구","country":"서울","emoji":"🍲","status":"open","award":"백년가게 · 1990년 창업","note":"1990년 창업 · 2021년 백년가게 선정","shows":["B90"],"primaryShow":"B90"}},{"type":"Feature","geometry":{"type":"Point","coordinates":[127.142517,37.551222]},"properties":{"id":"kr-baeknyeon-별미손칼국수-331","name":"별미손칼국수","city":"강동구","country":"서울","emoji":"🍜","status":"open","award":"백년가게 · 1989년 창업","note":"1989년 창업 · 2021년 백년가게 선정","shows":["B80"],"primaryShow":"B80"}},{"type":"Feature","geometry":{"type":"Point","coordinates":[127.049637,37.513656]},"properties":{"id":"kr-baeknyeon-베이크하우스-332","name":"베이크 하우스","city":"강남구","country":"서울","emoji":"🍽️","status":"open","award":"백년가게 · 1987년 창업","note":"1987년 창업 · 2021년 백년가게 선정","shows":["B80"],"primaryShow":"B80"}},{"type":"Feature","geometry":{"type":"Point","coordinates":[129.17165,35.158444]},"properties":{"id":"kr-baeknyeon-선창횟집-333","name":"선창횟집","city":"해운대구","country":"부산","emoji":"🐟","status":"open","award":"백년가게 · 1991년 창업","note":"1991년 창업 · 2021년 백년가게 선정","shows":["B90"],"primaryShow":"B90"}},{"type":"Feature","geometry":{"type":"Point","coordinates":[129.034957,35.103922]},"properties":{"id":"kr-baeknyeon-어머니간장게장-334","name":"어머니간장게장","city":"중구","country":"부산","emoji":"🐟","status":"open","award":"백년가게 · 1984년 창업","note":"1984년 창업 · 2021년 백년가게 선정","shows":["B80"],"primaryShow":"B80"}},{"type":"Feature","geometry":{"type":"Point","coordinates":[129.110767,35.163508]},"properties":{"id":"kr-baeknyeon-뚜쥬루과자점-335","name":"뚜쥬루과자점","city":"수영구","country":"부산","emoji":"🍽️","status":"open","award":"백년가게 · 1999년 창업","note":"1999년 창업 · 2021년 백년가게 선정","shows":["B90"],"primaryShow":"B90"}},{"type":"Feature","geometry":{"type":"Point","coordinates":[129.101264,35.203436]},"properties":{"id":"kr-baeknyeon-구기영조방낙지-336","name":"구기영 조방낙지","city":"동래구","country":"부산","emoji":"🐟","status":"open","award":"백년가게 · 1991년 창업","note":"1991년 창업 · 2021년 백년가게 선정","shows":["B90"],"primaryShow":"B90"}},