{"type":"FeatureCollection","metadata":{"profile":"baekban","generated":"2026-07-15T02:22:37.429Z","counts":{"places":1286,"withEpisodes":1220,"fromDiningCode":1169,"geocodedAdds":116,"externalNew":1,"externalEnriched":62,"episodeVenues":1341,"episodeUnresolved":115}},"features":[{"type":"Feature","geometry":{"type":"Point","coordinates":[126.374648,36.6237818]},"properties":{"id":"kr-baekban-seozFfpY666d","name":"쉼터식당","city":"서산시 부석면","country":"충남","kind":"백반","emoji":"🍚","status":"open","note":"백반, 고등어","rating":4.5,"reviews":1,"visits":[{"show":"BB","episode":2,"title":"충청남도 서산시","year":2019,"label":"2회"}],"shows":["BB"],"primaryShow":"BB"}},{"type":"Feature","geometry":{"type":"Point","coordinates":[126.2806469,37.7815751]},"properties":{"id":"kr-baekban-xYdiivInSDV1","name":"대풍식당","city":"강화군 교동면","country":"인천","kind":"냉면","emoji":"🍜","status":"open","note":"냉면, 국밥","rating":4.2,"reviews":13,"visits":[{"show":"BB","episode":335,"title":"인천광역시 강화군","year":2026,"label":"335회"}],"shows":["BB"],"primaryShow":"BB"}},{"type":"Feature","geometry":{"type":"Point","coordinates":[126.8701738,37.938332]},"properties":{"id":"kr-baekban-Fwlzq9rcqsM0","name":"샘내손두부","city":"파주시 파평면","country":"경기","kind":"두부요리","emoji":"🍚","status":"open","note":"두부요리, 두부정식","rating":4.2,"reviews":11,"visits":[{"show":"BB","episode":324,"title":"서울특별시 성동구","year":2025,"label":"324회"}],"shows":["BB"],"primaryShow":"BB"}},{"type":"Feature","geometry":{"type":"Point","coordinates":[127.1997205,37.6930848]},"properties":{"id":"kr-baekban-k6d9STRKwvob","name":"무등보리밥정식","city":"남양주시 오남읍","country":"경기","kind":"나물","emoji":"🍚","status":"open","note":"나물, 보리밥정식","rating":4.2,"reviews":9,"visits":[{"show":"BB","episode":198,"title":"경기도 남양주시","year":2023,"label":"198회"}],"shows":["BB"],"primaryShow":"BB"}},{"type":"Feature","geometry":{"type":"Point","coordinates":[129.1088935,37.5513268]},"properties":{"id":"kr-baekban-Fr78WlzOrpbV","name":"고향의맛 손칼국수 감자옹심이","city":"동해시 발한동","country":"강원","kind":"감자옹심이","emoji":"🍜","status":"open","note":"감자옹심이, 손칼국수","rating":4.6,"reviews":20,"visits":[{"show":"BB","episode":258,"title":"강원도 동해시","year":2024,"label":"258회"}],"shows":["BB"],"primaryShow":"BB"}},{"type":"Feature","geometry":{"type":"Point","coordinates":[126.6321248,35.1796905]},"properties":{"id":"kr-baekban-NNarQz65ykcq","name":"제일식당","city":"함평군 월야면","country":"전남","kind":"백반","emoji":"🍚","status":"unknown","note":"백반, 굴비백반","rating":5,"reviews":1,"visits":[{"show":"BB","episode":143,"title":"전라남도 영광군","year":2022,"label":"143회"}],"shows":["BB"],"primaryShow":"BB"}},{"type":"Feature","geometry":{"type":"Point","coordinates":[126.9988221,37.5704887]},"properties":{"id":"kr-baekban-XXNqa2hUEMeO","name":"승우네식당","city":"종로구 종로4가","country":"서울","kind":"백반","emoji":"🍚","status":"open","note":"백반, 청국장","rating":4.3,"reviews":7,"visits":[{"show":"BB","episode":26,"title":"서울특별시 종로구","year":2019,"label":"26회"}],"shows":["BB"],"primaryShow":"BB"}},{"type":"Feature","geometry":{"type":"Point","coordinates":[127.9490801,38.2087277]},"properties":{"id":"kr-baekban-hNk5b2VqCEzs","name":"백토미가","city":"양구군 방산면","country":"강원","kind":"집밥","emoji":"🍚","status":"open","note":"집밥, 시래기불고기","rating":3.9,"reviews":3,"visits":[{"show":"BB","episode":186,"title":"강원도 양구군","year":2023,"label":"186회"}],"shows":["BB"],"primaryShow":"BB"}},{"type":"Feature","geometry":{"type":"Point","coordinates":[128.6084937,34.8218704]},"properties":{"id":"kr-baekban-EcoFLgvthIBB","name":"명화식당","city":"거제시 동부면","country":"경남","kind":"백반","emoji":"🍚","status":"open","note":"백반, 이모카세","rating":3.7,"reviews":4,"visits":[{"show":"BB","episode":232,"title":"경상남도 거제시","year":2024,"label":"232회"}],"shows":["BB"],"primaryShow":"BB"}},{"type":"Feature","geometry":{"type":"Point","coordinates":[126.9999526,36.7858787]},"properties":{"id":"kr-baekban-nOKxKWPUT4AL","name":"신정식당","city":"아산시 온천동","country":"충남","kind":"밀면","emoji":"🍜","status":"open","note":"밀면, 닭수육","rating":4.3,"reviews":23,"visits":[{"show":"BB","episode":178,"title":"충청남도 아산시","year":2022,"label":"178회"}],"shows":["BB"],"primaryShow":"BB"}},{"type":"Feature","geometry":{"type":"Point","coordinates":[126.60278,35.587512]},"properties":{"id":"kr-baekban-2EbxNk4UaHF2","name":"곰소등대길밥상","city":"부안군 진서면","country":"전북","kind":"백반","emoji":"🍚","status":"open","note":"백반, 매운탕","rating":4.4,"reviews":3,"visits":[{"show":"BB","episode":298,"title":"전라북도 부안군","year":2025,"label":"298회"}],"shows":["BB"],"primaryShow":"BB"}},{"type":"Feature","geometry":{"type":"Point","coordinates":[126.9159411,37.4030605]},"properties":{"id":"kr-baekban-D6yiZ8ChIkAz","name":"고흥식당","city":"안양시","country":"경기","kind":"한정식","emoji":"🍚","status":"open","note":"한정식, 백반","rating":4.4,"reviews":3,"visits":[{"show":"BB","episode":282,"title":"경기도 안양시・군포시","year":2025,"label":"282회"}],"shows":["BB"],"primaryShow":"BB"}},{"type":"Feature","geometry":{"type":"Point","coordinates":[127.1194151,37.4955672]},"properties":{"id":"kr-baekban-pH0yMvXtDsuf","name":"일등바우","city":"송파구 가락동","country":"서울","kind":"민어","emoji":"🐟","status":"open","note":"민어, 병어조림","rating":4,"reviews":2,"visits":[{"show":"BB","episode":50,"title":"서울특별시 송파구","year":2020,"label":"50회"}],"shows":["BB"],"primaryShow":"BB"}},{"type":"Feature","geometry":{"type":"Point","coordinates":[127.0757339,37.6154194]},"properties":{"id":"kr-baekban-EuUtNI54sFUW","name":"묵동부대찌개","city":"중랑구 묵동","country":"서울","kind":"부대찌개","emoji":"🍲","status":"open","note":"부대찌개, 미나리","rating":3.4,"reviews":9,"visits":[{"show":"BB","episode":117,"title":"서울특별시 중랑구 · 노원구","year":2021,"label":"117회"}],"shows":["BB"],"primaryShow":"BB"}},{"type":"Feature","geometry":{"type":"Point","coordinates":[127.9243091,38.1886231]},"properties":{"id":"kr-baekban-7eBL2ZEuFJpF","name":"오미막국수","city":"양구군 방산면","country":"강원","kind":"막국수","emoji":"🍜","status":"open","note":"막국수","rating":4.6,"reviews":3,"visits":[{"show":"BB","episode":338,"title":"강원특별자치도 양구군","year":2026,"label":"338회"}],"shows":["BB"],"primaryShow":"BB"}},{"type":"Feature","geometry":{"type":"Point","coordinates":[127.721925,36.4828513]},"properties":{"id":"kr-baekban-mL5FjfbQ2ZZX","name":"혜성정육점식당","city":"보은군 보은읍","country":"충북","kind":"삼겹살","emoji":"🍚","status":"open","note":"삼겹살, 백반","rating":4.7,"reviews":4,"visits":[{"show":"BB","episode":144,"title":"충청북도 보은군","year":2022,"label":"144회"}],"shows":["BB"],"primaryShow":"BB"}},{"type":"Feature","geometry":{"type":"Point","coordinates":[127.1246146,37.5284776]},"properties":{"id":"kr-baekban-fpdfHSnfrQeD","name":"화진포막국수 강동구청점","city":"강동구 성내동","country":"서울","kind":"막국수","emoji":"🍜","status":"open","note":"막국수, 명태식해","rating":4.1,"reviews":36,"visits":[{"show":"BB","episode":312,"title":"식객 × 식객 김강우의 진수성찬","year":2025,"label":"312회"}],"shows":["BB"],"primaryShow":"BB"}},{"type":"Feature","geometry":{"type":"Point","coordinates":[126.6680232,36.6021513]},"properties":{"id":"kr-baekban-pOUYmyPKbzD3","name":"홍흥집","city":"홍성군 홍성읍","country":"충남","kind":"국밥","emoji":"🍲","status":"open","note":"국밥, 한우곰탕","rating":4.8,"reviews":5,"visits":[{"show":"BB","episode":85,"title":"충청남도 홍성군","year":2021,"label":"85회"}],"shows":["BB"],"primaryShow":"BB"}},{"type":"Feature","geometry":{"type":"Point","coordinates":[127.0486687,37.5485279]},"properties":{"id":"kr-baekban-mHlf7lBY4vOC","name":"신명먹거리","city":"성동구 성수동1가","country":"서울","kind":"백반","emoji":"🍚","status":"unknown","note":"백반, 백반집","rating":5,"reviews":5,"visits":[{"show":"BB","episode":137,"title":"서울특별시 성동구","year":2022,"label":"137회"}],"shows":["BB"],"primaryShow":"BB"}},{"type":"Feature","geometry":{"type":"Point","coordinates":[127.017142,36.1648545]},"properties":{"id":"kr-baekban-q6sJqVFjawJ9","name":"큰손식당","city":"논산시 강경읍","country":"충남","kind":"백반","emoji":"🍚","status":"open","note":"백반, 젓갈","rating":5,"reviews":3,"visits":[{"show":"BB","episode":166,"title":"충청남도 부여군 · 논산시","year":2022,"label":"166회"}],"shows":["BB"],"primaryShow":"BB"}},{"type":"Feature","geometry":{"type":"Point","coordinates":[127.0519517,37.9050798]},"properties":{"id":"kr-baekban-zBJbg9RtMZJz","name":"황주생고기","city":"동두천시 생연동","country":"경기","kind":"한우","emoji":"🥩","status":"open","note":"한우, 소고기","rating":3.7,"reviews":2,"visits":[{"show":"BB","episode":223,"title":"경기도 남양주시, 화성시, 동두천시","year":2023,"label":"223회"}],"shows":["BB"],"primaryShow":"BB"}},{"type":"Feature","geometry":{"type":"Point","coordinates":[126.9358294,37.776118]},"properties":{"id":"kr-baekban-PAqffousoTfv","name":"산하가든","city":"양주시 백석읍","country":"경기","kind":"한우","emoji":"🍚","status":"open","note":"한우, 백반","rating":2.7,"reviews":4,"visits":[{"show":"BB","episode":214,"title":"경기도 양주시","year":2023,"label":"214회"}],"shows":["BB"],"primaryShow":"BB"}},{"type":"Feature","geometry":{"type":"Point","coordinates":[126.5167578,35.0096698]},"properties":{"id":"kr-baekban-BjZw3c9WOi41","name":"선미식당","city":"함평군 엄다면","country":"전남","kind":"짜장면","emoji":"🍜","status":"open","note":"짜장면, 탕수육","rating":4.3,"reviews":7,"visits":[{"show":"BB","episode":287,"title":"전라남도 함평군","year":2025,"label":"287회"}],"shows":["BB"],"primaryShow":"BB"}},{"type":"Feature","geometry":{"type":"Point","coordinates":[127.4434211,37.2813971]},"properties":{"id":"kr-baekban-qw2jXof9BAAc","name":"제일갈비","city":"이천시 창전동","country":"경기","kind":"돼지갈비","emoji":"🥩","status":"open","note":"돼지갈비, 물갈비","rating":4.2,"reviews":24,"visits":[{"show":"BB","episode":304,"title":"경기도 이천시","year":2025,"label":"304회"}],"shows":["BB"],"primaryShow":"BB"}},{"type":"Feature","geometry":{"type":"Point","coordinates":[128.6230616,38.0748273]},"properties":{"id":"kr-baekban-4NRpnAAyGYHt","name":"오뚜기식당","city":"양양군 양양읍","country":"강원","kind":"옹심이","emoji":"🍲","status":"open","note":"옹심이, 감자전","rating":4.4,"reviews":7,"visits":[{"show":"BB","episode":257,"title":"강원도 양양군","year":2024,"label":"257회"}],"shows":["BB"],"primaryShow":"BB"}},{"type":"Feature","geometry":{"type":"Point","coordinates":[128.7098119,35.3747762]},"properties":{"id":"kr-baekban-C5u48gYoXhc9","name":"제일식당","city":"밀양시 하남읍","country":"경남","kind":"돼지국밥","emoji":"🍲","status":"open","note":"돼지국밥, 내장국밥","rating":5,"reviews":2,"visits":[{"show":"BB","episode":74,"title":"경상남도 진주시","year":2020,"label":"74회","video":"https://www.youtube.com/watch?v=9uWaDf2jrik"},{"show":"BB","episode":109,"title":"경상남도 밀양시","year":2021,"label":"109회"}],"shows":["BB"],"primaryShow":"BB"}},{"type":"Feature","geometry":{"type":"Point","coordinates":[128.1908253,36.6453423]},"properties":{"id":"kr-baekban-7J87dbfOxMoV","name":"향춘손칼국수","city":"문경시 호계면","country":"경북","kind":"손칼국수","emoji":"🍜","status":"open","note":"손칼국수","rating":5,"reviews":2,"visits":[{"show":"BB","episode":331,"title":"경상북도 문경시","year":2026,"label":"331회"}],"shows":["BB"],"primaryShow":"BB"}},{"type":"Feature","geometry":{"type":"Point","coordinates":[126.6399062,37.4640122]},"properties":{"id":"kr-baekban-BZSMN16auQAV","name":"평양옥","city":"중구 신흥동3가","country":"인천","kind":"해장국","emoji":"🍲","status":"open","note":"해장국, 갈비탕","rating":3.3,"reviews":12,"visits":[{"show":"BB","episode":108,"title":"인천광역시 중구","year":2021,"label":"108회"}],"shows":["BB"],"primaryShow":"BB"}},{"type":"Feature","geometry":{"type":"Point","coordinates":[127.2868473,37.2317595]},"properties":{"id":"kr-baekban-5B9D9k1fBPqi","name":"금성식당","city":"용인시","country":"경기","kind":"청국장","emoji":"🍲","status":"open","note":"청국장, 제육볶음","rating":4.1,"reviews":9,"visits":[{"show":"BB","episode":49,"title":"경기도 용인시","year":2020,"label":"49회"}],"shows":["BB"],"primaryShow":"BB"}},{"type":"Feature","geometry":{"type":"Point","coordinates":[128.7340053,36.5641932]},"properties":{"id":"kr-baekban-yLhqq20KvvOd","name":"성전식당","city":"안동시 운흥동","country":"경북","kind":"집밥","emoji":"🍚","status":"open","note":"집밥, 간고등어","rating":4.4,"reviews":7,"visits":[{"show":"BB","episode":29,"title":"경상북도 안동시","year":2019,"label":"29회"}],"shows":["BB"],"primaryShow":"BB"}},{"type":"Feature","geometry":{"type":"Point","coordinates":[127.0224033,37.2613431]},"properties":{"id":"kr-baekban-mXJDISEsYMHr","name":"감포생아귀","city":"수원시","country":"경기","kind":"아구찜","emoji":"🐟","status":"open","note":"아구찜, 아귀수육","rating":5,"reviews":3,"visits":[{"show":"BB","episode":255,"title":"경기도 수원시","year":2024,"label":"255회"}],"shows":["BB"],"primaryShow":"BB"}},{"type":"Feature","geometry":{"type":"Point","coordinates":[128.4251826,38.4991479]},"properties":{"id":"kr-baekban-snoRIzibqhZ9","name":"쌍둥이네식당","city":"고성군 현내면","country":"강원","kind":"생선구이","emoji":"🥩","status":"open","note":"생선구이, 도치알탕","rating":4.2,"reviews":3,"visits":[{"show":"BB","episode":114,"title":"강원도 고성군","year":2021,"label":"114회"}],"shows":["BB"],"primaryShow":"BB"}},{"type":"Feature","geometry":{"type":"Point","coordinates":[127.8788146,37.6816591]},"properties":{"id":"kr-baekban-JCKThZaEHBJ3","name":"연봉손두부","city":"홍천군 홍천읍","country":"강원","kind":"두부전골","emoji":"🍲","status":"open","note":"두부전골","rating":5,"reviews":2,"visits":[{"show":"BB","episode":274,"title":"강원도 홍천군","year":2024,"label":"274회"}],"shows":["BB"],"primaryShow":"BB"}},{"type":"Feature","geometry":{"type":"Point","coordinates":[127.101987,37.5484774]},"properties":{"id":"kr-baekban-fOZwRsvsFI80","name":"어울림","city":"광진구 광장동","country":"서울","kind":"새조개","emoji":"🐟","status":"open","note":"새조개, 해산물","rating":4.6,"reviews":8,"visits":[{"show":"BB","episode":38,"title":"서울특별시 광진구","year":2020,"label":"38회"}],"shows":["BB"],"primaryShow":"BB"}},{"type":"Feature","geometry":{"type":"Point","coordinates":[126.4771457,37.7831559]},"properties":{"id":"kr-baekban-vQ9cpob9ec8F","name":"돌기와집","city":"강화군 송해면","country":"인천","kind":"붕어찜","emoji":"🐟","status":"open","note":"붕어찜, 시래기","rating":5,"reviews":1,"visits":[{"show":"BB","episode":5,"title":"인천광역시 강화군","year":2019,"label":"5회"}],"shows":["BB"],"primaryShow":"BB"}},{"type":"Feature","geometry":{"type":"Point","coordinates":[127.10305,36.989996]},"properties":{"id":"kr-baekban-Mc8nKTjuOX5U","name":"홍행원","city":"평택시 합정동","country":"경기","kind":"짜장면","emoji":"🍜","status":"open","note":"짜장면, 중국집","rating":4.5,"reviews":3,"visits":[{"show":"BB","episode":207,"title":"경기도 평택시","year":2023,"label":"207회"}],"shows":["BB"],"primaryShow":"BB"}},{"type":"Feature","geometry":{"type":"Point","coordinates":[126.4230443,37.6339943]},"properties":{"id":"kr-baekban-dHWxCHeJdDcn","name":"단골식당","city":"강화군 화도면","country":"인천","kind":"젓국갈비전골","emoji":"🍲","status":"open","note":"젓국갈비전골","rating":3.2,"reviews":5,"visits":[{"show":"BB","episode":335,"title":"인천광역시 강화군","year":2026,"label":"335회"}],"shows":["BB"],"primaryShow":"BB"}},{"type":"Feature","geometry":{"type":"Point","coordinates":[127.8824259,37.689819]},"properties":{"id":"kr-baekban-7g4T8D9qFeSH","name":"고모네보리밥","city":"홍천군 홍천읍","country":"강원","kind":"보리밥","emoji":"🍚","status":"open","note":"보리밥, 쌈밥","rating":4.1,"reviews":3,"visits":[{"show":"BB","episode":225,"title":"강원특별자치도 홍천군","year":2023,"label":"225회"}],"shows":["BB"],"primaryShow":"BB"}},{"type":"Feature","geometry":{"type":"Point","coordinates":[127.3184911,36.2984759]},"properties":{"id":"kr-baekban-tumoKwZAhCfX","name":"한마음 냉면","city":"유성구 원내동","country":"대전","kind":"냉면","emoji":"🍜","status":"open","note":"냉면, 만두","rating":3.2,"reviews":9,"visits":[{"show":"BB","episode":171,"title":"대전광역시","year":2022,"label":"171회"}],"shows":["BB"],"primaryShow":"BB"}},{"type":"Feature","geometry":{"type":"Point","coordinates":[126.1361584,36.7753621]},"properties":{"id":"kr-baekban-NcJz9kJDrLjw","name":"청어람","city":"태안군 소원면","country":"충남","kind":"게국지","emoji":"🐟","status":"open","note":"게국지, 꽃게탕","rating":3.9,"reviews":6,"visits":[{"show":"BB","episode":201,"title":"충청남도 태안군","year":2023,"label":"201회"}],"shows":["BB"],"primaryShow":"BB"}},{"type":"Feature","geometry":{"type":"Point","coordinates":[129.0441424,35.0875181]},"properties":{"id":"kr-baekban-reovh1Dcli2E","name":"가마솥돼지국밥","city":"영도구 신선동2가","country":"부산","kind":"돼지국밥","emoji":"🍲","status":"open","note":"돼지국밥","rating":4.1,"reviews":11,"visits":[{"show":"BB","episode":4,"title":"부산광역시","year":2019,"label":"4회"}],"shows":["BB"],"primaryShow":"BB"}},{"type":"Feature","geometry":{"type":"Point","coordinates":[126.2622109,34.4845839]},"properties":{"id":"kr-baekban-hK9WDAdKRmKD","name":"옥향식당","city":"진도군 진도읍","country":"전남","kind":"백반","emoji":"🍚","status":"open","note":"백반, 설렁탕","rating":4,"reviews":1,"visits":[{"show":"BB","episode":317,"title":"전라남도 진도군","year":2025,"label":"317회"}],"shows":["BB"],"primaryShow":"BB"}},{"type":"Feature","geometry":{"type":"Point","coordinates":[126.6231179,37.4708426]},"properties":{"id":"kr-baekban-1QHP6jthuDso","name":"등대경양식","city":"중구 해안동4가","country":"인천","kind":"돈까스","emoji":"🍱","status":"open","note":"돈까스, 경양식","rating":4.4,"reviews":4,"visits":[{"show":"BB","episode":36,"title":"인천광역시","year":2020,"label":"36회"}],"shows":["BB"],"primaryShow":"BB"}},{"type":"Feature","geometry":{"type":"Point","coordinates":[127.0172299,37.2793859]},"properties":{"id":"kr-baekban-hJ7LGW2uSdPa","name":"대원옥","city":"수원시","country":"경기","kind":"평양냉면","emoji":"🍜","status":"open","note":"평양냉면, 비빔냉면","rating":4.5,"reviews":6,"visits":[{"show":"BB","episode":255,"title":"경기도 수원시","year":2024,"label":"255회"}],"shows":["BB"],"primaryShow":"BB"}},{"type":"Feature","geometry":{"type":"Point","coordinates":[127.490181,34.9501174]},"properties":{"id":"kr-baekban-tEGl1U1eJ3zh","name":"대원식당","city":"순천시 장천동","country":"전남","kind":"한정식","emoji":"🍚","status":"open","note":"한정식, 수라상","rating":4.4,"reviews":9,"visits":[{"show":"BB","episode":17,"title":"전라남도 순천시","year":2019,"label":"17회"}],"shows":["BB"],"primaryShow":"BB"}},{"type":"Feature","geometry":{"type":"Point","coordinates":[126.7494719,37.6727556]},"properties":{"id":"kr-baekban-NosZ6rwoHuVR","name":"베다니맷돌막국수","city":"고양시","country":"경기","kind":"들기름막국수","emoji":"🍜","status":"open","note":"들기름막국수","rating":3.8,"reviews":8,"visits":[{"show":"BB","episode":348,"title":"경기도 고양시","year":2026,"label":"348회"}],"shows":["BB"],"primaryShow":"BB"}},{"type":"Feature","geometry":{"type":"Point","coordinates":[129.107568,37.4929311]},"properties":{"id":"kr-baekban-Q3TpAaABqaGc","name":"시골","city":"동해시 동회동","country":"강원","kind":"옹심이","emoji":"🍲","status":"open","note":"옹심이","rating":4.8,"reviews":4,"visits":[{"show":"BB","episode":111,"title":"강원도 동해시","year":2021,"label":"111회"}],"shows":["BB"],"primaryShow":"BB"}},{"type":"Feature","geometry":{"type":"Point","coordinates":[126.6052698,36.3473742]},"properties":{"id":"kr-baekban-Q9c5nJjm5sH5","name":"나그네집","city":"보령시 동대동","country":"충남","kind":"백반","emoji":"🍚","status":"open","note":"백반, 아나고탕","rating":4.5,"reviews":1,"visits":[{"show":"BB","episode":180,"title":"충청남도 보령시","year":2022,"label":"180회"}],"shows":["BB"],"primaryShow":"BB"}},{"type":"Feature","geometry":{"type":"Point","coordinates":[127.0200229,37.5662699]},"properties":{"id":"kr-baekban-DGwz123xlnXn","name":"고사리 익스프레스","city":"중구 황학동","country":"서울","kind":"비건식당","emoji":"🍝","status":"open","note":"비건식당, 고사리파스타","rating":4.8,"reviews":11,"visits":[],"shows":["BB"],"primaryShow":"BB"}},{"type":"Feature","geometry":{"type":"Point","coordinates":[128.382573,35.6015659]},"properties":{"id":"kr-baekban-lq23kNwK6jRW","name":"이방식당","city":"창녕군 이방면","country":"경남","kind":"수구레","emoji":"🍲","status":"open","note":"수구레, 국밥","rating":4.7,"reviews":4,"visits":[{"show":"BB","episode":318,"title":"경상남도  창녕군","year":2025,"label":"318회"}],"shows":["BB"],"primaryShow":"BB"}},{"type":"Feature","geometry":{"type":"Point","coordinates":[127.0522802,37.908562]},"properties":{"id":"kr-baekban-B7CTklJz1LqE","name":"흙집","city":"동두천시 생연동","country":"경기","kind":"찌개","emoji":"🍲","status":"open","note":"찌개, 고추장돼지","rating":4.8,"reviews":2,"visits":[{"show":"BB","episode":251,"title":"경기도 동두천시","year":2024,"label":"251회"}],"shows":["BB"],"primaryShow":"BB"}},{"type":"Feature","geometry":{"type":"Point","coordinates":[127.033006,37.5600609]},"properties":{"id":"kr-baekban-vBZfEIi17sAs","name":"오시오","city":"성동구 행당동","country":"서울","kind":"남도음식","emoji":"🍽️","status":"open","note":"남도음식, 서대찜","rating":3,"reviews":1,"visits":[{"show":"BB","episode":197,"title":"서울특별시 성동구","year":2023,"label":"197회"}],"shows":["BB"],"primaryShow":"BB"}},{"type":"Feature","geometry":{"type":"Point","coordinates":[128.16692,36.6459192]},"properties":{"id":"kr-baekban-uFlp9EPbOzML","name":"송내촌 산나물밥","city":"문경시 호계면","country":"경북","kind":"산나물밥","emoji":"🍚","status":"open","note":"산나물밥","rating":4.2,"reviews":8,"visits":[{"show":"BB","episode":331,"title":"경상북도 문경시","year":2026,"label":"331회"}],"shows":["BB"],"primaryShow":"BB"}},{"type":"Feature","geometry":{"type":"Point","coordinates":[127.9351997,35.3495884]},"properties":{"id":"kr-baekban-MLF2crIkz8g2","name":"홍화원식당","city":"산청군 신안면","country":"경남","kind":"산채비빔밥","emoji":"🍚","status":"open","note":"산채비빔밥, 백반","rating":5,"reviews":1,"visits":[{"show":"BB","episode":241,"title":"경상남도 산청군","year":2024,"label":"241회"}],"shows":["BB"],"primaryShow":"BB"}},{"type":"Feature","geometry":{"type":"Point","coordinates":[127.009904,37.2731612]},"properties":{"id":"kr-baekban-cZEtTjpdRcJk","name":"팔미옥 매산동","city":"수원시","country":"경기","kind":"한우","emoji":"🥩","status":"open","note":"한우, 한우특수부위","rating":4.4,"reviews":2,"visits":[{"show":"BB","episode":130,"title":"경기도 수원시","year":2021,"label":"130회"}],"shows":["BB"],"primaryShow":"BB"}},{"type":"Feature","geometry":{"type":"Point","coordinates":[127.3736765,37.1645987]},"properties":{"id":"kr-baekban-JZ4mAqcEf6mF","name":"제일식당","city":"용인시","country":"경기","kind":"순대국","emoji":"🍲","status":"open","note":"순대국","rating":4.1,"reviews":35,"visits":[{"show":"BB","episode":262,"title":"경기도 용인시","year":2024,"label":"262회"}],"shows":["BB"],"primaryShow":"BB"}},{"type":"Feature","geometry":{"type":"Point","coordinates":[127.0156316,37.2798895]},"properties":{"id":"kr-baekban-sES7C8mR1kQC","name":"수원갈비스토리","city":"수원시","country":"경기","kind":"갈비탕","emoji":"🥩","status":"open","note":"갈비탕, 한우양념갈비","rating":4,"reviews":1,"visits":[{"show":"BB","episode":321,"title":"수원특례시","year":2025,"label":"321회"}],"shows":["BB"],"primaryShow":"BB"}},{"type":"Feature","geometry":{"type":"Point","coordinates":[127.0441842,37.6771561]},"properties":{"id":"kr-baekban-dUCVzDEFuKSu","name":"무수옥","city":"도봉구 도봉동","country":"서울","kind":"설렁탕","emoji":"🍚","status":"open","note":"설렁탕, 육회비빔밥","rating":4.2,"reviews":36,"visits":[{"show":"BB","episode":215,"title":"서울특별시","year":2023,"label":"215회","video":"https://www.youtube.com/watch?v=-3Lh7COG80Q"}],"shows":["BB"],"primaryShow":"BB","image":"https://i.ytimg.com/vi/-3Lh7COG80Q/hqdefault.jpg"}},{"type":"Feature","geometry":{"type":"Point","coordinates":[127.4540699,34.4651562]},"properties":{"id":"kr-baekban-0LMc3idfhMba","name":"순천횟집","city":"고흥군 봉래면","country":"전남","kind":"횟집","emoji":"🐟","status":"open","note":"횟집, 삼치회","rating":3.9,"reviews":4,"visits":[{"show":"BB","episode":80,"title":"전라남도 고흥군","year":2020,"label":"80회"}],"shows":["BB"],"primaryShow":"BB"}},{"type":"Feature","geometry":{"type":"Point","coordinates":[127.0064646,37.5680983]},"properties":{"id":"kr-baekban-BVy1oMSJMSNq","name":"천일삼계탕","city":"중구 을지로6가","country":"서울","kind":"삼계탕","emoji":"🍗","status":"open","note":"삼계탕, 인삼주","rating":3.9,"reviews":8,"visits":[{"show":"BB","episode":19,"title":"서울특별시 동대문구","year":2019,"label":"19회"}],"shows":["BB"],"primaryShow":"BB"}},{"type":"Feature","geometry":{"type":"Point","coordinates":[126.4816854,36.5306446]},"properties":{"id":"kr-baekban-qHM9qdC0quY8","name":"꽃동산횟집","city":"홍성군 서부면","country":"충남","kind":"횟집","emoji":"🐟","status":"open","note":"횟집, 대하","rating":4.2,"reviews":4,"visits":[{"show":"BB","episode":85,"title":"충청남도 홍성군","year":2021,"label":"85회"}],"shows":["BB"],"primaryShow":"BB"}},{"type":"Feature","geometry":{"type":"Point","coordinates":[126.9934389,37.5667917]},"properties":{"id":"kr-baekban-4yFOrcbcWkba","name":"조선옥","city":"중구 을지로3가","country":"서울","kind":"양념갈비","emoji":"🥩","status":"open","note":"양념갈비, 갈비탕","rating":3.8,"reviews":20,"visits":[{"show":"BB","episode":341,"title":"서울특별시","year":2026,"label":"341회"}],"shows":["BB"],"primaryShow":"BB"}},{"type":"Feature","geometry":{"type":"Point","coordinates":[127.8864641,37.6903098]},"properties":{"id":"kr-baekban-OfbAiNLbdRkx","name":"옛날팥죽","city":"홍천군 홍천읍","country":"강원","kind":"팥죽","emoji":"🍜","status":"open","note":"팥죽, 팥칼국수","rating":4,"reviews":2,"visits":[{"show":"BB","episode":227,"title":"서울특별시 동작구, 성북구, 강원특별자치도 홍천군","year":2023,"label":"227회"}],"shows":["BB"],"primaryShow":"BB"}},{"type":"Feature","geometry":{"type":"Point","coordinates":[126.9073751,34.6784039]},"properties":{"id":"kr-baekban-ej3ISzaMxdQz","name":"삭금쭈꾸미","city":"장흥군 장흥읍","country":"전남","kind":"쭈꾸미","emoji":"🐟","status":"open","note":"쭈꾸미","rating":5,"reviews":1,"visits":[{"show":"BB","episode":134,"title":"전라남도 장흥군","year":2021,"label":"134회"}],"shows":["BB"],"primaryShow":"BB"}},{"type":"Feature","geometry":{"type":"Point","coordinates":[126.7223253,35.1227306]},"properties":{"id":"kr-baekban-RvdA4pBHcIvC","name":"골메골","city":"광산구 명화동","country":"광주","kind":"애호박찌개","emoji":"🍲","status":"open","note":"애호박찌개, 국밥","rating":4.7,"reviews":3,"visits":[{"show":"BB","episode":23,"title":"광주광역시","year":2019,"label":"23회"}],"shows":["BB"],"primaryShow":"BB"}},{"type":"Feature","geometry":{"type":"Point","coordinates":[128.2129863,37.1487261]},"properties":{"id":"kr-baekban-7GfQ6wlLwGi4","name":"석이네 숯불구이","city":"제천시 청전동","country":"충북","kind":"돼지갈비","emoji":"🍚","status":"open","note":"돼지갈비, 백반","rating":5,"reviews":1,"visits":[{"show":"BB","episode":133,"title":"충청북도 제천시","year":2021,"label":"133회"}],"shows":["BB"],"primaryShow":"BB"}},{"type":"Feature","geometry":{"type":"Point","coordinates":[126.135293,36.6856147]},"properties":{"id":"kr-baekban-X4edAu0zwXRJ","name":"선창회마차","city":"태안군 근흥면","country":"충남","kind":"우럭","emoji":"🐟","status":"open","note":"우럭, 횟집","rating":4.5,"reviews":2,"visits":[{"show":"BB","episode":54,"title":"충청남도 태안군","year":2020,"label":"54회"}],"shows":["BB"],"primaryShow":"BB"}},{"type":"Feature","geometry":{"type":"Point","coordinates":[127.7261756,35.5170658]},"properties":{"id":"kr-baekban-0ETuy6OGmMj8","name":"대성식당","city":"함양군 함양읍","country":"경남","kind":"한우국밥","emoji":"🍲","status":"open","note":"한우국밥, 소고기국밥","rating":4.5,"reviews":5,"visits":[{"show":"BB","episode":39,"title":"경상남도 함양군","year":2020,"label":"39회"}],"shows":["BB"],"primaryShow":"BB"}},{"type":"Feature","geometry":{"type":"Point","coordinates":[128.3698922,36.981999]},"properties":{"id":"kr-baekban-t1YYngjmWRe3","name":"원조마늘순대","city":"단양군 단양읍","country":"충북","kind":"순대국","emoji":"🍲","status":"open","note":"순대국","rating":4.5,"reviews":27,"visits":[{"show":"BB","episode":34,"title":"충청북도 단양군 · 제천시","year":2020,"label":"34회"}],"shows":["BB"],"primaryShow":"BB"}},{"type":"Feature","geometry":{"type":"Point","coordinates":[128.7196915,36.559214]},"properties":{"id":"kr-baekban-FFy3lZ75YNej","name":"옥동손국수","city":"안동시 당북동","country":"경북","kind":"국수","emoji":"🍜","status":"open","note":"국수, 안동국시","rating":4.3,"reviews":18,"visits":[{"show":"BB","episode":29,"title":"경상북도 안동시","year":2019,"label":"29회"}],"shows":["BB"],"primaryShow":"BB"}},{"type":"Feature","geometry":{"type":"Point","coordinates":[128.2020417,36.5957119]},"properties":{"id":"kr-baekban-k8RbC93VBvf4","name":"서울만두","city":"문경시 점촌동","country":"경북","kind":"만두","emoji":"🥟","status":"open","note":"만두, 군만두","rating":5,"reviews":2,"visits":[{"show":"BB","episode":245,"title":"경상북도 문경시","year":2024,"label":"245회"}],"shows":["BB"],"primaryShow":"BB"}},{"type":"Feature","geometry":{"type":"Point","coordinates":[126.6264109,36.889263]},"properties":{"id":"kr-baekban-tgA6MqraimgZ","name":"깜상&삼식이네횟집","city":"당진시 채운동","country":"충남","kind":"횟집","emoji":"🍚","status":"open","note":"횟집, 백반","rating":5,"reviews":1,"visits":[{"show":"BB","episode":193,"title":"충청남도 당진시","year":2023,"label":"193회"}],"shows":["BB"],"primaryShow":"BB"}},{"type":"Feature","geometry":{"type":"Point","coordinates":[128.7091824,37.6720353]},"properties":{"id":"kr-baekban-J7nbc7loU1n8","name":"동양식당","city":"평창군 대관령면","country":"강원","kind":"오삼불고기","emoji":"🥩","status":"open","note":"오삼불고기, 한우구이","rating":4,"reviews":5,"visits":[{"show":"BB","episode":37,"title":"강원도 인제군 · 평창군","year":2020,"label":"37회"}],"shows":["BB"],"primaryShow":"BB"}},{"type":"Feature","geometry":{"type":"Point","coordinates":[128.8297872,37.2277131]},"properties":{"id":"kr-baekban-tS5XO4aZEXRg","name":"산능이본가","city":"정선군 사북읍","country":"강원","kind":"곤드레밥","emoji":"🍚","status":"open","note":"곤드레밥, 백반","rating":4.5,"reviews":5,"visits":[{"show":"BB","episode":153,"title":"강원도 정선군","year":2022,"label":"153회"}],"shows":["BB"],"primaryShow":"BB"}},{"type":"Feature","geometry":{"type":"Point","coordinates":[129.4099357,37.0453484]},"properties":{"id":"kr-baekban-QGo7SmKu6fkV","name":"유정식당","city":"울진군 죽변면","country":"경북","kind":"곰치국","emoji":"🍚","status":"open","note":"곰치국, 문어볶음","rating":4.4,"reviews":5,"visits":[{"show":"BB","episode":183,"title":"경상북도 울진군","year":2023,"label":"183회"}],"shows":["BB"],"primaryShow":"BB"}},{"type":"Feature","geometry":{"type":"Point","coordinates":[126.4487802,33.4785192]},"properties":{"id":"kr-baekban-rNfMQeRpkklE","name":"수영밥상 본점","city":"제주시 도평동","country":"제주","kind":"몸국","emoji":"🍲","status":"open","note":"몸국, 고사리육개장","rating":4.8,"reviews":10,"visits":[{"show":"BB","episode":344,"title":"제주도","year":2026,"label":"344회"}],"shows":["BB"],"primaryShow":"BB"}},{"type":"Feature","geometry":{"type":"Point","coordinates":[126.6604933,36.6430874]},"properties":{"id":"kr-baekban-dO7tpLNxhG4C","name":"갈매기횟집","city":"홍성군 홍북읍","country":"충남","kind":"횟집","emoji":"🥩","status":"open","note":"횟집, 굴밥","rating":2.6,"reviews":2,"visits":[{"show":"BB","episode":85,"title":"충청남도 홍성군","year":2021,"label":"85회"}],"shows":["BB"],"primaryShow":"BB"}},{"type":"Feature","geometry":{"type":"Point","coordinates":[127.0358886,37.5280484]},"properties":{"id":"kr-baekban-ef7ec5ClZGaT","name":"금성스테이크 부대찌개","city":"강남구 신사동","country":"서울","kind":"부대찌개","emoji":"🍲","status":"open","note":"부대찌개, 쏘세지","rating":3.8,"reviews":14,"visits":[{"show":"BB","episode":35,"title":"서울특별시 강남구 신사동","year":2020,"label":"35회"}],"shows":["BB"],"primaryShow":"BB"}},{"type":"Feature","geometry":{"type":"Point","coordinates":[127.2355605,35.885757]},"properties":{"id":"kr-baekban-a4Jzi5ZOPuBk","name":"송전산장","city":"완주군 소양면","country":"전북","kind":"닭볶음탕","emoji":"🍗","status":"open","note":"닭볶음탕, 묵은지닭도리탕","rating":4,"reviews":1,"visits":[{"show":"BB","episode":152,"title":"전라북도 완주군","year":2022,"label":"152회"}],"shows":["BB"],"primaryShow":"BB"}},{"type":"Feature","geometry":{"type":"Point","coordinates":[126.9960896,37.5640999]},"properties":{"id":"kr-baekban-VlnDXZvykX7J","name":"황평집닭곰탕","city":"중구 인현동2가","country":"서울","kind":"닭곰탕","emoji":"🍗","status":"open","note":"닭곰탕, 닭무침","rating":4.3,"reviews":40,"visits":[{"show":"BB","episode":340,"title":"임창정의 소주 한 잔의 맛","year":2026,"label":"340회"}],"shows":["BB"],"primaryShow":"BB"}},{"type":"Feature","geometry":{"type":"Point","coordinates":[127.6326294,37.5086393]},"properties":{"id":"kr-baekban-wUMSAS3QJ5Bi","name":"회령손만두국","city":"양평군 용문면","country":"경기","kind":"만두국","emoji":"🥟","status":"open","note":"만두국, 이북식만두","rating":4.4,"reviews":18,"visits":[],"shows":["BB"],"primaryShow":"BB"}},{"type":"Feature","geometry":{"type":"Point","coordinates":[127.9898338,37.172642]},"properties":{"id":"kr-baekban-MLWYJFq4YGRn","name":"꽃댕이 묵마을","city":"제천시 백운면","country":"충북","kind":"한식","emoji":"🍽️","status":"open","note":"한식","rating":4,"reviews":1,"visits":[{"show":"BB","episode":233,"title":"충청북도 제천시","year":2024,"label":"233회"}],"shows":["BB"],"primaryShow":"BB"}},{"type":"Feature","geometry":{"type":"Point","coordinates":[126.8790596,37.4625529]},"properties":{"id":"kr-baekban-rkZs1miF6c1l","name":"개성손만두","city":"광명시 하안동","country":"경기","kind":"만두국","emoji":"🥟","status":"open","note":"만두국, 만두전골","rating":5,"reviews":5,"visits":[{"show":"BB","episode":249,"title":"경기도 광명시","year":2024,"label":"249회"}],"shows":["BB"],"primaryShow":"BB"}},{"type":"Feature","geometry":{"type":"Point","coordinates":[126.9839047,37.5727663]},"properties":{"id":"kr-baekban-aIUYRYkX4Dxl","name":"이문설렁탕","city":"종로구 견지동","country":"서울","kind":"설렁탕","emoji":"🍲","status":"open","note":"설렁탕","rating":3.7,"reviews":68,"visits":[{"show":"BB","episode":121,"title":"추석 특집 1부 전설의 소고기","year":2021,"label":"121회","video":"https://www.youtube.com/watch?v=Ppgkox6wejY"}],"shows":["BB"],"primaryShow":"BB","image":"https://i.ytimg.com/vi/Ppgkox6wejY/hqdefault.jpg"}},{"type":"Feature","geometry":{"type":"Point","coordinates":[127.4658263,36.1921967]},"properties":{"id":"kr-baekban-0IYDdVHS91D2","name":"장춘관","city":"금산군 추부면","country":"충남","kind":"짬뽕","emoji":"🍜","status":"open","note":"짬뽕, 중국집","rating":4.2,"reviews":3,"visits":[{"show":"BB","episode":303,"title":"충청남도 금산군","year":2025,"label":"303회"}],"shows":["BB"],"primaryShow":"BB"}},{"type":"Feature","geometry":{"type":"Point","coordinates":[127.5097422,37.8340827]},"properties":{"id":"kr-baekban-l0HScTDYnLpQ","name":"지중해갈낙탕","city":"가평군 가평읍","country":"경기","kind":"낙지","emoji":"🍲","status":"open","note":"낙지, 갈낙탕","rating":4,"reviews":1,"visits":[{"show":"BB","episode":149,"title":"경기도 가평군","year":2022,"label":"149회"}],"shows":["BB"],"primaryShow":"BB"}},{"type":"Feature","geometry":{"type":"Point","coordinates":[127.13497,34.527184]},"properties":{"id":"kr-baekban-Evco9XJgUdcu","name":"정다운식당","city":"고흥군 도양읍","country":"전남","kind":"생선구이","emoji":"🍚","status":"unknown","note":"생선구이, 생선구이백반","rating":4,"reviews":1,"visits":[{"show":"BB","episode":33,"title":"전라남도 여수시","year":2020,"label":"33회","video":"https://www.youtube.com/watch?v=KcakzvwW7mc"},{"show":"BB","episode":267,"title":"전라남도 고흥군","year":2024,"label":"267회"}],"shows":["BB"],"primaryShow":"BB"}},{"type":"Feature","geometry":{"type":"Point","coordinates":[126.9043521,37.5606012]},"properties":{"id":"kr-baekban-P16GK4qSC2VZ","name":"일등식당","city":"마포구 망원동","country":"서울","kind":"해장국","emoji":"🍲","status":"open","note":"해장국, 뼈해장국","rating":4.2,"reviews":29,"visits":[{"show":"BB","episode":15,"title":"서울특별시 마포구","year":2019,"label":"15회","video":"https://www.youtube.com/watch?v=xgJWMKLVC0g"}],"shows":["BB"],"primaryShow":"BB","image":"https://i.ytimg.com/vi/xgJWMKLVC0g/hqdefault.jpg"}},{"type":"Feature","geometry":{"type":"Point","coordinates":[127.0635205,37.4956711]},"properties":{"id":"kr-baekban-gJYF8olX9zL5","name":"화목","city":"강남구 대치동","country":"서울","kind":"카이센동","emoji":"🍚","status":"open","note":"카이센동, 백반","rating":4.2,"reviews":3,"visits":[{"show":"BB","episode":294,"title":"맛의 부처핸썹 뉴진스님 윤성호의 건강 밥상","year":2025,"label":"294회"}],"shows":["BB"],"primaryShow":"BB"}},{"type":"Feature","geometry":{"type":"Point","coordinates":[127.1295961,36.9169049]},"properties":{"id":"kr-baekban-CQDTU58itZaI","name":"진주회관","city":"천안시","country":"충남","kind":"돈까스","emoji":"🥩","status":"open","note":"돈까스, 우거지갈비탕","rating":4.2,"reviews":7,"visits":[{"show":"BB","episode":272,"title":"충청남도 천안시","year":2024,"label":"272회"}],"shows":["BB"],"primaryShow":"BB"}},{"type":"Feature","geometry":{"type":"Point","coordinates":[126.7445532,34.9184024]},"properties":{"id":"kr-baekban-zsSh0lQES97a","name":"최소희맛집","city":"나주시 세지면","country":"전남","kind":"애호박찌개","emoji":"🍲","status":"open","note":"애호박찌개, 병어조림","rating":4,"reviews":1,"visits":[{"show":"BB","episode":280,"title":"전라남도 나주시","year":2025,"label":"280회"}],"shows":["BB"],"primaryShow":"BB"}},{"type":"Feature","geometry":{"type":"Point","coordinates":[126.3834166,34.7900051]},"properties":{"id":"kr-baekban-9Zv7XFM4i3oh","name":"태동반점","city":"목포시 죽동","country":"전남","kind":"짜장면","emoji":"🍜","status":"open","note":"짜장면, 중깐","rating":3.7,"reviews":33,"visits":[],"shows":["BB"],"primaryShow":"BB"}},{"type":"Feature","geometry":{"type":"Point","coordinates":[126.9969897,35.4246714]},"properties":{"id":"kr-baekban-Rce8dcPsTUpU","name":"장미가든","city":"담양군 용면","country":"전남","kind":"메기탕","emoji":"🍽️","status":"open","note":"메기탕, 메기찜","rating":4.3,"reviews":3,"visits":[{"show":"BB","episode":288,"title":"전라남도 담양군","year":2025,"label":"288회"}],"shows":["BB"],"primaryShow":"BB"}},{"type":"Feature","geometry":{"type":"Point","coordinates":[126.4848918,37.7478638]},"properties":{"id":"kr-baekban-x71cUzqUyNeL","name":"용흥궁식당","city":"강화군 강화읍","country":"인천","kind":"젓국갈비","emoji":"🍚","status":"open","note":"젓국갈비, 백반","rating":4.4,"reviews":10,"visits":[{"show":"BB","episode":118,"title":"인천광역시 강화군","year":2021,"label":"118회"}],"shows":["BB"],"primaryShow":"BB"}},{"type":"Feature","geometry":{"type":"Point","coordinates":[129.121288,37.557168]},"properties":{"id":"kr-baekban-r6T3eBKCjdRM","name":"경기돌섬횟집","city":"동해시 묵호진동","country":"강원","kind":"킹크랩","emoji":"🐟","status":"open","note":"킹크랩, 생선회","rating":4.5,"reviews":1,"visits":[{"show":"BB","episode":160,"title":"강원도 동해시 · 삼척시","year":2022,"label":"160회"}],"shows":["BB"],"primaryShow":"BB"}},{"type":"Feature","geometry":{"type":"Point","coordinates":[128.4227469,34.841368]},"properties":{"id":"kr-baekban-ZPBi6c9T1hvI","name":"멍게가","city":"통영시 항남동","country":"경남","kind":"물회","emoji":"🍚","status":"open","note":"물회, 멍게비빔밥","rating":4.2,"reviews":6,"visits":[{"show":"BB","episode":290,"title":"경상남도 통영시","year":2025,"label":"290회"}],"shows":["BB"],"primaryShow":"BB"}},{"type":"Feature","geometry":{"type":"Point","coordinates":[126.6306071,37.4852038]},"properties":{"id":"kr-baekban-jrU42VS0XFeh","name":"물레방아","city":"동구 화수동","country":"인천","kind":"한치","emoji":"🍽️","status":"open","note":"한치, 한치무침","rating":4.1,"reviews":5,"visits":[{"show":"BB","episode":260,"title":"인천광역시","year":2024,"label":"260회"}],"shows":["BB"],"primaryShow":"BB"}},{"type":"Feature","geometry":{"type":"Point","coordinates":[126.8486875,37.4812571]},"properties":{"id":"kr-baekban-c4KOPfoWCG7h","name":"서해박속낙지","city":"광명시 광명동","country":"경기","kind":"낙지","emoji":"🐟","status":"open","note":"낙지, 박속낙지","rating":4.5,"reviews":3,"visits":[{"show":"BB","episode":249,"title":"경기도 광명시","year":2024,"label":"249회"}],"shows":["BB"],"primaryShow":"BB"}},{"type":"Feature","geometry":{"type":"Point","coordinates":[128.6798856,35.2247677]},"properties":{"id":"kr-baekban-32d3WKxbuBgN","name":"창원집식당","city":"창원시","country":"경남","kind":"육회비빔밥","emoji":"🍚","status":"open","note":"육회비빔밥, 한우국밥","rating":4.5,"reviews":8,"visits":[{"show":"BB","episode":313,"title":"창원특례시","year":2025,"label":"313회"}],"shows":["BB"],"primaryShow":"BB"}},{"type":"Feature","geometry":{"type":"Point","coordinates":[126.1116288,34.8275832]},"properties":{"id":"kr-baekban-OIUUG5bHw1Xw","name":"하나로식당","city":"신안군 암태면","country":"전남","kind":"백반","emoji":"🍚","status":"open","note":"백반, 병어조림","rating":4,"reviews":6,"visits":[{"show":"BB","episode":11,"title":"전라남도 신안군","year":2019,"label":"11회"}],"shows":["BB"],"primaryShow":"BB"}},{"type":"Feature","geometry":{"type":"Point","coordinates":[126.9885293,37.5693574]},"properties":{"id":"kr-baekban-eY0qavyOXNUz","name":"가향","city":"종로구 관철동","country":"서울","kind":"횟집","emoji":"🍗","status":"open","note":"횟집, 가오리찜","rating":5,"reviews":1,"visits":[{"show":"BB","episode":182,"title":"서울특별시 종로구","year":2022,"label":"182회"}],"shows":["BB"],"primaryShow":"BB"}},{"type":"Feature","geometry":{"type":"Point","coordinates":[126.9720003,37.5764696]},"properties":{"id":"kr-baekban-Hcct1UwmvZ9U","name":"경동맛집","city":"종로구 내자동","country":"서울","kind":"생선조림","emoji":"🍗","status":"open","note":"생선조림, 가오리찜","rating":4,"reviews":2,"visits":[{"show":"BB","episode":40,"title":"서울특별시 종로구","year":2020,"label":"40회"}],"shows":["BB"],"primaryShow":"BB"}},{"type":"Feature","geometry":{"type":"Point","coordinates":[126.9815331,37.5872638]},"properties":{"id":"kr-baekban-u33Ie7TM0IZl","name":"다락정","city":"종로구 삼청동","country":"서울","kind":"만두국","emoji":"🥟","status":"open","note":"만두국, 만두전골","rating":3.4,"reviews":9,"visits":[{"show":"BB","episode":168,"title":"서울특별시 종로구","year":2022,"label":"168회"}],"shows":["BB"],"primaryShow":"BB"}},{"type":"Feature","geometry":{"type":"Point","coordinates":[127.0014157,37.5702069]},"properties":{"id":"kr-baekban-QJr8KiDJO31Y","name":"오라이등심","city":"종로구 종로5가","country":"서울","kind":"나물","emoji":"🍚","status":"open","note":"나물, 동그랑땡","rating":3.7,"reviews":3,"visits":[{"show":"BB","episode":105,"title":"서울특별시 종로구","year":2021,"label":"105회"}],"shows":["BB"],"primaryShow":"BB"}},{"type":"Feature","geometry":{"type":"Point","coordinates":[127.0175429,37.5708433]},"properties":{"id":"kr-baekban-RzakA1Jccnix","name":"광주식당","city":"종로구 창신동","country":"서울","kind":"동태탕","emoji":"🍽️","status":"open","note":"동태탕","rating":4.4,"reviews":14,"visits":[{"show":"BB","episode":19,"title":"서울특별시 동대문구","year":2019,"label":"19회"}],"shows":["BB"],"primaryShow":"BB"}},{"type":"Feature","geometry":{"type":"Point","coordinates":[126.9860086,37.5782908]},"properties":{"id":"kr-baekban-55XoQm4iOZBo","name":"삼지","city":"종로구 재동","country":"서울","kind":"집밥","emoji":"🍚","status":"open","note":"집밥, 백반","rating":4.1,"reviews":5,"visits":[{"show":"BB","episode":65,"title":"서울특별시 종로구","year":2020,"label":"65회"}],"shows":["BB"],"primaryShow":"BB"}},{"type":"Feature","geometry":{"type":"Point","coordinates":[126.9915427,37.5765154]},"properties":{"id":"kr-baekban-ako2lPuocpAU","name":"순라길","city":"종로구 권농동","country":"서울","kind":"홍어","emoji":"🍽️","status":"open","note":"홍어, 홍어삼합","rating":0,"reviews":0,"visits":[{"show":"BB","episode":261,"title":"서울특별시","year":2024,"label":"261회"}],"shows":["BB"],"primaryShow":"BB"}},{"type":"Feature","geometry":{"type":"Point","coordinates":[126.9696746,37.5769499]},"properties":{"id":"kr-baekban-4vzPMcFKe3tG","name":"별미곱창","city":"종로구 필운동","country":"서울","kind":"야채곱창","emoji":"🥩","status":"open","note":"야채곱창","rating":4.3,"reviews":6,"visits":[{"show":"BB","episode":40,"title":"서울특별시 종로구","year":2020,"label":"40회"}],"shows":["BB"],"primaryShow":"BB"}},{"type":"Feature","geometry":{"type":"Point","coordinates":[127.0065256,37.5704432]},"properties":{"id":"kr-baekban-JSNMXJf0vsd9","name":"덕성각","city":"종로구 종로6가","country":"서울","kind":"짜장면","emoji":"🍜","status":"open","note":"짜장면, 옛날짜장","rating":4.5,"reviews":10,"visits":[{"show":"BB","episode":105,"title":"서울특별시 종로구","year":2021,"label":"105회"}],"shows":["BB"],"primaryShow":"BB"}},{"type":"Feature","geometry":{"type":"Point","coordinates":[126.98069,37.5801317]},"properties":{"id":"kr-baekban-uM0dbpvHgIF3","name":"황생가칼국수","city":"종로구 소격동","country":"서울","kind":"칼국수","emoji":"🍜","status":"open","note":"칼국수, 사골칼국수","rating":4,"reviews":87,"visits":[{"show":"BB","episode":65,"title":"서울특별시 종로구","year":2020,"label":"65회","video":"https://www.youtube.com/watch?v=3BX04p8iycc"}],"shows":["BB"],"primaryShow":"BB","image":"https://i.ytimg.com/vi/3BX04p8iycc/hqdefault.jpg"}},{"type":"Feature","geometry":{"type":"Point","coordinates":[126.9660928,37.5932163]},"properties":{"id":"kr-baekban-ksKEt3HtDLvz","name":"자하손만두","city":"종로구 부암동","country":"서울","kind":"만두국","emoji":"🥟","status":"open","note":"만두국","rating":4,"reviews":80,"visits":[{"show":"BB","episode":89,"title":"서울특별시 종로구","year":2021,"label":"89회","video":"https://www.youtube.com/watch?v=8NVUoQHgv6c"}],"shows":["BB"],"primaryShow":"BB","image":"https://i.ytimg.com/vi/8NVUoQHgv6c/hqdefault.jpg"}},{"type":"Feature","geometry":{"type":"Point","coordinates":[126.9875023,37.5794104]},"properties":{"id":"kr-baekban-nhAqGA02Ocm1","name":"밀과보리","city":"종로구 계동","country":"서울","kind":"미나리전","emoji":"🍽️","status":"open","note":"미나리전, 곤드레밥","rating":4.3,"reviews":17,"visits":[{"show":"BB","episode":65,"title":"서울특별시 종로구","year":2020,"label":"65회"}],"shows":["BB"],"primaryShow":"BB"}},{"type":"Feature","geometry":{"type":"Point","coordinates":[126.9943888,37.5700659]},"properties":{"id":"kr-baekban-HXiE5DUt6pXw","name":"부산횟집","city":"종로구 장사동","country":"서울","kind":"횟집","emoji":"🐟","status":"open","note":"횟집, 미역","rating":4.2,"reviews":8,"visits":[{"show":"BB","episode":26,"title":"서울특별시 종로구","year":2019,"label":"26회","video":"https://www.youtube.com/watch?v=7jME7oKtccQ"}],"shows":["BB"],"primaryShow":"BB","image":"https://i.ytimg.com/vi/7jME7oKtccQ/hqdefault.jpg"}},{"type":"Feature","geometry":{"type":"Point","coordinates":[126.9971,37.57355]},"properties":{"id":"kr-baekban-2e73DtaEGSkH","name":"충무칼국수","city":"종로구 인의동","country":"서울","kind":"칼국수","emoji":"🍜","status":"open","note":"칼국수, 보쌈","rating":4.4,"reviews":13,"visits":[{"show":"BB","episode":79,"title":"서울특별시 중구","year":2020,"label":"79회"},{"show":"BB","episode":132,"title":"서울특별시 중구 · 종로구","year":2021,"label":"132회"}],"shows":["BB"],"primaryShow":"BB"}},{"type":"Feature","geometry":{"type":"Point","coordinates":[126.971111,37.5797919]},"properties":{"id":"kr-baekban-6S7j39Vg35mf","name":"용금옥","city":"종로구 통인동","country":"서울","kind":"추어탕","emoji":"🍲","status":"open","note":"추어탕, 서울식추어탕","rating":4,"reviews":2,"visits":[{"show":"BB","episode":89,"title":"서울특별시 종로구","year":2021,"label":"89회"}],"shows":["BB"],"primaryShow":"BB"}},{"type":"Feature","geometry":{"type":"Point","coordinates":[127.0050404,37.5806097]},"properties":{"id":"kr-baekban-XFX9VvbWPXRy","name":"이물비 어고집밥","city":"종로구 동숭동","country":"서울","kind":"집밥","emoji":"🍚","status":"open","note":"집밥, 돼지갈비찜","rating":3,"reviews":2,"visits":[{"show":"BB","episode":219,"title":"서울특별시 종로구","year":2023,"label":"219회"}],"shows":["BB"],"primaryShow":"BB"}},{"type":"Feature","geometry":{"type":"Point","coordinates":[126.9882793,37.5720328]},"properties":{"id":"kr-baekban-TbHBvvTWVSIo","name":"유진식당","city":"종로구 낙원동","country":"서울","kind":"평양냉면","emoji":"🍜","status":"open","note":"평양냉면","rating":4,"reviews":61,"visits":[{"show":"BB","episode":26,"title":"서울특별시 종로구","year":2019,"label":"26회","video":"https://www.youtube.com/watch?v=7dF0aDezgxs"}],"shows":["BB"],"primaryShow":"BB","image":"https://i.ytimg.com/vi/7dF0aDezgxs/hqdefault.jpg"}},{"type":"Feature","geometry":{"type":"Point","coordinates":[126.9845489,37.5752536]},"properties":{"id":"kr-baekban-aUGyPH6R0tRk","name":"인사동양조장","city":"종로구 관훈동","country":"서울","kind":"전라도음식","emoji":"🥞","status":"open","note":"전라도음식, 술집","rating":4.7,"reviews":4,"visits":[{"show":"BB","episode":182,"title":"서울특별시 종로구","year":2022,"label":"182회"}],"shows":["BB"],"primaryShow":"BB"}},{"type":"Feature","geometry":{"type":"Point","coordinates":[126.9715716,37.5796602]},"properties":{"id":"kr-baekban-u2U1i8SeDLH3","name":"창성갈비","city":"종로구 창성동","country":"서울","kind":"돼지갈비","emoji":"🥩","status":"open","note":"돼지갈비, 양념갈비","rating":0,"reviews":0,"visits":[{"show":"BB","episode":40,"title":"서울특별시 종로구","year":2020,"label":"40회"}],"shows":["BB"],"primaryShow":"BB"}},{"type":"Feature","geometry":{"type":"Point","coordinates":[127.0052749,37.5721667]},"properties":{"id":"kr-baekban-0P1CZ8gezlo9","name":"평원숯불갈비","city":"종로구 효제동","country":"서울","kind":"돼지갈비","emoji":"🥩","status":"open","note":"돼지갈비, 물갈비","rating":4.6,"reviews":6,"visits":[{"show":"BB","episode":26,"title":"서울특별시 종로구","year":2019,"label":"26회"}],"shows":["BB"],"primaryShow":"BB"}},{"type":"Feature","geometry":{"type":"Point","coordinates":[126.9948271,37.5696825]},"properties":{"id":"kr-baekban-HibiMJkJURNp","name":"새집","city":"종로구 장사동","country":"서울","kind":"백반","emoji":"🍚","status":"unknown","note":"백반, 가정식백반","rating":0,"reviews":0,"visits":[{"show":"BB","episode":105,"title":"서울특별시 종로구","year":2021,"label":"105회"}],"shows":["BB"],"primaryShow":"BB"}},{"type":"Feature","geometry":{"type":"Point","coordinates":[126.9813009,37.5721072]},"properties":{"id":"kr-baekban-l6gVt6O0gsWG","name":"참새집","city":"종로구 청진동","country":"서울","kind":"꼬치","emoji":"🥩","status":"open","note":"꼬치, 참새구이","rating":3.9,"reviews":9,"visits":[{"show":"BB","episode":26,"title":"서울특별시 종로구","year":2019,"label":"26회"}],"shows":["BB"],"primaryShow":"BB"}},{"type":"Feature","geometry":{"type":"Point","coordinates":[126.9708015,37.5776553]},"properties":{"id":"kr-baekban-QBc1NKeAZ5DI","name":"마지","city":"종로구 체부동","country":"서울","kind":"채식","emoji":"🥗","status":"open","note":"채식, 사찰음식","rating":4.7,"reviews":3,"visits":[{"show":"BB","episode":182,"title":"서울특별시 종로구","year":2022,"label":"182회"}],"shows":["BB"],"primaryShow":"BB"}},{"type":"Feature","geometry":{"type":"Point","coordinates":[126.9809267,37.5721761]},"properties":{"id":"kr-baekban-xSIbvxMV3utS","name":"병천유황오리","city":"종로구 청진동","country":"서울","kind":"오리고기","emoji":"🍗","status":"open","note":"오리고기, 오리훈제","rating":4.3,"reviews":10,"visits":[{"show":"BB","episode":265,"title":"서울특별시 송파구, 종로구, 마포구","year":2024,"label":"265회"}],"shows":["BB"],"primaryShow":"BB"}},{"type":"Feature","geometry":{"type":"Point","coordinates":[127.0057389,37.57035]},"properties":{"id":"kr-baekban-X8mwFWa6Adu7","name":"진옥화할매 원조 닭한마리","city":"종로구 종로5가","country":"서울","kind":"닭한마리","emoji":"🍗","status":"open","note":"닭한마리, 떡","rating":4.3,"reviews":134,"visits":[{"show":"BB","episode":105,"title":"서울특별시 종로구","year":2021,"label":"105회","video":"https://www.youtube.com/watch?v=hBJOdx33TKk"}],"shows":["BB"],"primaryShow":"BB","image":"https://i.ytimg.com/vi/hBJOdx33TKk/hqdefault.jpg"}},{"type":"Feature","geometry":{"type":"Point","coordinates":[127.0028524,37.5767242]},"properties":{"id":"kr-baekban-KxOK5wPpKMsi","name":"풍농","city":"종로구 이화동","country":"서울","kind":"집밥","emoji":"🍚","status":"unknown","note":"집밥, 백반","rating":0,"reviews":0,"visits":[{"show":"BB","episode":219,"title":"서울특별시 종로구","year":2023,"label":"219회"}],"shows":["BB"],"primaryShow":"BB"}},{"type":"Feature","geometry":{"type":"Point","coordinates":[126.9730496,37.5765781]},"properties":{"id":"kr-baekban-ajEDWiGwGegh","name":"강구미주구리","city":"종로구 통의동","country":"서울","kind":"갈치","emoji":"🍽️","status":"open","note":"갈치, 갈치조림","rating":3.5,"reviews":9,"visits":[{"show":"BB","episode":168,"title":"서울특별시 종로구","year":2022,"label":"168회"}],"shows":["BB"],"primaryShow":"BB"}},{"type":"Feature","geometry":{"type":"Point","coordinates":[126.9715667,37.6069978]},"properties":{"id":"kr-baekban-hAPq09HmVZQC","name":"이식당","city":"종로구 평창동","country":"서울","kind":"한우","emoji":"🍚","status":"open","note":"한우, 갈비덮밥","rating":4.2,"reviews":4,"visits":[{"show":"BB","episode":122,"title":"추석 특집 2부 소고기 잔치","year":2021,"label":"122회"}],"shows":["BB"],"primaryShow":"BB"}},{"type":"Feature","geometry":{"type":"Point","coordinates":[126.9640183,37.5729551]},"properties":{"id":"kr-baekban-8f5T0eHfa0ms","name":"능라밥상","city":"종로구 행촌동","country":"서울","kind":"평양냉면","emoji":"🍜","status":"open","note":"평양냉면, 이북음식","rating":3.7,"reviews":7,"visits":[{"show":"BB","episode":151,"title":"서울특별시  동대문구 · 종로구 · 강북구","year":2022,"label":"151회"}],"shows":["BB"],"primaryShow":"BB"}},{"type":"Feature","geometry":{"type":"Point","coordinates":[127.0011774,37.5704457]},"properties":{"id":"kr-baekban-44OgR5q1xNHX","name":"통큰누이네 육회빈대떡","city":"종로구 종로5가","country":"서울","kind":"빈대떡","emoji":"🥩","status":"open","note":"빈대떡, 육회","rating":4.3,"reviews":34,"visits":[{"show":"BB","episode":105,"title":"서울특별시 종로구","year":2021,"label":"105회"}],"shows":["BB"],"primaryShow":"BB"}},{"type":"Feature","geometry":{"type":"Point","coordinates":[126.9972991,37.5737148]},"properties":{"id":"kr-baekban-KdEYy7mdz6Si","name":"고래불수산","city":"종로구 인의동","country":"서울","kind":"횟집","emoji":"🥩","status":"open","note":"횟집, 고등어구이","rating":0,"reviews":0,"visits":[{"show":"BB","episode":168,"title":"서울특별시 종로구","year":2022,"label":"168회"}],"shows":["BB"],"primaryShow":"BB"}},{"type":"Feature","geometry":{"type":"Point","coordinates":[126.9917317,37.5618097]},"properties":{"id":"kr-baekban-4yYMbY7SC08r","name":"뚱보식당","city":"중구 필동1가","country":"서울","kind":"돼지갈비","emoji":"🥩","status":"open","note":"돼지갈비, 고추장불고기","rating":4.3,"reviews":13,"visits":[{"show":"BB","episode":155,"title":"서울특별시 중구","year":2022,"label":"155회"}],"shows":["BB"],"primaryShow":"BB"}},{"type":"Feature","geometry":{"type":"Point","coordinates":[126.9913418,37.5632872]},"properties":{"id":"kr-baekban-RO0gRPbxk4xS","name":"사랑방칼국수","city":"중구 충무로3가","country":"서울","kind":"백숙","emoji":"🍜","status":"open","note":"백숙, 칼국수","rating":4.3,"reviews":90,"visits":[{"show":"BB","episode":3,"title":"서울특별시 중구 충무로","year":2019,"label":"3회"}],"shows":["BB"],"primaryShow":"BB"}},{"type":"Feature","geometry":{"type":"Point","coordinates":[126.9838454,37.5640165]},"properties":{"id":"kr-baekban-UfFoavakIHPm","name":"서울복집","city":"중구 명동1가","country":"서울","kind":"복어","emoji":"🍽️","status":"open","note":"복어, 참복","rating":3.2,"reviews":2,"visits":[{"show":"BB","episode":211,"title":"서울특별시","year":2023,"label":"211회"}],"shows":["BB"],"primaryShow":"BB"}},{"type":"Feature","geometry":{"type":"Point","coordinates":[126.9819824,37.5673602]},"properties":{"id":"kr-baekban-5m0pVSrJduo4","name":"충무집","city":"중구 다동","country":"서울","kind":"횟집","emoji":"🐟","status":"open","note":"횟집, 도다리쑥국","rating":4,"reviews":18,"visits":[{"show":"BB","episode":94,"title":"서울특별시 중구","year":2021,"label":"94회"}],"shows":["BB"],"primaryShow":"BB"}},{"type":"Feature","geometry":{"type":"Point","coordinates":[127.019526,37.5658195]},"properties":{"id":"kr-baekban-ssRWLZyhXfyB","name":"홍연옥","city":"중구 황학동","country":"서울","kind":"콩나물국밥","emoji":"🍚","status":"open","note":"콩나물국밥, 백반","rating":3,"reviews":1,"visits":[],"shows":["BB"],"primaryShow":"BB"}},{"type":"Feature","geometry":{"type":"Point","coordinates":[126.9972963,37.567114]},"properties":{"id":"kr-baekban-Ug3GqytEH7fm","name":"주유소식당","city":"중구 을지로4가","country":"서울","kind":"낙지볶음","emoji":"🐟","status":"unknown","note":"낙지볶음, 제육볶음","rating":3.9,"reviews":3,"visits":[{"show":"BB","episode":30,"title":"서울특별시 중구","year":2019,"label":"30회"}],"shows":["BB"],"primaryShow":"BB"}},{"type":"Feature","geometry":{"type":"Point","coordinates":[127.0103314,37.5534147]},"properties":{"id":"kr-baekban-JKfSPlB3bX8b","name":"춘천막국수","city":"중구 신당동","country":"서울","kind":"막국수","emoji":"🍜","status":"open","note":"막국수, 이북식찜닭","rating":4.4,"reviews":14,"visits":[{"show":"BB","episode":12,"title":"서울특별시 용산구 · 성동구 · 중구","year":2019,"label":"12회"}],"shows":["BB"],"primaryShow":"BB"}},{"type":"Feature","geometry":{"type":"Point","coordinates":[126.9913346,37.5633313]},"properties":{"id":"kr-baekban-rgsTWoDK2FRO","name":"동원집","city":"중구 초동","country":"서울","kind":"감자탕","emoji":"🍲","status":"open","note":"감자탕, 감자국","rating":4.1,"reviews":66,"visits":[{"show":"BB","episode":30,"title":"서울특별시 중구","year":2019,"label":"30회"}],"shows":["BB"],"primaryShow":"BB"}},{"type":"Feature","geometry":{"type":"Point","coordinates":[126.995473,37.563959]},"properties":{"id":"kr-baekban-zTCgsF4VqkyS","name":"잊지마식당","city":"중구 인현동2가","country":"서울","kind":"생선구이","emoji":"🍚","status":"open","note":"생선구이, 백반","rating":4.2,"reviews":4,"visits":[{"show":"BB","episode":3,"title":"서울특별시 중구 충무로","year":2019,"label":"3회"}],"shows":["BB"],"primaryShow":"BB"}},{"type":"Feature","geometry":{"type":"Point","coordinates":[127.0049231,37.5625851]},"properties":{"id":"kr-baekban-mYBmjkTC08Hc","name":"서울곰탕","city":"중구 쌍림동","country":"서울","kind":"곰탕","emoji":"🍲","status":"open","note":"곰탕","rating":4,"reviews":1,"visits":[{"show":"BB","episode":155,"title":"서울특별시 중구","year":2022,"label":"155회"}],"shows":["BB"],"primaryShow":"BB"}},{"type":"Feature","geometry":{"type":"Point","coordinates":[126.9769684,37.5599914]},"properties":{"id":"kr-baekban-nMpM5dotyMeE","name":"왕성식당","city":"중구 남창동","country":"서울","kind":"갈치","emoji":"🍽️","status":"open","note":"갈치, 갈치조림","rating":4.1,"reviews":7,"visits":[{"show":"BB","episode":90,"title":"서울특별시 중구","year":2021,"label":"90회"}],"shows":["BB"],"primaryShow":"BB"}},{"type":"Feature","geometry":{"type":"Point","coordinates":[126.9987685,37.5685173]},"properties":{"id":"kr-baekban-P8ksmb5mXMid","name":"보건옥","city":"중구 주교동","country":"서울","kind":"김치찌개","emoji":"🍲","status":"open","note":"김치찌개, 서울식불고기","rating":3.9,"reviews":7,"visits":[{"show":"BB","episode":121,"title":"추석 특집 1부 전설의 소고기","year":2021,"label":"121회"}],"shows":["BB"],"primaryShow":"BB"}},{"type":"Feature","geometry":{"type":"Point","coordinates":[126.992225,37.5617667]},"properties":{"id":"kr-baekban-GRrAA3vkZ7De","name":"충무로쭈꾸미불고기 충무로본점","city":"중구 필동1가","country":"서울","kind":"쭈꾸미","emoji":"🥩","status":"open","note":"쭈꾸미, 키조개","rating":4.3,"reviews":49,"visits":[{"show":"BB","episode":155,"title":"서울특별시 중구","year":2022,"label":"155회"}],"shows":["BB"],"primaryShow":"BB"}},{"type":"Feature","geometry":{"type":"Point","coordinates":[126.9770936,37.560009]},"properties":{"id":"kr-baekban-Tsi1JsE4pReY","name":"진주집","city":"중구 남창동","country":"서울","kind":"꼬리곰탕","emoji":"🍲","status":"open","note":"꼬리곰탕, 꼬리찜","rating":3.6,"reviews":20,"visits":[{"show":"BB","episode":91,"title":"전라남도 여수시","year":2021,"label":"91회"}],"shows":["BB"],"primaryShow":"BB"}},{"type":"Feature","geometry":{"type":"Point","coordinates":[126.9760935,37.5642371]},"properties":{"id":"kr-baekban-RibyrYTmx3ib","name":"유림면","city":"중구 서소문동","country":"서울","kind":"메밀국수","emoji":"🍜","status":"open","note":"메밀국수, 비빔메밀","rating":4,"reviews":76,"visits":[{"show":"BB","episode":94,"title":"서울특별시 중구","year":2021,"label":"94회","video":"https://www.youtube.com/watch?v=jMhlAI9qdGM"}],"shows":["BB"],"primaryShow":"BB","image":"https://i.ytimg.com/vi/jMhlAI9qdGM/hqdefault.jpg"}},{"type":"Feature","geometry":{"type":"Point","coordinates":[126.9800349,37.5662396]},"properties":{"id":"kr-baekban-mTwA7avPdx13","name":"라 칸티나","city":"중구 을지로1가","country":"서울","kind":"이탈리아음식","emoji":"🍝","status":"open","note":"이탈리아음식","rating":3.7,"reviews":17,"visits":[{"show":"BB","episode":94,"title":"서울특별시 중구","year":2021,"label":"94회"}],"shows":["BB"],"primaryShow":"BB"}},{"type":"Feature","geometry":{"type":"Point","coordinates":[126.990285,37.565034]},"properties":{"id":"kr-baekban-n6A4YyOH9cxi","name":"골목식당","city":"중구 저동2가","country":"서울","kind":"보쌈","emoji":"🍲","status":"open","note":"보쌈, 청국장","rating":3,"reviews":2,"visits":[{"show":"BB","episode":30,"title":"서울특별시 중구","year":2019,"label":"30회"}],"shows":["BB"],"primaryShow":"BB"}},{"type":"Feature","geometry":{"type":"Point","coordinates":[126.9785551,37.5673053]},"properties":{"id":"kr-baekban-r2247lZhVEn0","name":"이북 만두","city":"중구 무교동","country":"서울","kind":"만두국","emoji":"🥟","status":"open","note":"만두국, 이북만두","rating":2.9,"reviews":20,"visits":[{"show":"BB","episode":94,"title":"서울특별시 중구","year":2021,"label":"94회"}],"shows":["BB"],"primaryShow":"BB"}},{"type":"Feature","geometry":{"type":"Point","coordinates":[126.9959902,37.5673318]},"properties":{"id":"kr-baekban-OokYz3VQezsQ","name":"신성식당","city":"중구 산림동","country":"서울","kind":"백반","emoji":"🍚","status":"unknown","note":"백반, 백반집","rating":0,"reviews":0,"visits":[{"show":"BB","episode":155,"title":"서울특별시 중구","year":2022,"label":"155회"}],"shows":["BB"],"primaryShow":"BB"}},{"type":"Feature","geometry":{"type":"Point","coordinates":[127.0134684,37.5647672]},"properties":{"id":"kr-baekban-eBMiWSZiDgJ0","name":"백송","city":"중구 신당동","country":"서울","kind":"짝갈비","emoji":"🥩","status":"open","note":"짝갈비, 고기집","rating":4.6,"reviews":18,"visits":[{"show":"BB","episode":122,"title":"추석 특집 2부 소고기 잔치","year":2021,"label":"122회","video":"https://www.youtube.com/watch?v=P8u90vJQS8g"}],"shows":["BB"],"primaryShow":"BB","image":"https://i.ytimg.com/vi/P8u90vJQS8g/hqdefault.jpg"}},{"type":"Feature","geometry":{"type":"Point","coordinates":[126.9952,37.5634917]},"properties":{"id":"kr-baekban-3JRKaFtKBn6F","name":"통나무집","city":"중구 인현동2가","country":"서울","kind":"이모카세","emoji":"🍢","status":"unknown","note":"이모카세, 김치오뎅탕","rating":3.8,"reviews":5,"visits":[{"show":"BB","episode":3,"title":"서울특별시 중구 충무로","year":2019,"label":"3회"}],"shows":["BB"],"primaryShow":"BB"}},{"type":"Feature","geometry":{"type":"Point","coordinates":[127.0054617,37.5686876]},"properties":{"id":"kr-baekban-mB4qjLl2KLvA","name":"경상도집","city":"중구 을지로6가","country":"서울","kind":"돼지갈비","emoji":"🍚","status":"open","note":"돼지갈비, 콩나물국","rating":3.8,"reviews":15,"visits":[{"show":"BB","episode":19,"title":"서울특별시 동대문구","year":2019,"label":"19회"}],"shows":["BB"],"primaryShow":"BB"}},{"type":"Feature","geometry":{"type":"Point","coordinates":[127.0195515,37.5661034]},"properties":{"id":"kr-baekban-zBpX86ajLPjt","name":"옥경이네 건생선","city":"중구 황학동","country":"서울","kind":"갑오징어구이","emoji":"🥩","status":"open","note":"갑오징어구이, 생선구이","rating":4.2,"reviews":52,"visits":[{"show":"BB","episode":173,"title":"서울특별시 중구","year":2022,"label":"173회","video":"https://www.youtube.com/watch?v=YU1HL_AQxf8"}],"shows":["BB"],"primaryShow":"BB","image":"https://i.ytimg.com/vi/YU1HL_AQxf8/hqdefault.jpg"}},{"type":"Feature","geometry":{"type":"Point","coordinates":[127.0031422,37.5602191]},"properties":{"id":"kr-baekban-ODj4nYz5lMpI","name":"산정","city":"중구 장충동2가","country":"서울","kind":"오겹살","emoji":"🍽️","status":"open","note":"오겹살, 배추탕","rating":3.5,"reviews":1,"visits":[{"show":"BB","episode":79,"title":"서울특별시 중구","year":2020,"label":"79회"}],"shows":["BB"],"primaryShow":"BB"}},{"type":"Feature","geometry":{"type":"Point","coordinates":[126.993525,37.5621082]},"properties":{"id":"kr-baekban-sg5HeZ2KVWF8","name":"학다방","city":"중구 필동1가","country":"서울","kind":"전통차","emoji":"🥞","status":"unknown","note":"전통차, 쌍화차","rating":0,"reviews":0,"visits":[{"show":"BB","episode":3,"title":"서울특별시 중구 충무로","year":2019,"label":"3회"}],"shows":["BB"],"primaryShow":"BB"}},{"type":"Feature","geometry":{"type":"Point","coordinates":[126.9956823,37.5621093]},"properties":{"id":"kr-baekban-0R3eU2NjieIR","name":"충무로청국장","city":"중구 충무로4가","country":"서울","kind":"청국장","emoji":"🍚","status":"open","note":"청국장, 청국장정식","rating":4.2,"reviews":5,"visits":[],"shows":["BB"],"primaryShow":"BB"}},{"type":"Feature","geometry":{"type":"Point","coordinates":[126.984471,37.56038]},"properties":{"id":"kr-baekban-jCgrNHu5bLtH","name":"조박사등갈비","city":"중구 회현동3가","country":"서울","kind":"등갈비","emoji":"🥩","status":"open","note":"등갈비, 철판제육","rating":3,"reviews":2,"visits":[{"show":"BB","episode":90,"title":"서울특별시 중구","year":2021,"label":"90회"}],"shows":["BB"],"primaryShow":"BB"}},{"type":"Feature","geometry":{"type":"Point","coordinates":[126.9891709,37.5663605]},"properties":{"id":"kr-baekban-LDSymW7WGhjO","name":"전주옥","city":"중구 을지로2가","country":"서울","kind":"오징어","emoji":"🥩","status":"open","note":"오징어, 불갈비","rating":3.9,"reviews":17,"visits":[{"show":"BB","episode":173,"title":"서울특별시 중구","year":2022,"label":"173회"}],"shows":["BB"],"primaryShow":"BB"}},{"type":"Feature","geometry":{"type":"Point","coordinates":[126.9686748,37.558607]},"properties":{"id":"kr-baekban-tSzKGsu5UqVl","name":"르셰프 블루","city":"중구 중림동","country":"서울","kind":"프랑스요리","emoji":"🍽️","status":"open","note":"프랑스요리, 코스요리","rating":5,"reviews":5,"visits":[{"show":"BB","episode":182,"title":"서울특별시 종로구","year":2022,"label":"182회"}],"shows":["BB"],"primaryShow":"BB"}},{"type":"Feature","geometry":{"type":"Point","coordinates":[126.9743381,37.5521681]},"properties":{"id":"kr-baekban-X9jeYCfjfMo5","name":"일미장어","city":"용산구 동자동","country":"서울","kind":"장어","emoji":"🥩","status":"open","note":"장어, 장어구이","rating":4.4,"reviews":7,"visits":[{"show":"BB","episode":79,"title":"서울특별시 중구","year":2020,"label":"79회"}],"shows":["BB"],"primaryShow":"BB"}},{"type":"Feature","geometry":{"type":"Point","coordinates":[126.9701829,37.5366941]},"properties":{"id":"kr-baekban-tLWPXtXCrvJ3","name":"진미식당","city":"용산구 문배동","country":"서울","kind":"콩국수","emoji":"🍜","status":"open","note":"콩국수, 오징어볶음","rating":4.2,"reviews":15,"visits":[{"show":"BB","episode":295,"title":"서울특별시 용산구","year":2025,"label":"295회"}],"shows":["BB"],"primaryShow":"BB"}},{"type":"Feature","geometry":{"type":"Point","coordinates":[126.960639,37.537701]},"properties":{"id":"kr-baekban-py8sK6DV1rUT","name":"아성꼬막홍어막걸리","city":"용산구 용문동","country":"서울","kind":"홍어삼합","emoji":"🥞","status":"unknown","note":"홍어삼합, 빈대떡","rating":0,"reviews":0,"visits":[],"shows":["BB"],"primaryShow":"BB"}},{"type":"Feature","geometry":{"type":"Point","coordinates":[126.970026,37.5457829]},"properties":{"id":"kr-baekban-yzbLWsBVTenS","name":"상록수연탄구이 숙대본점","city":"용산구 청파동2가","country":"서울","kind":"삼겹살","emoji":"🥩","status":"open","note":"삼겹살, 고기집","rating":4.2,"reviews":28,"visits":[{"show":"BB","episode":295,"title":"서울특별시 용산구","year":2025,"label":"295회"}],"shows":["BB"],"primaryShow":"BB"}},{"type":"Feature","geometry":{"type":"Point","coordinates":[127.0001726,37.5368385]},"properties":{"id":"kr-baekban-mwKo85nC4bJ7","name":"바다식당","city":"용산구 한남동","country":"서울","kind":"부대찌개","emoji":"🍲","status":"open","note":"부대찌개, 존슨탕","rating":3.3,"reviews":46,"visits":[{"show":"BB","episode":44,"title":"서울특별시 용산구","year":2020,"label":"44회","video":"https://www.youtube.com/watch?v=J8Xzt20k3CU"}],"shows":["BB"],"primaryShow":"BB","image":"https://i.ytimg.com/vi/J8Xzt20k3CU/hqdefault.jpg"}},{"type":"Feature","geometry":{"type":"Point","coordinates":[127.0053213,37.5334219]},"properties":{"id":"kr-baekban-OdxzwVDdDUmX","name":"털보네꼼장어","city":"용산구 한남동","country":"서울","kind":"꼼장어","emoji":"🥩","status":"open","note":"꼼장어, 돼지꼬리","rating":3.6,"reviews":6,"visits":[{"show":"BB","episode":12,"title":"서울특별시 용산구 · 성동구 · 중구","year":2019,"label":"12회"}],"shows":["BB"],"primaryShow":"BB"}},{"type":"Feature","geometry":{"type":"Point","coordinates":[126.9604033,37.5363864]},"properties":{"id":"kr-baekban-rLGXhPfOnPdg","name":"창성옥 본점","city":"용산구 용문동","country":"서울","kind":"해장국","emoji":"🍲","status":"open","note":"해장국, 뼈전골","rating":4.2,"reviews":26,"visits":[{"show":"BB","episode":16,"title":"서울특별시 용산구","year":2019,"label":"16회"}],"shows":["BB"],"primaryShow":"BB"}},{"type":"Feature","geometry":{"type":"Point","coordinates":[126.964688,37.5249351]},"properties":{"id":"kr-baekban-mkCOdNHKXAc4","name":"섬집","city":"용산구 한강로3가","country":"서울","kind":"꽃게탕","emoji":"🐟","status":"open","note":"꽃게탕, 참게","rating":4.4,"reviews":20,"visits":[{"show":"BB","episode":119,"title":"서울특별시 용산구","year":2021,"label":"119회"}],"shows":["BB"],"primaryShow":"BB"}},{"type":"Feature","geometry":{"type":"Point","coordinates":[126.9742263,37.5346178]},"properties":{"id":"kr-baekban-dTg6je9glQVF","name":"원대구탕","city":"용산구 한강로1가","country":"서울","kind":"대구탕","emoji":"🍲","status":"open","note":"대구탕","rating":3.8,"reviews":43,"visits":[{"show":"BB","episode":16,"title":"서울특별시 용산구","year":2019,"label":"16회","video":"https://www.youtube.com/watch?v=fLTs7qN8Ntg"}],"shows":["BB"],"primaryShow":"BB","image":"https://i.ytimg.com/vi/fLTs7qN8Ntg/hqdefault.jpg"}},{"type":"Feature","geometry":{"type":"Point","coordinates":[126.9781916,37.5475469]},"properties":{"id":"kr-baekban-vtMX2ESuyBRQ","name":"양푼이동태탕","city":"용산구 후암동","country":"서울","kind":"동태탕","emoji":"🍲","status":"open","note":"동태탕, 양푼이동태탕","rating":4.5,"reviews":6,"visits":[{"show":"BB","episode":79,"title":"서울특별시 중구","year":2020,"label":"79회"}],"shows":["BB"],"primaryShow":"BB"}},{"type":"Feature","geometry":{"type":"Point","coordinates":[126.9950481,37.5340624]},"properties":{"id":"kr-baekban-XaXnLnKYG0Ny","name":"대흥정육식당","city":"용산구 이태원동","country":"서울","kind":"삼겹살","emoji":"🥩","status":"open","note":"삼겹살, 생삼겹살","rating":0,"reviews":0,"visits":[{"show":"BB","episode":44,"title":"서울특별시 용산구","year":2020,"label":"44회"}],"shows":["BB"],"primaryShow":"BB"}},{"type":"Feature","geometry":{"type":"Point","coordinates":[126.9743444,37.5502498]},"properties":{"id":"kr-baekban-dhWhkjwHtY8f","name":"충무칼국수","city":"용산구 동자동","country":"서울","kind":"보쌈","emoji":"🍜","status":"open","note":"보쌈, 칼국수","rating":3.6,"reviews":5,"visits":[{"show":"BB","episode":79,"title":"서울특별시 중구","year":2020,"label":"79회"},{"show":"BB","episode":132,"title":"서울특별시 중구 · 종로구","year":2021,"label":"132회"}],"shows":["BB"],"primaryShow":"BB"}},{"type":"Feature","geometry":{"type":"Point","coordinates":[126.9711258,37.5315556]},"properties":{"id":"kr-baekban-p3VgrIvHICRi","name":"꺼거","city":"용산구 한강로2가","country":"서울","kind":"볶음면","emoji":"🍽️","status":"open","note":"볶음면, 중식","rating":4.4,"reviews":64,"visits":[{"show":"BB","episode":295,"title":"서울특별시 용산구","year":2025,"label":"295회","video":"https://www.youtube.com/watch?v=Cm-HC-j5tXs"}],"shows":["BB"],"primaryShow":"BB","image":"https://i.ytimg.com/vi/Cm-HC-j5tXs/hqdefault.jpg"}},{"type":"Feature","geometry":{"type":"Point","coordinates":[127.0020499,37.5265295]},"properties":{"id":"kr-baekban-6KLm6PwMaeEL","name":"대성식당","city":"용산구 보광동","country":"서울","kind":"삼겹살","emoji":"🥩","status":"open","note":"삼겹살, 묵은지","rating":4.3,"reviews":4,"visits":[{"show":"BB","episode":39,"title":"경상남도 함양군","year":2020,"label":"39회"},{"show":"BB","episode":123,"title":"충청남도 보령시","year":2021,"label":"123회"},{"show":"BB","episode":44,"title":"서울특별시 용산구","year":2020,"label":"44회"}],"shows":["BB"],"primaryShow":"BB"}},{"type":"Feature","geometry":{"type":"Point","coordinates":[126.9712769,37.5330839]},"properties":{"id":"kr-baekban-6hfUoOSjnfvK","name":"김용안과자점","city":"용산구 한강로2가","country":"서울","kind":"센베","emoji":"🍽️","status":"open","note":"센베, 옛날과자","rating":3.5,"reviews":1,"visits":[],"shows":["BB"],"primaryShow":"BB"}},{"type":"Feature","geometry":{"type":"Point","coordinates":[127.0071623,37.5327087]},"properties":{"id":"kr-baekban-08qoiw0KOHzK","name":"장지녕 간장게장","city":"용산구 한남동","country":"서울","kind":"게장정식","emoji":"🍚","status":"open","note":"게장정식, 꼬막무침","rating":4.5,"reviews":15,"visits":[{"show":"BB","episode":203,"title":"서울특별시 용산구 이태원동","year":2023,"label":"203회","video":"https://www.youtube.com/watch?v=anL66WkucFg"}],"shows":["BB"],"primaryShow":"BB","image":"https://i.ytimg.com/vi/anL66WkucFg/hqdefault.jpg"}},{"type":"Feature","geometry":{"type":"Point","coordinates":[127.0021482,37.5337502]},"properties":{"id":"kr-baekban-NcDgTFt7631A","name":"분지로 사운즈한남점","city":"용산구 한남동","country":"서울","kind":"카츠","emoji":"🍱","status":"open","note":"카츠, 돈까스","rating":4.2,"reviews":8,"visits":[{"show":"BB","episode":352,"title":"끌어올려~ 텐션 만렙 김호영의 맛의 무대","year":2026,"label":"352회"}],"shows":["BB"],"primaryShow":"BB"}},{"type":"Feature","geometry":{"type":"Point","coordinates":[126.9583631,37.5345149]},"properties":{"id":"kr-baekban-LvesanqXbuoI","name":"딩호양육관","city":"용산구 원효로3가","country":"서울","kind":"양꼬치","emoji":"🍽️","status":"open","note":"양꼬치, 양다리","rating":4,"reviews":2,"visits":[{"show":"BB","episode":119,"title":"서울특별시 용산구","year":2021,"label":"119회"}],"shows":["BB"],"primaryShow":"BB"}},{"type":"Feature","geometry":{"type":"Point","coordinates":[127.0218029,37.5488196]},"properties":{"id":"kr-baekban-4reFXwI8ruAv","name":"김경자원조 손칼국수 보쌈","city":"성동구 금호동3가","country":"서울","kind":"칼국수","emoji":"🍜","status":"open","note":"칼국수, 보쌈","rating":4.3,"reviews":6,"visits":[],"shows":["BB"],"primaryShow":"BB"}},{"type":"Feature","geometry":{"type":"Point","coordinates":[127.0219617,37.5485386]},"properties":{"id":"kr-baekban-KCZ7uf1RnTh9","name":"골목냉면","city":"성동구 금호동3가","country":"서울","kind":"냉면","emoji":"🍜","status":"open","note":"냉면, 매운냉면","rating":3.7,"reviews":3,"visits":[{"show":"BB","episode":197,"title":"서울특별시 성동구","year":2023,"label":"197회"}],"shows":["BB"],"primaryShow":"BB"}},{"type":"Feature","geometry":{"type":"Point","coordinates":[127.0362122,37.5653248]},"properties":{"id":"kr-baekban-K4Tg1CDqC9QC","name":"왕십리 정부네 곱창","city":"성동구 홍익동","country":"서울","kind":"곱창","emoji":"🥩","status":"open","note":"곱창, 막창","rating":4,"reviews":7,"visits":[{"show":"BB","episode":137,"title":"서울특별시 성동구","year":2022,"label":"137회"}],"shows":["BB"],"primaryShow":"BB"}},{"type":"Feature","geometry":{"type":"Point","coordinates":[127.0221587,37.5483701]},"properties":{"id":"kr-baekban-R39l6KmdM7QS","name":"은성보쌈","city":"성동구 금호동3가","country":"서울","kind":"보쌈","emoji":"🍖","status":"open","note":"보쌈, 삼겹보쌈","rating":3.6,"reviews":14,"visits":[{"show":"BB","episode":12,"title":"서울특별시 용산구 · 성동구 · 중구","year":2019,"label":"12회"}],"shows":["BB"],"primaryShow":"BB"}},{"type":"Feature","geometry":{"type":"Point","coordinates":[127.0314028,37.5613348]},"properties":{"id":"kr-baekban-jOqzFtgana4C","name":"기분좋은한잔","city":"성동구 하왕십리동","country":"서울","kind":"굴찜","emoji":"🐟","status":"open","note":"굴찜, 해산물","rating":4.8,"reviews":2,"visits":[{"show":"BB","episode":137,"title":"서울특별시 성동구","year":2022,"label":"137회"}],"shows":["BB"],"primaryShow":"BB"}},{"type":"Feature","geometry":{"type":"Point","coordinates":[127.041349,37.570819]},"properties":{"id":"kr-baekban-rIw1oNvpZUbf","name":"마장동 한우촌","city":"성동구 마장동","country":"서울","kind":"한우","emoji":"🥩","status":"open","note":"한우, 정육식당","rating":4.1,"reviews":6,"visits":[{"show":"BB","episode":315,"title":"우(牛)아한 세계! 이원일 셰프의 스페셜 한우 밥상","year":2025,"label":"315회","video":"https://www.youtube.com/watch?v=_3NMgAgXZTE"}],"shows":["BB"],"primaryShow":"BB","image":"https://i.ytimg.com/vi/_3NMgAgXZTE/hqdefault.jpg"}},{"type":"Feature","geometry":{"type":"Point","coordinates":[127.0467835,37.5459141]},"properties":{"id":"kr-baekban-x4lhuSymFkNx","name":"푸드갤러리빈","city":"성동구 성수동1가","country":"서울","kind":"두부요리","emoji":"🍲","status":"open","note":"두부요리","rating":4.4,"reviews":4,"visits":[{"show":"BB","episode":324,"title":"서울특별시 성동구","year":2025,"label":"324회"}],"shows":["BB"],"primaryShow":"BB"}},{"type":"Feature","geometry":{"type":"Point","coordinates":[127.0699822,37.5440075]},"properties":{"id":"kr-baekban-HANVPavJuqLE","name":"해남닭집","city":"광진구 화양동","country":"서울","kind":"치킨","emoji":"🍗","status":"open","note":"치킨","rating":4.2,"reviews":11,"visits":[{"show":"BB","episode":38,"title":"서울특별시 광진구","year":2020,"label":"38회"}],"shows":["BB"],"primaryShow":"BB"}},{"type":"Feature","geometry":{"type":"Point","coordinates":[127.0660391,37.5375275]},"properties":{"id":"kr-baekban-LxPkD1F74PYf","name":"동대문곱창","city":"광진구 자양동","country":"서울","kind":"닭볶음탕","emoji":"🍗","status":"open","note":"닭볶음탕, 꽃게","rating":4.5,"reviews":10,"visits":[{"show":"BB","episode":261,"title":"서울특별시","year":2024,"label":"261회"}],"shows":["BB"],"primaryShow":"BB"}},{"type":"Feature","geometry":{"type":"Point","coordinates":[127.0790261,37.5355865]},"properties":{"id":"kr-baekban-oAqIJFLN0fvb","name":"민정식당 본점","city":"광진구 자양동","country":"서울","kind":"설렁탕","emoji":"🍚","status":"open","note":"설렁탕, 수육","rating":4.8,"reviews":14,"visits":[{"show":"BB","episode":215,"title":"서울특별시","year":2023,"label":"215회"}],"shows":["BB"],"primaryShow":"BB"}},{"type":"Feature","geometry":{"type":"Point","coordinates":[127.1022337,37.5479706]},"properties":{"id":"kr-baekban-SeLS4tIB1aiL","name":"다래나무 손두부","city":"광진구 광장동","country":"서울","kind":"두부","emoji":"🍲","status":"open","note":"두부, 손두부","rating":3.8,"reviews":6,"visits":[{"show":"BB","episode":261,"title":"서울특별시","year":2024,"label":"261회"}],"shows":["BB"],"primaryShow":"BB"}},{"type":"Feature","geometry":{"type":"Point","coordinates":[127.084428,37.538228]},"properties":{"id":"kr-baekban-lPI66nVFiau4","name":"고향집","city":"광진구 구의동","country":"서울","kind":"쭈꾸미","emoji":"🥩","status":"open","note":"쭈꾸미, 쭈꾸미구이","rating":4.3,"reviews":4,"visits":[{"show":"BB","episode":15,"title":"서울특별시 마포구","year":2019,"label":"15회","video":"https://www.youtube.com/watch?v=CiprHL2tI7A"},{"show":"BB","episode":38,"title":"서울특별시 광진구","year":2020,"label":"38회"}],"shows":["BB"],"primaryShow":"BB"}},{"type":"Feature","geometry":{"type":"Point","coordinates":[127.0764125,37.5347615]},"properties":{"id":"kr-baekban-kl7nLVytFpea","name":"우성식당","city":"광진구 자양동","country":"서울","kind":"기사식당","emoji":"🍲","status":"open","note":"기사식당, 청국장","rating":4,"reviews":10,"visits":[],"shows":["BB"],"primaryShow":"BB"}},{"type":"Feature","geometry":{"type":"Point","coordinates":[127.0672857,37.5343578]},"properties":{"id":"kr-baekban-AT29ir0OqoTw","name":"용문집","city":"광진구 자양동","country":"서울","kind":"한우","emoji":"🥩","status":"open","note":"한우, 소고기","rating":4,"reviews":1,"visits":[],"shows":["BB"],"primaryShow":"BB"}},{"type":"Feature","geometry":{"type":"Point","coordinates":[127.0571407,37.5789172]},"properties":{"id":"kr-baekban-cZO55r4PPFR7","name":"신락원","city":"동대문구 전농동","country":"서울","kind":"짜장면","emoji":"🍜","status":"open","note":"짜장면, 중화요리","rating":3.9,"reviews":9,"visits":[{"show":"BB","episode":276,"title":"성시경의 좋을텐데 2024 연말밥상","year":2024,"label":"276회"}],"shows":["BB"],"primaryShow":"BB"}},{"type":"Feature","geometry":{"type":"Point","coordinates":[127.0391428,37.5790378]},"properties":{"id":"kr-baekban-zLmnRsbLp8oT","name":"안동집 손칼국시","city":"동대문구 제기동","country":"서울","kind":"이모카세","emoji":"🍽️","status":"open","note":"이모카세, 배추전","rating":4.3,"reviews":38,"visits":[{"show":"BB","episode":212,"title":"강원특별자치도 인제군, 속초시, 서울특별시 동대문구","year":2023,"label":"212회"}],"shows":["BB"],"primaryShow":"BB"}},{"type":"Feature","geometry":{"type":"Point","coordinates":[127.036305,37.579499]},"properties":{"id":"kr-baekban-pjqUWTZYgygt","name":"토성옥","city":"동대문구 제기동","country":"서울","kind":"도가니탕","emoji":"🍲","status":"open","note":"도가니탕, 꼬리곰탕","rating":4.4,"reviews":3,"visits":[{"show":"BB","episode":151,"title":"서울특별시  동대문구 · 종로구 · 강북구","year":2022,"label":"151회"}],"shows":["BB"],"primaryShow":"BB"}},{"type":"Feature","geometry":{"type":"Point","coordinates":[127.0285888,37.5774796]},"properties":{"id":"kr-baekban-Wphn9urf9Crj","name":"어머니 대성집","city":"동대문구 용두동","country":"서울","kind":"해장국","emoji":"🍲","status":"open","note":"해장국, 선지","rating":4.2,"reviews":77,"visits":[{"show":"BB","episode":122,"title":"추석 특집 2부 소고기 잔치","year":2021,"label":"122회","video":"https://www.youtube.com/watch?v=7DqPjx2mZxo"}],"shows":["BB"],"primaryShow":"BB","image":"https://i.ytimg.com/vi/7DqPjx2mZxo/hqdefault.jpg"}},{"type":"Feature","geometry":{"type":"Point","coordinates":[127.0436869,37.5799079]},"properties":{"id":"kr-baekban-PneGy3pSgX2f","name":"브라질다방","city":"동대문구 청량리동","country":"서울","kind":"전통차","emoji":"🥞","status":"unknown","note":"전통차, 쌍화차","rating":3.2,"reviews":2,"visits":[{"show":"BB","episode":151,"title":"서울특별시  동대문구 · 종로구 · 강북구","year":2022,"label":"151회"}],"shows":["BB"],"primaryShow":"BB"}},{"type":"Feature","geometry":{"type":"Point","coordinates":[127.0768919,37.60523]},"properties":{"id":"kr-baekban-42BEu61Yzw3O","name":"태능배밭갈비","city":"중랑구 묵동","country":"서울","kind":"돼지갈비","emoji":"🥩","status":"open","note":"돼지갈비","rating":4.3,"reviews":12,"visits":[{"show":"BB","episode":117,"title":"서울특별시 중랑구 · 노원구","year":2021,"label":"117회"}],"shows":["BB"],"primaryShow":"BB"}},{"type":"Feature","geometry":{"type":"Point","coordinates":[127.0970066,37.5983445]},"properties":{"id":"kr-baekban-zUyODjwkvLHg","name":"맹돌이생선구이쌈밥전문점","city":"중랑구 망우동","country":"서울","kind":"생선구이","emoji":"🍚","status":"open","note":"생선구이, 쌈밥","rating":3,"reviews":1,"visits":[{"show":"BB","episode":117,"title":"서울특별시 중랑구 · 노원구","year":2021,"label":"117회"}],"shows":["BB"],"primaryShow":"BB"}},{"type":"Feature","geometry":{"type":"Point","coordinates":[127.014423,37.59]},"properties":{"id":"kr-baekban-NwnIu3c4uDIC","name":"신신식당","city":"성북구 삼선동4가","country":"서울","kind":"쌈밥","emoji":"🍚","status":"open","note":"쌈밥, 우렁쌈밥","rating":4,"reviews":3,"visits":[{"show":"BB","episode":28,"title":"서울특별시 성북구","year":2019,"label":"28회"}],"shows":["BB"],"primaryShow":"BB"}},{"type":"Feature","geometry":{"type":"Point","coordinates":[127.0043278,37.5884198]},"properties":{"id":"kr-baekban-I9xMEQ1kmieQ","name":"국시집","city":"성북구 성북동1가","country":"서울","kind":"국수","emoji":"🍜","status":"open","note":"국수, 국시","rating":4.1,"reviews":13,"visits":[{"show":"BB","episode":28,"title":"서울특별시 성북구","year":2019,"label":"28회"}],"shows":["BB"],"primaryShow":"BB"}},{"type":"Feature","geometry":{"type":"Point","coordinates":[127.0091093,37.6087332]},"properties":{"id":"kr-baekban-oEl7PUZ5RKt0","name":"청년밥상문간","city":"성북구 정릉동","country":"서울","kind":"김치찌개","emoji":"🍜","status":"open","note":"김치찌개, 라면","rating":4.5,"reviews":7,"visits":[{"show":"BB","episode":227,"title":"서울특별시 동작구, 성북구, 강원특별자치도 홍천군","year":2023,"label":"227회"}],"shows":["BB"],"primaryShow":"BB"}},{"type":"Feature","geometry":{"type":"Point","coordinates":[127.0222664,37.5830842]},"properties":{"id":"kr-baekban-1smoDzyYvMza","name":"이상조 전통만두국","city":"성북구 안암동","country":"서울","kind":"만두국","emoji":"🥟","status":"open","note":"만두국, 녹두전","rating":4.4,"reviews":7,"visits":[],"shows":["BB"],"primaryShow":"BB"}},{"type":"Feature","geometry":{"type":"Point","coordinates":[127.0361517,37.5921091]},"properties":{"id":"kr-baekban-arnwmKhY5J9Y","name":"달밝은집","city":"성북구 종암동","country":"서울","kind":"삼겹살","emoji":"🥩","status":"open","note":"삼겹살, 돼지불고기","rating":4.3,"reviews":4,"visits":[{"show":"BB","episode":28,"title":"서울특별시 성북구","year":2019,"label":"28회"}],"shows":["BB"],"primaryShow":"BB"}},{"type":"Feature","geometry":{"type":"Point","coordinates":[126.9948325,37.5951076]},"properties":{"id":"kr-baekban-TVWIp1a660R9","name":"수연산방","city":"성북구 성북동","country":"서울","kind":"전통차","emoji":"🥞","status":"open","note":"전통차, 한옥카페","rating":4.2,"reviews":19,"visits":[{"show":"BB","episode":28,"title":"서울특별시 성북구","year":2019,"label":"28회"}],"shows":["BB"],"primaryShow":"BB"}},{"type":"Feature","geometry":{"type":"Point","coordinates":[127.0097147,37.5893349]},"properties":{"id":"kr-baekban-6YchnEDakBKW","name":"참나무 닭나라","city":"성북구 동소문동2가","country":"서울","kind":"통닭","emoji":"🍗","status":"open","note":"통닭, 장작구이","rating":3.9,"reviews":8,"visits":[{"show":"BB","episode":219,"title":"서울특별시 종로구","year":2023,"label":"219회"}],"shows":["BB"],"primaryShow":"BB"}},{"type":"Feature","geometry":{"type":"Point","coordinates":[127.0249,37.6317654]},"properties":{"id":"kr-baekban-4ycqblpa9WqR","name":"연포생선구이전문점","city":"강북구 미아동","country":"서울","kind":"생선구이","emoji":"🍚","status":"open","note":"생선구이, 솥밥","rating":3.4,"reviews":2,"visits":[],"shows":["BB"],"primaryShow":"BB"}},{"type":"Feature","geometry":{"type":"Point","coordinates":[127.0206079,37.6190477]},"properties":{"id":"kr-baekban-DvPKvOwWOJb0","name":"삼다도","city":"강북구 미아동","country":"서울","kind":"아구찜","emoji":"🐟","status":"open","note":"아구찜, 아구탕","rating":4,"reviews":1,"visits":[{"show":"BB","episode":151,"title":"서울특별시  동대문구 · 종로구 · 강북구","year":2022,"label":"151회"}],"shows":["BB"],"primaryShow":"BB"}},{"type":"Feature","geometry":{"type":"Point","coordinates":[127.0378845,37.6862628]},"properties":{"id":"kr-baekban-xD4wgUHE8t4M","name":"도봉산두부","city":"도봉구 도봉동","country":"서울","kind":"두부전골","emoji":"🍲","status":"open","note":"두부전골, 두부보쌈","rating":4.3,"reviews":12,"visits":[{"show":"BB","episode":215,"title":"서울특별시","year":2023,"label":"215회"}],"shows":["BB"],"primaryShow":"BB"}},{"type":"Feature","geometry":{"type":"Point","coordinates":[127.0726291,37.6641967]},"properties":{"id":"kr-baekban-Khn01e6g7BJP","name":"원조닭갈비","city":"노원구 상계동","country":"서울","kind":"닭갈비","emoji":"🍗","status":"open","note":"닭갈비, 국물닭갈비","rating":4.8,"reviews":5,"visits":[{"show":"BB","episode":117,"title":"서울특별시 중랑구 · 노원구","year":2021,"label":"117회"}],"shows":["BB"],"primaryShow":"BB"}},{"type":"Feature","geometry":{"type":"Point","coordinates":[127.0775825,37.6195545]},"properties":{"id":"kr-baekban-i3LrTd6PEKo5","name":"제일콩집","city":"노원구 공릉동","country":"서울","kind":"콩국수","emoji":"🍜","status":"open","note":"콩국수, 청국장","rating":4.4,"reviews":58,"visits":[{"show":"BB","episode":324,"title":"서울특별시 성동구","year":2025,"label":"324회"}],"shows":["BB"],"primaryShow":"BB"}},{"type":"Feature","geometry":{"type":"Point","coordinates":[126.949211,37.6561529]},"properties":{"id":"kr-baekban-Bkt01NsP5uuB","name":"산들애 건강밥상","city":"은평구 진관동","country":"서울","kind":"한식","emoji":"🥩","status":"open","note":"한식, 코다리구이","rating":4.2,"reviews":10,"visits":[{"show":"BB","episode":110,"title":"서울특별시 은평구 일대","year":2021,"label":"110회"}],"shows":["BB"],"primaryShow":"BB"}},{"type":"Feature","geometry":{"type":"Point","coordinates":[126.9394488,37.6546515]},"properties":{"id":"kr-baekban-KD9qV5vPgWsI","name":"밀가원","city":"은평구 진관동","country":"서울","kind":"보리밥","emoji":"🍚","status":"open","note":"보리밥","rating":4.2,"reviews":2,"visits":[{"show":"BB","episode":349,"title":"트롯 남매 진성 · 한혜진의 극락 밥상","year":2026,"label":"349회"}],"shows":["BB"],"primaryShow":"BB"}},{"type":"Feature","geometry":{"type":"Point","coordinates":[126.9323619,37.6221117]},"properties":{"id":"kr-baekban-88LuYqxXUIOu","name":"오두리두부","city":"은평구 불광동","country":"서울","kind":"두부요리","emoji":"🍲","status":"open","note":"두부요리, 두부전골","rating":4.6,"reviews":6,"visits":[{"show":"BB","episode":110,"title":"서울특별시 은평구 일대","year":2021,"label":"110회"}],"shows":["BB"],"primaryShow":"BB"}},{"type":"Feature","geometry":{"type":"Point","coordinates":[126.913569,37.591804]},"properties":{"id":"kr-baekban-ke6DajvaHYTd","name":"마마수제만두","city":"은평구 신사동","country":"서울","kind":"딤섬","emoji":"🥟","status":"open","note":"딤섬, 중국식만두","rating":4.4,"reviews":28,"visits":[{"show":"BB","episode":110,"title":"서울특별시 은평구 일대","year":2021,"label":"110회"}],"shows":["BB"],"primaryShow":"BB"}},{"type":"Feature","geometry":{"type":"Point","coordinates":[126.9288744,37.621424]},"properties":{"id":"kr-baekban-J4yGuohmtXvk","name":"와우 양철통소금구이","city":"은평구 불광동","country":"서울","kind":"삼겹살","emoji":"🥩","status":"open","note":"삼겹살, 소금구이","rating":0,"reviews":0,"visits":[{"show":"BB","episode":110,"title":"서울특별시 은평구 일대","year":2021,"label":"110회"}],"shows":["BB"],"primaryShow":"BB"}},{"type":"Feature","geometry":{"type":"Point","coordinates":[126.963741,37.56705]},"properties":{"id":"kr-baekban-wbJ0cpNFFrhX","name":"명지식당","city":"서대문구 냉천동","country":"서울","kind":"백반","emoji":"🍚","status":"open","note":"백반, 곤드레밥","rating":0,"reviews":0,"visits":[{"show":"BB","episode":237,"title":"서울특별시 서대문구","year":2024,"label":"237회"}],"shows":["BB"],"primaryShow":"BB"}},{"type":"Feature","geometry":{"type":"Point","coordinates":[126.9634943,37.56265]},"properties":{"id":"kr-baekban-xxX0DlCgBOtg","name":"철길떡볶이","city":"서대문구 충정로3가","country":"서울","kind":"떡볶이","emoji":"🍢","status":"open","note":"떡볶이, 옛날떡볶이","rating":3.9,"reviews":36,"visits":[{"show":"BB","episode":7,"title":"서울특별시 서대문구","year":2019,"label":"7회","video":"https://www.youtube.com/watch?v=RT74BOEPdqg"}],"shows":["BB"],"primaryShow":"BB","image":"https://i.ytimg.com/vi/RT74BOEPdqg/hqdefault.jpg"}},{"type":"Feature","geometry":{"type":"Point","coordinates":[126.9162161,37.5692786]},"properties":{"id":"kr-baekban-lPwy6Qw3Aws7","name":"산해정","city":"서대문구 남가좌동","country":"서울","kind":"삼겹살","emoji":"🥩","status":"unknown","note":"삼겹살, 내장탕","rating":4.3,"reviews":2,"visits":[{"show":"BB","episode":165,"title":"서울특별시 마포구 상암동","year":2022,"label":"165회"}],"shows":["BB"],"primaryShow":"BB"}},{"type":"Feature","geometry":{"type":"Point","coordinates":[126.9319031,37.5777307]},"properties":{"id":"kr-baekban-kvR9W7uWtSB7","name":"양밍산","city":"서대문구 연희동","country":"서울","kind":"우육면","emoji":"🍽️","status":"open","note":"우육면, 대만","rating":4.3,"reviews":7,"visits":[{"show":"BB","episode":237,"title":"서울특별시 서대문구","year":2024,"label":"237회"}],"shows":["BB"],"primaryShow":"BB"}},{"type":"Feature","geometry":{"type":"Point","coordinates":[126.9643064,37.560444]},"properties":{"id":"kr-baekban-IMcBLH6ipNAq","name":"청안식탁","city":"서대문구 충정로3가","country":"서울","kind":"닭개장","emoji":"🍗","status":"open","note":"닭개장, 이북식","rating":4,"reviews":1,"visits":[{"show":"BB","episode":157,"title":"서울특별시  마포구 · 서대문구","year":2022,"label":"157회"}],"shows":["BB"],"primaryShow":"BB"}},{"type":"Feature","geometry":{"type":"Point","coordinates":[126.9437171,37.5640029]},"properties":{"id":"kr-baekban-yccNEGzhRP57","name":"이로운 밥상","city":"서대문구 대신동","country":"서울","kind":"연잎밥","emoji":"🍽️","status":"open","note":"연잎밥, 한식","rating":4.5,"reviews":5,"visits":[{"show":"BB","episode":208,"title":"서울특별시 서대문구","year":2023,"label":"208회"}],"shows":["BB"],"primaryShow":"BB"}},{"type":"Feature","geometry":{"type":"Point","coordinates":[126.9301011,37.5669645]},"properties":{"id":"kr-baekban-ZwWCmIE9RI3m","name":"연희미식","city":"서대문구 연희동","country":"서울","kind":"중식","emoji":"🍚","status":"unknown","note":"중식, 대만가정식","rating":4.4,"reviews":6,"visits":[{"show":"BB","episode":7,"title":"서울특별시 서대문구","year":2019,"label":"7회"}],"shows":["BB"],"primaryShow":"BB"}},{"type":"Feature","geometry":{"type":"Point","coordinates":[126.9350635,37.5578649]},"properties":{"id":"kr-baekban-mnNrBv6uod1D","name":"신촌고기창고","city":"서대문구 창천동","country":"서울","kind":"삼겹살","emoji":"🥩","status":"open","note":"삼겹살, 고깃집","rating":3.7,"reviews":16,"visits":[{"show":"BB","episode":208,"title":"서울특별시 서대문구","year":2023,"label":"208회"}],"shows":["BB"],"primaryShow":"BB"}},{"type":"Feature","geometry":{"type":"Point","coordinates":[126.9334374,37.5568666]},"properties":{"id":"kr-baekban-cXl1eUGzkwWu","name":"아저씨네낙지찜","city":"서대문구 창천동","country":"서울","kind":"낙지","emoji":"🐟","status":"open","note":"낙지, 낙지찜","rating":4.7,"reviews":6,"visits":[{"show":"BB","episode":208,"title":"서울특별시 서대문구","year":2023,"label":"208회"}],"shows":["BB"],"primaryShow":"BB"}},{"type":"Feature","geometry":{"type":"Point","coordinates":[126.9670501,37.5641834]},"properties":{"id":"kr-baekban-9xq0BBxaEll9","name":"28총각","city":"서대문구 미근동","country":"서울","kind":"돈까스","emoji":"🍱","status":"open","note":"돈까스, 돈까스무한리필","rating":4.5,"reviews":1,"visits":[{"show":"BB","episode":7,"title":"서울특별시 서대문구","year":2019,"label":"7회"}],"shows":["BB"],"primaryShow":"BB"}},{"type":"Feature","geometry":{"type":"Point","coordinates":[126.9278349,37.5659709]},"properties":{"id":"kr-baekban-ts3k6lJekkeU","name":"야식포차","city":"서대문구 연희동","country":"서울","kind":"포차","emoji":"🍶","status":"unknown","note":"포차, 홍어삼합","rating":0,"reviews":0,"visits":[{"show":"BB","episode":7,"title":"서울특별시 서대문구","year":2019,"label":"7회"}],"shows":["BB"],"primaryShow":"BB"}},{"type":"Feature","geometry":{"type":"Point","coordinates":[126.9474137,37.542706]},"properties":{"id":"kr-baekban-CoY9EcSDlBh9","name":"남해바다","city":"마포구 도화동","country":"서울","kind":"횟집","emoji":"🐟","status":"open","note":"횟집, 제철생선","rating":3.7,"reviews":11,"visits":[{"show":"BB","episode":82,"title":"서울특별시 마포구","year":2020,"label":"82회"}],"shows":["BB"],"primaryShow":"BB"}},{"type":"Feature","geometry":{"type":"Point","coordinates":[126.9053757,37.562471]},"properties":{"id":"kr-baekban-rGkbO6Fr4TuE","name":"목포낙지마을","city":"마포구 성산동","country":"서울","kind":"낙지볶음","emoji":"🍚","status":"open","note":"낙지볶음, 낙지덮밥","rating":4.9,"reviews":4,"visits":[{"show":"BB","episode":165,"title":"서울특별시 마포구 상암동","year":2022,"label":"165회"}],"shows":["BB"],"primaryShow":"BB"}},{"type":"Feature","geometry":{"type":"Point","coordinates":[126.9104685,37.5495526]},"properties":{"id":"kr-baekban-bDlUpVT87aiE","name":"합정옥","city":"마포구 합정동","country":"서울","kind":"곰탕","emoji":"🍲","status":"open","note":"곰탕, 수육","rating":4,"reviews":24,"visits":[{"show":"BB","episode":315,"title":"우(牛)아한 세계! 이원일 셰프의 스페셜 한우 밥상","year":2025,"label":"315회"}],"shows":["BB"],"primaryShow":"BB"}},{"type":"Feature","geometry":{"type":"Point","coordinates":[126.9387125,37.5441166]},"properties":{"id":"kr-baekban-RjlJsy9tf8PE","name":"신촌즉석생우동","city":"마포구 대흥동","country":"서울","kind":"우동","emoji":"🍜","status":"open","note":"우동, 즉석우동","rating":4.4,"reviews":14,"visits":[{"show":"BB","episode":82,"title":"서울특별시 마포구","year":2020,"label":"82회"}],"shows":["BB"],"primaryShow":"BB"}},{"type":"Feature","geometry":{"type":"Point","coordinates":[126.911042,37.5547156]},"properties":{"id":"kr-baekban-BF833fO5yvX3","name":"너랑나랑호프","city":"마포구 망원동","country":"서울","kind":"술집","emoji":"🍺","status":"open","note":"술집, 육전","rating":4.1,"reviews":33,"visits":[{"show":"BB","episode":15,"title":"서울특별시 마포구","year":2019,"label":"15회"}],"shows":["BB"],"primaryShow":"BB"}},{"type":"Feature","geometry":{"type":"Point","coordinates":[126.918479,37.5537804]},"properties":{"id":"kr-baekban-NZWW3ZN1ENkq","name":"진진","city":"마포구 서교동","country":"서울","kind":"중식","emoji":"🍽️","status":"open","note":"중식, 멘보샤","rating":4.2,"reviews":40,"visits":[{"show":"BB","episode":157,"title":"서울특별시  마포구 · 서대문구","year":2022,"label":"157회"}],"shows":["BB"],"primaryShow":"BB"}},{"type":"Feature","geometry":{"type":"Point","coordinates":[126.9058377,37.5567832]},"properties":{"id":"kr-baekban-p2a0jw2RfZ6j","name":"고향집","city":"마포구 망원동","country":"서울","kind":"칼국수","emoji":"🍜","status":"open","note":"칼국수, 수제비","rating":4.3,"reviews":15,"visits":[{"show":"BB","episode":15,"title":"서울특별시 마포구","year":2019,"label":"15회","video":"https://www.youtube.com/watch?v=CiprHL2tI7A"},{"show":"BB","episode":38,"title":"서울특별시 광진구","year":2020,"label":"38회"}],"shows":["BB"],"primaryShow":"BB","image":"https://i.ytimg.com/vi/CiprHL2tI7A/hqdefault.jpg"}},{"type":"Feature","geometry":{"type":"Point","coordinates":[126.9111362,37.5682336]},"properties":{"id":"kr-baekban-Vb423bQeetIk","name":"매향","city":"마포구 중동","country":"서울","kind":"짜장면","emoji":"🍜","status":"open","note":"짜장면, 만두","rating":0,"reviews":0,"visits":[{"show":"BB","episode":165,"title":"서울특별시 마포구 상암동","year":2022,"label":"165회"}],"shows":["BB"],"primaryShow":"BB"}},{"type":"Feature","geometry":{"type":"Point","coordinates":[126.9446711,37.5372892]},"properties":{"id":"kr-baekban-OZ1Nv8tamSwI","name":"천지식당","city":"마포구 마포동","country":"서울","kind":"백반","emoji":"🍚","status":"open","note":"백반, 오징어볶음","rating":4,"reviews":6,"visits":[{"show":"BB","episode":82,"title":"서울특별시 마포구","year":2020,"label":"82회"}],"shows":["BB"],"primaryShow":"BB"}},{"type":"Feature","geometry":{"type":"Point","coordinates":[126.9571941,37.5507955]},"properties":{"id":"kr-baekban-OCgwNcFFEVXS","name":"밀밭정원","city":"마포구 아현동","country":"서울","kind":"콩국수","emoji":"🍜","status":"open","note":"콩국수, 만두전골","rating":4.5,"reviews":4,"visits":[{"show":"BB","episode":157,"title":"서울특별시  마포구 · 서대문구","year":2022,"label":"157회"}],"shows":["BB"],"primaryShow":"BB"}},{"type":"Feature","geometry":{"type":"Point","coordinates":[126.9435366,37.5430259]},"properties":{"id":"kr-baekban-Wi7GxN1e3lyG","name":"오리재","city":"마포구 대흥동","country":"서울","kind":"오리구이","emoji":"🍗","status":"open","note":"오리구이, 오리주물럭","rating":4,"reviews":2,"visits":[{"show":"BB","episode":265,"title":"서울특별시 송파구, 종로구, 마포구","year":2024,"label":"265회"}],"shows":["BB"],"primaryShow":"BB"}},{"type":"Feature","geometry":{"type":"Point","coordinates":[126.9485369,37.540027]},"properties":{"id":"kr-baekban-fKqvTVcVQffD","name":"산동교자","city":"마포구 도화동","country":"서울","kind":"만두","emoji":"🥟","status":"open","note":"만두, 군만두","rating":4.5,"reviews":19,"visits":[{"show":"BB","episode":90,"title":"서울특별시 중구","year":2021,"label":"90회"},{"show":"BB","episode":82,"title":"서울특별시 마포구","year":2020,"label":"82회"}],"shows":["BB"],"primaryShow":"BB"}},{"type":"Feature","geometry":{"type":"Point","coordinates":[126.8171249,37.5771749]},"properties":{"id":"kr-baekban-YM8EtOeo47Iq","name":"신촌기사식당","city":"강서구 방화동","country":"서울","kind":"백반","emoji":"🍚","status":"open","note":"백반, 돼지불백","rating":3.3,"reviews":6,"visits":[{"show":"BB","episode":222,"title":"서울특별시 강서구","year":2023,"label":"222회"}],"shows":["BB"],"primaryShow":"BB"}},{"type":"Feature","geometry":{"type":"Point","coordinates":[126.8382438,37.5547663]},"properties":{"id":"kr-baekban-bqLfjQXDv4NI","name":"마포성산동소문난껍데기집","city":"강서구 내발산동","country":"서울","kind":"껍데기","emoji":"🥩","status":"unknown","note":"껍데기","rating":5,"reviews":2,"visits":[{"show":"BB","episode":222,"title":"서울특별시 강서구","year":2023,"label":"222회"}],"shows":["BB"],"primaryShow":"BB"}},{"type":"Feature","geometry":{"type":"Point","coordinates":[126.8717883,37.5478715]},"properties":{"id":"kr-baekban-iBBfpIKdxGug","name":"유림 닭도리탕","city":"강서구 염창동","country":"서울","kind":"닭볶음탕","emoji":"🍗","status":"open","note":"닭볶음탕, 토종닭도리탕","rating":4.2,"reviews":62,"visits":[{"show":"BB","episode":222,"title":"서울특별시 강서구","year":2023,"label":"222회"}],"shows":["BB"],"primaryShow":"BB"}},{"type":"Feature","geometry":{"type":"Point","coordinates":[126.9310885,37.5263896]},"properties":{"id":"kr-baekban-IehSBefo51g1","name":"영원식당","city":"영등포구 여의도동","country":"서울","kind":"수제비","emoji":"🍲","status":"open","note":"수제비, 감자전","rating":3.9,"reviews":27,"visits":[{"show":"BB","episode":22,"title":"서울특별시 영등포구","year":2019,"label":"22회"}],"shows":["BB"],"primaryShow":"BB"}},{"type":"Feature","geometry":{"type":"Point","coordinates":[126.9290499,37.5195728]},"properties":{"id":"kr-baekban-4tyAP2TjriCh","name":"솔","city":"영등포구 여의도동","country":"서울","kind":"김치찌개","emoji":"🍲","status":"open","note":"김치찌개, 수제비","rating":4,"reviews":1,"visits":[],"shows":["BB"],"primaryShow":"BB"}},{"type":"Feature","geometry":{"type":"Point","coordinates":[126.9291839,37.5207895]},"properties":{"id":"kr-baekban-LFZkUwLDYS5Y","name":"신복촌","city":"영등포구 여의도동","country":"서울","kind":"횟집","emoji":"🐟","status":"open","note":"횟집, 우럭","rating":4.5,"reviews":3,"visits":[{"show":"BB","episode":200,"title":"서울특별시 영등포구","year":2023,"label":"200회"}],"shows":["BB"],"primaryShow":"BB"}},{"type":"Feature","geometry":{"type":"Point","coordinates":[126.9119526,37.5222881]},"properties":{"id":"kr-baekban-c87KjIOPu8jt","name":"덕원식당","city":"영등포구 영등포동2가","country":"서울","kind":"꼬리곰탕","emoji":"🍲","status":"open","note":"꼬리곰탕, 설렁탕","rating":4,"reviews":2,"visits":[{"show":"BB","episode":55,"title":"서울특별시 영등포구","year":2020,"label":"55회"}],"shows":["BB"],"primaryShow":"BB"}},{"type":"Feature","geometry":{"type":"Point","coordinates":[126.9273951,37.5202157]},"properties":{"id":"kr-baekban-2B1iZtbiXNsS","name":"부흥동태","city":"영등포구 여의도동","country":"서울","kind":"동태탕","emoji":"🍲","status":"open","note":"동태탕, 동태전골","rating":2.4,"reviews":3,"visits":[{"show":"BB","episode":22,"title":"서울특별시 영등포구","year":2019,"label":"22회"}],"shows":["BB"],"primaryShow":"BB"}},{"type":"Feature","geometry":{"type":"Point","coordinates":[126.8953051,37.5138415]},"properties":{"id":"kr-baekban-zKAHqYA4EolT","name":"서여사네","city":"영등포구 문래동2가","country":"서울","kind":"어죽","emoji":"🍜","status":"open","note":"어죽, 어죽칼국수","rating":4.8,"reviews":10,"visits":[{"show":"BB","episode":55,"title":"서울특별시 영등포구","year":2020,"label":"55회"}],"shows":["BB"],"primaryShow":"BB"}},{"type":"Feature","geometry":{"type":"Point","coordinates":[126.8931051,37.5133865]},"properties":{"id":"kr-baekban-dDCr650Es18W","name":"골목집","city":"영등포구 문래동2가","country":"서울","kind":"오리고기","emoji":"🍗","status":"open","note":"오리고기, 오리불고기","rating":4.5,"reviews":73,"visits":[{"show":"BB","episode":55,"title":"서울특별시 영등포구","year":2020,"label":"55회","video":"https://www.youtube.com/watch?v=aDuS6t-89RE"}],"shows":["BB"],"primaryShow":"BB","image":"https://i.ytimg.com/vi/aDuS6t-89RE/hqdefault.jpg"}},{"type":"Feature","geometry":{"type":"Point","coordinates":[126.934014,37.5238899]},"properties":{"id":"kr-baekban-xES8HOOZjPMg","name":"장미의집","city":"영등포구 여의도동","country":"서울","kind":"냉삼","emoji":"🍽️","status":"open","note":"냉삼","rating":4.3,"reviews":2,"visits":[{"show":"BB","episode":22,"title":"서울특별시 영등포구","year":2019,"label":"22회"}],"shows":["BB"],"primaryShow":"BB"}},{"type":"Feature","geometry":{"type":"Point","coordinates":[126.9319846,37.5200311]},"properties":{"id":"kr-baekban-Jz1t9XTzGzbH","name":"서궁","city":"영등포구 여의도동","country":"서울","kind":"중식","emoji":"🍽️","status":"open","note":"중식, 오향장육","rating":3.9,"reviews":29,"visits":[{"show":"BB","episode":22,"title":"서울특별시 영등포구","year":2019,"label":"22회"}],"shows":["BB"],"primaryShow":"BB"}},{"type":"Feature","geometry":{"type":"Point","coordinates":[126.895409,37.5118588]},"properties":{"id":"kr-baekban-NKNHVLTqNkW2","name":"매일낙지","city":"영등포구 문래동1가","country":"서울","kind":"낙지","emoji":"🐟","status":"open","note":"낙지, 불낙지","rating":5,"reviews":2,"visits":[{"show":"BB","episode":55,"title":"서울특별시 영등포구","year":2020,"label":"55회"}],"shows":["BB"],"primaryShow":"BB"}},{"type":"Feature","geometry":{"type":"Point","coordinates":[126.8947937,37.513839]},"properties":{"id":"kr-baekban-RORgdS6JIWZd","name":"은진포차","city":"영등포구 문래동2가","country":"서울","kind":"횟집","emoji":"🐟","status":"open","note":"횟집, 병어조림","rating":4.2,"reviews":10,"visits":[{"show":"BB","episode":55,"title":"서울특별시 영등포구","year":2020,"label":"55회"}],"shows":["BB"],"primaryShow":"BB"}},{"type":"Feature","geometry":{"type":"Point","coordinates":[126.8975875,37.5270388]},"properties":{"id":"kr-baekban-GkqnIJ6KMYiU","name":"죽변항 해물포차","city":"영등포구 당산동3가","country":"서울","kind":"해산물","emoji":"🍲","status":"open","note":"해산물, 해물포차","rating":4.2,"reviews":12,"visits":[{"show":"BB","episode":276,"title":"성시경의 좋을텐데 2024 연말밥상","year":2024,"label":"276회"}],"shows":["BB"],"primaryShow":"BB"}},{"type":"Feature","geometry":{"type":"Point","coordinates":[126.927223,37.5201203]},