{"type":"FeatureCollection","metadata":{"profile":"koreantable","generated":"2026-07-15T03:40:12.367Z","counts":{"places":276,"withEpisodes":14,"fromDiningCode":274,"geocodedAdds":0,"externalNew":2,"externalEnriched":65,"episodeVenues":12,"episodeUnresolved":0}},"features":[{"type":"Feature","geometry":{"type":"Point","coordinates":[128.4791875,35.1013487]},"properties":{"id":"kr-koreantable-1YqCYlUoXfQ3","name":"이층횟집","city":"창원시","country":"경남","kind":"해산물","emoji":"🐟","status":"open","note":"해산물, 미더덕","rating":3.7,"reviews":8,"visits":[{"show":"KT","episode":161,"title":"툭 터지면 봄이 온다 - 마산 미더덕","year":2014,"label":"161회"}],"shows":["KT"],"primaryShow":"KT"}},{"type":"Feature","geometry":{"type":"Point","coordinates":[127.0091093,37.6087332]},"properties":{"id":"kr-koreantable-oEl7PUZ5RKt0","name":"청년밥상문간","city":"성북구 정릉동","country":"서울","kind":"김치찌개","emoji":"🍜","status":"open","note":"김치찌개, 라면","rating":4.5,"reviews":7,"visits":[],"shows":["KT"],"primaryShow":"KT","image":"https://i.ytimg.com/vi/50MIvLjnQN8/hqdefault.jpg"}},{"type":"Feature","geometry":{"type":"Point","coordinates":[127.0636921,38.0257951]},"properties":{"id":"kr-koreantable-ePUOxjWTmNum","name":"쉼터어부식당","city":"연천군 전곡읍","country":"경기","kind":"참게매운탕","emoji":"🍲","status":"open","note":"참게매운탕, 민물매운탕","rating":4.3,"reviews":3,"visits":[],"shows":["KT"],"primaryShow":"KT"}},{"type":"Feature","geometry":{"type":"Point","coordinates":[127.1272843,36.9212452]},"properties":{"id":"kr-koreantable-Uzeq61D5Tyr9","name":"성환순대두번째집","city":"천안시","country":"충남","kind":"순대국","emoji":"🍲","status":"open","note":"순대국","rating":3.3,"reviews":3,"visits":[],"shows":["KT"],"primaryShow":"KT","image":"https://i.ytimg.com/vi/7T4vsOa5q00/hqdefault.jpg"}},{"type":"Feature","geometry":{"type":"Point","coordinates":[127.490181,34.9501174]},"properties":{"id":"kr-koreantable-tEGl1U1eJ3zh","name":"대원식당","city":"순천시 장천동","country":"전남","kind":"한정식","emoji":"🍚","status":"open","note":"한정식, 수라상","rating":4.4,"reviews":9,"visits":[],"shows":["KT"],"primaryShow":"KT"}},{"type":"Feature","geometry":{"type":"Point","coordinates":[126.5378253,37.0373872]},"properties":{"id":"kr-koreantable-XSVnEBC6RTfk","name":"해오름해물칼국수","city":"당진시 석문면","country":"충남","kind":"칼국수","emoji":"🍜","status":"open","note":"칼국수, 해물칼국수","rating":3.5,"reviews":8,"visits":[],"shows":["KT"],"primaryShow":"KT"}},{"type":"Feature","geometry":{"type":"Point","coordinates":[128.4243092,34.8448435]},"properties":{"id":"kr-koreantable-inksWc26tc4L","name":"통영굴강정과친구들","city":"통영시 중앙동","country":"경남","kind":"굴요리","emoji":"🍗","status":"open","note":"굴요리, 닭강정","rating":3.6,"reviews":2,"visits":[],"shows":["KT"],"primaryShow":"KT"}},{"type":"Feature","geometry":{"type":"Point","coordinates":[127.3839559,35.0112653]},"properties":{"id":"kr-koreantable-nuXCk2TfFgCw","name":"진일기사식당","city":"순천시 승주읍","country":"전남","kind":"백반","emoji":"🍚","status":"open","note":"백반, 김치찌개","rating":3.4,"reviews":4,"visits":[],"shows":["KT"],"primaryShow":"KT"}},{"type":"Feature","geometry":{"type":"Point","coordinates":[126.4712234,36.5384422]},"properties":{"id":"kr-koreantable-I1KJ6WF6jibx","name":"덕호네수산","city":"홍성군 서부면","country":"충남","kind":"새조개","emoji":"🐟","status":"open","note":"새조개, 대하","rating":4,"reviews":1,"visits":[],"shows":["KT"],"primaryShow":"KT"}},{"type":"Feature","geometry":{"type":"Point","coordinates":[126.9961462,37.5933105]},"properties":{"id":"kr-koreantable-Ja2E8YLHHLis","name":"성북동 돼지갈비집","city":"성북구 성북동","country":"서울","kind":"돼지불백","emoji":"🥩","status":"open","note":"돼지불백, 기사식당","rating":3.5,"reviews":15,"visits":[],"shows":["KT"],"primaryShow":"KT","image":"https://i.ytimg.com/vi/cgsCaYspcNA/hqdefault.jpg"}},{"type":"Feature","geometry":{"type":"Point","coordinates":[127.6450643,36.0167782]},"properties":{"id":"kr-koreantable-0NChJUjYm6w2","name":"섬마을","city":"무주군 무주읍","country":"전북","kind":"어죽","emoji":"🍲","status":"open","note":"어죽, 도리뱅뱅이","rating":4.6,"reviews":7,"visits":[],"shows":["KT"],"primaryShow":"KT"}},{"type":"Feature","geometry":{"type":"Point","coordinates":[128.4598685,35.0494333]},"properties":{"id":"kr-koreantable-GEr5SVE4wXxJ","name":"동해범바위골장어","city":"고성군 동해면","country":"경남","kind":"장어구이","emoji":"🥩","status":"open","note":"장어구이","rating":4,"reviews":1,"visits":[],"shows":["KT"],"primaryShow":"KT"}},{"type":"Feature","geometry":{"type":"Point","coordinates":[128.4212453,34.8260721]},"properties":{"id":"kr-koreantable-rcJuWIBbupWP","name":"성림","city":"통영시 도남동","country":"경남","kind":"생선구이","emoji":"🥩","status":"open","note":"생선구이","rating":4.2,"reviews":2,"visits":[],"shows":["KT"],"primaryShow":"KT"}},{"type":"Feature","geometry":{"type":"Point","coordinates":[128.7041325,34.830328]},"properties":{"id":"kr-koreantable-tYVbFvZgF5x1","name":"지세포횟집","city":"거제시 일운면","country":"경남","kind":"횟집","emoji":"🐟","status":"open","note":"횟집, 대방어","rating":5,"reviews":6,"visits":[],"shows":["KT"],"primaryShow":"KT"}},{"type":"Feature","geometry":{"type":"Point","coordinates":[126.6360955,37.4733625]},"properties":{"id":"kr-koreantable-pvRo7V3cVS3L","name":"송미옥","city":"동구 금곡동","country":"인천","kind":"복어","emoji":"🍽️","status":"open","note":"복어, 복어요리","rating":4,"reviews":1,"visits":[],"shows":["KT"],"primaryShow":"KT"}},{"type":"Feature","geometry":{"type":"Point","coordinates":[126.895506,35.886545]},"properties":{"id":"kr-koreantable-ApTL7ogFZAut","name":"명천식당슈퍼","city":"김제시 공덕면","country":"전북","kind":"제육볶음","emoji":"🍲","status":"open","note":"제육볶음, 김치찌개","rating":4,"reviews":4,"visits":[],"shows":["KT"],"primaryShow":"KT"}},{"type":"Feature","geometry":{"type":"Point","coordinates":[126.6125971,34.5406891]},"properties":{"id":"kr-koreantable-YR5QgPaFdK6E","name":"원조장수통닭","city":"해남군 해남읍","country":"전남","kind":"닭","emoji":"🍗","status":"open","note":"닭, 토종닭","rating":4.1,"reviews":8,"visits":[],"shows":["KT"],"primaryShow":"KT"}},{"type":"Feature","geometry":{"type":"Point","coordinates":[129.022625,35.0991987]},"properties":{"id":"kr-koreantable-tYwaBmHbXSEY","name":"함흥냉면갈비","city":"서구 토성동1가","country":"부산","kind":"함흥냉면","emoji":"🍜","status":"open","note":"함흥냉면","rating":2,"reviews":1,"visits":[],"shows":["KT"],"primaryShow":"KT"}},{"type":"Feature","geometry":{"type":"Point","coordinates":[128.2972835,34.9172083]},"properties":{"id":"kr-koreantable-K0oE9nqxpUFl","name":"하모자연산횟집","city":"고성군 삼산면","country":"경남","kind":"하모샤브샤브","emoji":"🐟","status":"unknown","note":"하모샤브샤브, 갯장어","rating":3.3,"reviews":2,"visits":[{"show":"KT","episode":183,"title":"펄떡이는 바다의 힘을 먹는다 - 고성 갯장어","year":2014,"label":"183회"}],"shows":["KT"],"primaryShow":"KT"}},{"type":"Feature","geometry":{"type":"Point","coordinates":[126.949428,35.9415884]},"properties":{"id":"kr-koreantable-i75cZXh75XKN","name":"정순순대","city":"익산시 창인동1가","country":"전북","kind":"순대국","emoji":"🍲","status":"open","note":"순대국, 피순대","rating":3.8,"reviews":11,"visits":[],"shows":["KT"],"primaryShow":"KT","image":"https://i.ytimg.com/vi/JKpLdCgaIW8/hqdefault.jpg"}},{"type":"Feature","geometry":{"type":"Point","coordinates":[127.3736765,37.1645987]},"properties":{"id":"kr-koreantable-JZ4mAqcEf6mF","name":"제일식당","city":"용인시","country":"경기","kind":"순대국","emoji":"🍲","status":"open","note":"순대국","rating":4.1,"reviews":35,"visits":[],"shows":["KT"],"primaryShow":"KT","image":"https://i.ytimg.com/vi/NnUlf7x1AWM/hqdefault.jpg"}},{"type":"Feature","geometry":{"type":"Point","coordinates":[127.5905998,37.5923351]},"properties":{"id":"kr-koreantable-LKKifvtowbbU","name":"꼬예뜰","city":"양평군 단월면","country":"경기","kind":"산나물전골","emoji":"🍚","status":"open","note":"산나물전골","rating":4.5,"reviews":2,"visits":[],"shows":["KT"],"primaryShow":"KT"}},{"type":"Feature","geometry":{"type":"Point","coordinates":[126.6177943,37.4756854]},"properties":{"id":"kr-koreantable-KA9fW1ViPiE7","name":"신일복집","city":"중구 북성동2가","country":"인천","kind":"복어","emoji":"🐟","status":"unknown","note":"복어, 간장게장","rating":0,"reviews":0,"visits":[],"shows":["KT"],"primaryShow":"KT"}},{"type":"Feature","geometry":{"type":"Point","coordinates":[126.6036068,37.4565647]},"properties":{"id":"kr-koreantable-S5qwFOY30YE9","name":"송원식당 인천항점","city":"중구 항동7가","country":"인천","kind":"밴댕이","emoji":"🐟","status":"open","note":"밴댕이, 밴댕이회무침","rating":5,"reviews":2,"visits":[],"shows":["KT"],"primaryShow":"KT"}},{"type":"Feature","geometry":{"type":"Point","coordinates":[128.9866016,37.2078523]},"properties":{"id":"kr-koreantable-JGPHmoOJRXUX","name":"구와우순두부","city":"태백시 황지동","country":"강원","kind":"두부요리","emoji":"🍲","status":"open","note":"두부요리","rating":0,"reviews":0,"visits":[],"shows":["KT"],"primaryShow":"KT"}},{"type":"Feature","geometry":{"type":"Point","coordinates":[127.7091604,37.5554795]},"properties":{"id":"kr-koreantable-3zjYlQ8Sq0nH","name":"순흥식당","city":"양평군 청운면","country":"경기","kind":"백반","emoji":"🍚","status":"open","note":"백반, 백반집","rating":0,"reviews":0,"visits":[],"shows":["KT"],"primaryShow":"KT"}},{"type":"Feature","geometry":{"type":"Point","coordinates":[126.5313941,37.6355365]},"properties":{"id":"kr-koreantable-9dkuJHGTETWs","name":"수원호","city":"강화군 길상면","country":"인천","kind":"횟집","emoji":"🥩","status":"open","note":"횟집, 조개구이","rating":4.5,"reviews":4,"visits":[],"shows":["KT"],"primaryShow":"KT"}},{"type":"Feature","geometry":{"type":"Point","coordinates":[128.6060407,35.8621283]},"properties":{"id":"kr-koreantable-CWUjnIxLkl1I","name":"방천찌짐","city":"중구 대봉동","country":"대구","kind":"빈대떡","emoji":"🥞","status":"open","note":"빈대떡, 찌짐","rating":5,"reviews":1,"visits":[],"shows":["KT"],"primaryShow":"KT"}},{"type":"Feature","geometry":{"type":"Point","coordinates":[125.7003171,37.6607739]},"properties":{"id":"kr-koreantable-1I9hTpvlGTao","name":"미영식당","city":"옹진군 연평면","country":"인천","kind":"꽃게탕","emoji":"🐟","status":"open","note":"꽃게탕","rating":0,"reviews":0,"visits":[],"shows":["KT"],"primaryShow":"KT"}},{"type":"Feature","geometry":{"type":"Point","coordinates":[126.9693926,37.5871066]},"properties":{"id":"kr-koreantable-imMhFOWT53RO","name":"지화자","city":"종로구 청운동","country":"서울","kind":"한정식","emoji":"🍚","status":"open","note":"한정식, 궁중음식","rating":0,"reviews":0,"visits":[],"shows":["KT"],"primaryShow":"KT"}},{"type":"Feature","geometry":{"type":"Point","coordinates":[129.120869,37.556411]},"properties":{"id":"kr-koreantable-C0AfEc8l8cIO","name":"오부자냄비물회","city":"동해시 묵호진동","country":"강원","kind":"물회","emoji":"🐟","status":"open","note":"물회, 냄비물회","rating":4,"reviews":11,"visits":[{"show":"KT","episode":82,"title":"동해바다가 그대로 풍덩 - 물회와 식해","year":2012,"label":"82회"},{"show":"KT","episode":468,"title":"어부들의 간편식 모두의 별미로 - 동해 물회 견문록","year":2020,"label":"468회"}],"shows":["KT"],"primaryShow":"KT"}},{"type":"Feature","geometry":{"type":"Point","coordinates":[126.3438417,37.6452102]},"properties":{"id":"kr-koreantable-iyInilczVqco","name":"창덕호횟집","city":"강화군 삼산면","country":"인천","kind":"횟집","emoji":"🐟","status":"unknown","note":"횟집, 쭈꾸미샤브샤브","rating":4,"reviews":1,"visits":[],"shows":["KT"],"primaryShow":"KT"}},{"type":"Feature","geometry":{"type":"Point","coordinates":[127.7813618,37.9295269]},"properties":{"id":"kr-koreantable-qvxyCAY4qRxa","name":"샘밭막국수 본점","city":"춘천시 신북읍","country":"강원","kind":"막국수","emoji":"🍜","status":"open","note":"막국수, 순메밀막국수","rating":3.9,"reviews":34,"visits":[{"show":"KT","episode":80,"title":"시원한 여름의 맛 - 춘천시 막국수","year":2012,"label":"80회"}],"shows":["KT"],"primaryShow":"KT"}},{"type":"Feature","geometry":{"type":"Point","coordinates":[129.1717911,37.437723]},"properties":{"id":"kr-koreantable-WM5IrcQprzKC","name":"울릉도호박집","city":"삼척시 정상동","country":"강원","kind":"생선조림","emoji":"🐟","status":"unknown","note":"생선조림, 생선찜","rating":0,"reviews":0,"visits":[],"shows":["KT"],"primaryShow":"KT"}},{"type":"Feature","geometry":{"type":"Point","coordinates":[126.3602685,36.3467161]},"properties":{"id":"kr-koreantable-CAD1L8BWSI6a","name":"삽시도회식당","city":"보령시 오천면","country":"충남","kind":"횟집","emoji":"🐟","status":"unknown","note":"횟집","rating":0,"reviews":0,"visits":[],"shows":["KT"],"primaryShow":"KT"}},{"type":"Feature","geometry":{"type":"Point","coordinates":[129.257629,35.2989207]},"properties":{"id":"kr-koreantable-NthoGMio3EYp","name":"구룡가식당","city":"기장군 일광읍","country":"부산","kind":"집밥","emoji":"🍗","status":"open","note":"집밥, 오리불고기","rating":5,"reviews":2,"visits":[],"shows":["KT"],"primaryShow":"KT"}},{"type":"Feature","geometry":{"type":"Point","coordinates":[127.2728219,37.0075184]},"properties":{"id":"kr-koreantable-5KbFWkMqqma9","name":"안일옥 본점","city":"안성시 영동","country":"경기","kind":"설렁탕","emoji":"🍲","status":"open","note":"설렁탕, 국밥","rating":3.9,"reviews":27,"visits":[],"shows":["KT"],"primaryShow":"KT","image":"https://i.ytimg.com/vi/mRoujAz99B4/hqdefault.jpg"}},{"type":"Feature","geometry":{"type":"Point","coordinates":[126.470241,36.5390348]},"properties":{"id":"kr-koreantable-HKsBNORpXrWJ","name":"중앙회수산","city":"홍성군 서부면","country":"충남","kind":"대하","emoji":"🐟","status":"open","note":"대하, 꽃게탕","rating":3.5,"reviews":1,"visits":[],"shows":["KT"],"primaryShow":"KT"}},{"type":"Feature","geometry":{"type":"Point","coordinates":[127.5738935,35.1992468]},"properties":{"id":"kr-koreantable-aPfglnBQTIOP","name":"용궁가든","city":"구례군 토지면","country":"전남","kind":"참게탕","emoji":"🍽️","status":"open","note":"참게탕","rating":0,"reviews":0,"visits":[],"shows":["KT"],"primaryShow":"KT"}},{"type":"Feature","geometry":{"type":"Point","coordinates":[126.7757332,36.4009706]},"properties":{"id":"kr-koreantable-46B159YdhvjN","name":"대일식당","city":"청양군 남양면","country":"충남","kind":"순두부찌개","emoji":"🍲","status":"open","note":"순두부찌개","rating":4.8,"reviews":6,"visits":[],"shows":["KT"],"primaryShow":"KT"}},{"type":"Feature","geometry":{"type":"Point","coordinates":[126.8532294,35.1500123]},"properties":{"id":"kr-koreantable-5j9xAp8uu5ZW","name":"민들레","city":"서구 치평동","country":"광주","kind":"간장게장","emoji":"🐟","status":"open","note":"간장게장","rating":0,"reviews":0,"visits":[],"shows":["KT"],"primaryShow":"KT"}},{"type":"Feature","geometry":{"type":"Point","coordinates":[126.6389264,36.4814961]},"properties":{"id":"kr-koreantable-UBJHmvn2GaiN","name":"오서산억새풀식당","city":"홍성군 광천읍","country":"충남","kind":"잔치국수","emoji":"🍜","status":"open","note":"잔치국수, 들깨칼국수","rating":0,"reviews":0,"visits":[],"shows":["KT"],"primaryShow":"KT"}},{"type":"Feature","geometry":{"type":"Point","coordinates":[126.6620221,37.6981364]},"properties":{"id":"kr-koreantable-npRNYdR6eeq7","name":"전류리사랑호","city":"김포시 하성면","country":"경기","kind":"생선회","emoji":"🐟","status":"open","note":"생선회, 해산물","rating":4.7,"reviews":3,"visits":[],"shows":["KT"],"primaryShow":"KT","image":"https://i.ytimg.com/vi/Sug1GILRSkA/hqdefault.jpg"}},{"type":"Feature","geometry":{"type":"Point","coordinates":[127.306812,34.9849211]},"properties":{"id":"kr-koreantable-8ektqBxcYfBO","name":"조계산보리밥집","city":"순천시 송광면","country":"전남","kind":"보리밥","emoji":"🍚","status":"unknown","note":"보리밥, 파전","rating":0,"reviews":0,"visits":[],"shows":["KT"],"primaryShow":"KT"}},{"type":"Feature","geometry":{"type":"Point","coordinates":[128.1926969,38.1443233]},"properties":{"id":"kr-koreantable-asBGLoyaHCMf","name":"하늘마당","city":"인제군 북면","country":"강원","kind":"막국수","emoji":"🍜","status":"open","note":"막국수, 수육","rating":5,"reviews":1,"visits":[],"shows":["KT"],"primaryShow":"KT"}},{"type":"Feature","geometry":{"type":"Point","coordinates":[128.427824,38.496916]},"properties":{"id":"kr-koreantable-DicUihgqn62e","name":"베드로횟집","city":"고성군 현내면","country":"강원","kind":"횟집","emoji":"🐟","status":"open","note":"횟집, 물회","rating":5,"reviews":4,"visits":[],"shows":["KT"],"primaryShow":"KT"}},{"type":"Feature","geometry":{"type":"Point","coordinates":[128.084982,35.19476]},"properties":{"id":"kr-koreantable-dUa66JfvDUSe","name":"하동집","city":"진주시 대안동","country":"경남","kind":"복어","emoji":"🍽️","status":"open","note":"복어, 복국","rating":4.5,"reviews":3,"visits":[],"shows":["KT"],"primaryShow":"KT"}},{"type":"Feature","geometry":{"type":"Point","coordinates":[127.3822655,36.4150596]},"properties":{"id":"kr-koreantable-7SGszI5cPdn7","name":"솔밭묵집","city":"유성구 관평동","country":"대전","kind":"도토리묵","emoji":"🍚","status":"unknown","note":"도토리묵, 보리밥","rating":4,"reviews":17,"visits":[],"shows":["KT"],"primaryShow":"KT"}},{"type":"Feature","geometry":{"type":"Point","coordinates":[126.755567,36.942884]},"properties":{"id":"kr-koreantable-BcBtcR283plC","name":"조희숙의상록수향토음식체험장","city":"당진시 송악읍","country":"충남","kind":"한정식","emoji":"🍚","status":"open","note":"한정식, 향토음식점","rating":0,"reviews":0,"visits":[],"shows":["KT"],"primaryShow":"KT"}},{"type":"Feature","geometry":{"type":"Point","coordinates":[129.0708567,35.1264951]},"properties":{"id":"kr-koreantable-8gokguoWqCnr","name":"내호냉면","city":"남구 우암동","country":"부산","kind":"밀면","emoji":"🍜","status":"open","note":"밀면, 냉면","rating":4.1,"reviews":26,"visits":[],"shows":["KT"],"primaryShow":"KT","image":"https://i.ytimg.com/vi/ys_UbYr9kqo/hqdefault.jpg"}},{"type":"Feature","geometry":{"type":"Point","coordinates":[128.3592405,38.2128163]},"properties":{"id":"kr-koreantable-gROQCkd421y6","name":"산골황태3대식당","city":"인제군 북면","country":"강원","kind":"황태","emoji":"🥩","status":"open","note":"황태, 황태구이","rating":3.4,"reviews":5,"visits":[],"shows":["KT"],"primaryShow":"KT"}},{"type":"Feature","geometry":{"type":"Point","coordinates":[127.0362042,37.5654619]},"properties":{"id":"kr-koreantable-E8oWo3bMaNy9","name":"왕십리소곱창","city":"성동구 홍익동","country":"서울","kind":"곱창","emoji":"🥩","status":"open","note":"곱창, 소곱창","rating":4.3,"reviews":3,"visits":[],"shows":["KT"],"primaryShow":"KT"}},{"type":"Feature","geometry":{"type":"Point","coordinates":[126.6243291,36.8942545]},"properties":{"id":"kr-koreantable-7uZ6dKnP6Eb6","name":"삽교곱창","city":"당진시 채운동","country":"충남","kind":"곱창","emoji":"🍲","status":"open","note":"곱창, 곱창찌개","rating":0,"reviews":0,"visits":[],"shows":["KT"],"primaryShow":"KT"}},{"type":"Feature","geometry":{"type":"Point","coordinates":[127.0313044,37.5643174]},"properties":{"id":"kr-koreantable-4kXeJBJOIGJ1","name":"닭내장탕집","city":"성동구 도선동","country":"서울","kind":"닭요리","emoji":"🍗","status":"open","note":"닭요리","rating":4.5,"reviews":8,"visits":[],"shows":["KT"],"primaryShow":"KT","image":"https://i.ytimg.com/vi/PZEaJ5kdT2A/hqdefault.jpg"}},{"type":"Feature","geometry":{"type":"Point","coordinates":[127.9100923,34.9737789]},"properties":{"id":"kr-koreantable-POU5pTtjrgEe","name":"선창횟집","city":"하동군 금남면","country":"경남","kind":"우럭","emoji":"🐟","status":"open","note":"우럭, 참숭어","rating":4.6,"reviews":5,"visits":[],"shows":["KT"],"primaryShow":"KT"}},{"type":"Feature","geometry":{"type":"Point","coordinates":[126.9857794,35.3231527]},"properties":{"id":"kr-koreantable-X2CmoIRyjH1d","name":"모란창평국밥","city":"담양군 담양읍","country":"전남","kind":"국밥","emoji":"🍲","status":"open","note":"국밥, 암뽕","rating":3.9,"reviews":4,"visits":[],"shows":["KT"],"primaryShow":"KT"}},{"type":"Feature","geometry":{"type":"Point","coordinates":[126.9072201,37.4917462]},"properties":{"id":"kr-koreantable-0kd9mqLh0KPz","name":"삼거리먼지막순대국","city":"영등포구 대림동","country":"서울","kind":"순대국","emoji":"🍲","status":"open","note":"순대국, 국밥","rating":4.1,"reviews":22,"visits":[],"shows":["KT"],"primaryShow":"KT","image":"https://i.ytimg.com/vi/Tgc-dUtIDJU/hqdefault.jpg"}},{"type":"Feature","geometry":{"type":"Point","coordinates":[127.1490275,35.8209553]},"properties":{"id":"kr-koreantable-3YUiPPXCVFIF","name":"감로헌","city":"전주시","country":"전북","kind":"채식","emoji":"🥗","status":"open","note":"채식","rating":3.5,"reviews":3,"visits":[],"shows":["KT"],"primaryShow":"KT"}},{"type":"Feature","geometry":{"type":"Point","coordinates":[128.1145574,37.9997556]},"properties":{"id":"kr-koreantable-q3digx6KWJ2h","name":"대흥식당","city":"인제군 남면","country":"강원","kind":"메기탕","emoji":"🍽️","status":"open","note":"메기탕, 메기찜","rating":0,"reviews":0,"visits":[],"shows":["KT"],"primaryShow":"KT"}},{"type":"Feature","geometry":{"type":"Point","coordinates":[126.7962449,37.887965]},"properties":{"id":"kr-koreantable-SROKvo4xW7M3","name":"임진대가","city":"파주시 문산읍","country":"경기","kind":"참게탕","emoji":"🍲","status":"open","note":"참게탕, 참게매운탕","rating":0,"reviews":0,"visits":[],"shows":["KT"],"primaryShow":"KT"}},{"type":"Feature","geometry":{"type":"Point","coordinates":[128.0682092,34.9272731]},"properties":{"id":"kr-koreantable-Mncc534eXnBi","name":"제일전복횟집","city":"사천시 서동","country":"경남","kind":"횟집","emoji":"🐟","status":"open","note":"횟집, 하모샤브샤브","rating":4,"reviews":1,"visits":[],"shows":["KT"],"primaryShow":"KT"}},{"type":"Feature","geometry":{"type":"Point","coordinates":[126.7165259,35.0315035]},"properties":{"id":"kr-koreantable-c9tbR3CVut8b","name":"나주곰탕 노안집","city":"나주시 금계동","country":"전남","kind":"곰탕","emoji":"🍲","status":"open","note":"곰탕, 수육곰탕","rating":4.6,"reviews":25,"visits":[{"show":"KT","episode":52,"title":"곰삭은 세월의 맛 - 나주시 곰탕 밥상","year":2012,"label":"52회","video":"https://www.youtube.com/watch?v=DBBZr12ZJTE"}],"shows":["KT"],"primaryShow":"KT","image":"https://i.ytimg.com/vi/DBBZr12ZJTE/hqdefault.jpg"}},{"type":"Feature","geometry":{"type":"Point","coordinates":[127.3665807,38.0361751]},"properties":{"id":"kr-koreantable-ELbGeXcalRfU","name":"이동부산갈비","city":"포천시 이동면","country":"경기","kind":"한우","emoji":"🥩","status":"open","note":"한우, 이동갈비","rating":5,"reviews":2,"visits":[],"shows":["KT"],"primaryShow":"KT"}},{"type":"Feature","geometry":{"type":"Point","coordinates":[129.0812167,35.4929115]},"properties":{"id":"kr-koreantable-FaQHPfnsbh0g","name":"산들바람","city":"양산시 하북면","country":"경남","kind":"연잎밥","emoji":"🐟","status":"open","note":"연잎밥, 민어","rating":4.2,"reviews":3,"visits":[],"shows":["KT"],"primaryShow":"KT"}},{"type":"Feature","geometry":{"type":"Point","coordinates":[126.5238758,35.0636938]},"properties":{"id":"kr-koreantable-vPMEs1Sf8rE6","name":"정경복궁","city":"함평군 함평읍","country":"전남","kind":"비빔밥","emoji":"🍚","status":"open","note":"비빔밥, 육회비빔밥","rating":5,"reviews":2,"visits":[],"shows":["KT"],"primaryShow":"KT"}},{"type":"Feature","geometry":{"type":"Point","coordinates":[127.2125173,38.2164361]},"properties":{"id":"kr-koreantable-41SRfuc2cMtf","name":"우렁골","city":"철원군 철원읍","country":"강원","kind":"콩국수","emoji":"🍜","status":"open","note":"콩국수, 서리태콩국수","rating":4,"reviews":1,"visits":[],"shows":["KT"],"primaryShow":"KT"}},{"type":"Feature","geometry":{"type":"Point","coordinates":[128.8325657,37.8950912]},"properties":{"id":"kr-koreantable-gyJXQhauKX8m","name":"파도식당","city":"강릉시 주문진읍","country":"강원","kind":"대구탕","emoji":"🍽️","status":"unknown","note":"대구탕, 복지리","rating":4.3,"reviews":4,"visits":[],"shows":["KT"],"primaryShow":"KT"}},{"type":"Feature","geometry":{"type":"Point","coordinates":[126.6306071,37.4852038]},"properties":{"id":"kr-koreantable-jrU42VS0XFeh","name":"물레방아","city":"동구 화수동","country":"인천","kind":"한치","emoji":"🍽️","status":"open","note":"한치, 한치무침","rating":4.1,"reviews":5,"visits":[],"shows":["KT"],"primaryShow":"KT"}},{"type":"Feature","geometry":{"type":"Point","coordinates":[126.5188828,34.9654297]},"properties":{"id":"kr-koreantable-e1XBfjCJTbIo","name":"두암식당","city":"무안군 몽탄면","country":"전남","kind":"삼겹살","emoji":"🥩","status":"open","note":"삼겹살, 짚불구이","rating":4.4,"reviews":20,"visits":[],"shows":["KT"],"primaryShow":"KT"}},{"type":"Feature","geometry":{"type":"Point","coordinates":[128.477396,37.1793047]},"properties":{"id":"kr-koreantable-Lkq6lCLJ5Iis","name":"박가네","city":"영월군 영월읍","country":"강원","kind":"한정식","emoji":"🍚","status":"open","note":"한정식, 수라상","rating":4.1,"reviews":6,"visits":[],"shows":["KT"],"primaryShow":"KT"}},{"type":"Feature","geometry":{"type":"Point","coordinates":[129.0457094,37.2387459]},"properties":{"id":"kr-koreantable-J5dZLIKoplKu","name":"텃밭에노는닭","city":"삼척시 도계읍","country":"강원","kind":"물닭갈비","emoji":"🍗","status":"open","note":"물닭갈비","rating":4.8,"reviews":15,"visits":[],"shows":["KT"],"primaryShow":"KT"}},{"type":"Feature","geometry":{"type":"Point","coordinates":[126.8968469,37.4669428]},"properties":{"id":"kr-koreantable-HIEgiJ1JleLH","name":"송학식당","city":"금천구 독산동","country":"서울","kind":"한우","emoji":"🍣","status":"open","note":"한우, 육사시미","rating":5,"reviews":1,"visits":[],"shows":["KT"],"primaryShow":"KT"}},{"type":"Feature","geometry":{"type":"Point","coordinates":[126.7942769,37.8860779]},"properties":{"id":"kr-koreantable-hyx8MkCLN6gX","name":"장단가든","city":"파주시 문산읍","country":"경기","kind":"어탕국수","emoji":"🍜","status":"open","note":"어탕국수, 참게매운탕","rating":3.8,"reviews":3,"visits":[],"shows":["KT"],"primaryShow":"KT"}},{"type":"Feature","geometry":{"type":"Point","coordinates":[126.9770283,37.5583269]},"properties":{"id":"kr-koreantable-twRlROQyGLJ6","name":"남해식당","city":"중구 남창동","country":"서울","kind":"칼국수","emoji":"🍜","status":"open","note":"칼국수, 보리밥","rating":3.4,"reviews":14,"visits":[],"shows":["KT"],"primaryShow":"KT","image":"https://i.ytimg.com/vi/pTtHm3WoiNg/hqdefault.jpg"}},{"type":"Feature","geometry":{"type":"Point","coordinates":[126.4702866,36.5390088]},"properties":{"id":"kr-koreantable-fNcFYXRrDWas","name":"마돈나수산","city":"홍성군 서부면","country":"충남","kind":"새조개","emoji":"🐟","status":"open","note":"새조개, 해산물","rating":5,"reviews":2,"visits":[],"shows":["KT"],"primaryShow":"KT"}},{"type":"Feature","geometry":{"type":"Point","coordinates":[127.005961,37.5604158]},"properties":{"id":"kr-koreantable-2AGO4OrQ3XbI","name":"뚱뚱이할머니집 본점","city":"중구 장충동1가","country":"서울","kind":"족발","emoji":"🍜","status":"open","note":"족발, 막국수","rating":3.8,"reviews":28,"visits":[],"shows":["KT"],"primaryShow":"KT","image":"https://i.ytimg.com/vi/SLTvrUWl6XM/hqdefault.jpg"}},{"type":"Feature","geometry":{"type":"Point","coordinates":[126.6949422,37.7139313]},"properties":{"id":"kr-koreantable-fy14tf2SlR66","name":"할머니묵집","city":"파주시 서패동","country":"경기","kind":"닭볶음탕","emoji":"🍗","status":"open","note":"닭볶음탕, 토종닭볶음탕","rating":3.7,"reviews":15,"visits":[],"shows":["KT"],"primaryShow":"KT","image":"https://i.ytimg.com/vi/EZ6Kz_EQ9mA/hqdefault.jpg"}},{"type":"Feature","geometry":{"type":"Point","coordinates":[126.9448519,36.0058328]},"properties":{"id":"kr-koreantable-1tyMubx2B6La","name":"진미식당","city":"익산시 황등면","country":"전북","kind":"육회","emoji":"🍚","status":"open","note":"육회, 육회비빔밥","rating":3.2,"reviews":10,"visits":[],"shows":["KT"],"primaryShow":"KT","image":"https://i.ytimg.com/vi/Hxu0iRF3yIg/hqdefault.jpg"}},{"type":"Feature","geometry":{"type":"Point","coordinates":[127.0512317,37.9038952]},"properties":{"id":"kr-koreantable-wowsT3P2YsG6","name":"평남면옥","city":"동두천시 생연동","country":"경기","kind":"평양냉면","emoji":"🍜","status":"open","note":"평양냉면","rating":3.6,"reviews":8,"visits":[],"shows":["KT"],"primaryShow":"KT"}},{"type":"Feature","geometry":{"type":"Point","coordinates":[128.916643,37.79655]},"properties":{"id":"kr-koreantable-IOjEE8v9R7aS","name":"영동횟집","city":"강릉시 강문동","country":"강원","kind":"모듬회","emoji":"🐟","status":"open","note":"모듬회, 횟집","rating":4,"reviews":4,"visits":[],"shows":["KT"],"primaryShow":"KT","image":"https://i.ytimg.com/vi/Fr0dbXMLjcc/hqdefault.jpg"}},{"type":"Feature","geometry":{"type":"Point","coordinates":[126.9714754,37.5756601]},"properties":{"id":"kr-koreantable-4ztapD5xQCMR","name":"할매집","city":"종로구 내자동","country":"서울","kind":"족발","emoji":"🍲","status":"open","note":"족발, 감자탕","rating":4.3,"reviews":33,"visits":[],"shows":["KT"],"primaryShow":"KT","image":"https://i.ytimg.com/vi/fa_GYbbeE4I/hqdefault.jpg"}},{"type":"Feature","geometry":{"type":"Point","coordinates":[127.7666799,35.0584634]},"properties":{"id":"kr-koreantable-Btxf6zxGrI9X","name":"해성재첩식당","city":"하동군 하동읍","country":"경남","kind":"재첩","emoji":"🍽️","status":"open","note":"재첩, 재첩국","rating":4,"reviews":13,"visits":[],"shows":["KT"],"primaryShow":"KT"}},{"type":"Feature","geometry":{"type":"Point","coordinates":[126.4441818,35.3581514]},"properties":{"id":"kr-koreantable-BLfRTDwngjKd","name":"바다하다","city":"영광군 법성면","country":"전남","kind":"카페","emoji":"🍢","status":"open","note":"카페, 어묵전문","rating":0,"reviews":0,"visits":[],"shows":["KT"],"primaryShow":"KT"}},{"type":"Feature","geometry":{"type":"Point","coordinates":[127.5924878,35.3625991]},"properties":{"id":"kr-koreantable-99GFycJmN20P","name":"누운골","city":"남원시 산내면","country":"전북","kind":"백숙","emoji":"🍗","status":"unknown","note":"백숙, 도토리묵","rating":2.3,"reviews":2,"visits":[],"shows":["KT"],"primaryShow":"KT"}},{"type":"Feature","geometry":{"type":"Point","coordinates":[128.2086625,37.1409153]},"properties":{"id":"kr-koreantable-Rxr7IeSVO78S","name":"바우본가","city":"제천시 의림동","country":"충북","kind":"한정식","emoji":"🍚","status":"open","note":"한정식, 약초한정식","rating":0,"reviews":0,"visits":[],"shows":["KT"],"primaryShow":"KT"}},{"type":"Feature","geometry":{"type":"Point","coordinates":[128.16174,36.4144157]},"properties":{"id":"kr-koreantable-LbUSNfAcRnYa","name":"세느제과","city":"상주시 남성동","country":"경북","kind":"빵","emoji":"🍞","status":"open","note":"빵, 찹쌀떡","rating":5,"reviews":2,"visits":[],"shows":["KT"],"primaryShow":"KT"}},{"type":"Feature","geometry":{"type":"Point","coordinates":[126.4205202,36.6059577]},"properties":{"id":"kr-koreantable-tTFHOu5JDLoD","name":"간월도 밀양","city":"서산시 부석면","country":"충남","kind":"횟집","emoji":"🐟","status":"open","note":"횟집, 굴밥","rating":5,"reviews":1,"visits":[],"shows":["KT"],"primaryShow":"KT"}},{"type":"Feature","geometry":{"type":"Point","coordinates":[126.629588,37.4785075]},"properties":{"id":"kr-koreantable-mu2m5hZGO3UN","name":"일미화평동냉면","city":"동구 화평동","country":"인천","kind":"냉면","emoji":"🍜","status":"open","note":"냉면, 수박","rating":3.6,"reviews":5,"visits":[],"shows":["KT"],"primaryShow":"KT","image":"https://i.ytimg.com/vi/nbIxHo-q-xs/hqdefault.jpg"}},{"type":"Feature","geometry":{"type":"Point","coordinates":[127.010124,37.4909564]},"properties":{"id":"kr-koreantable-7OmrK5FIKyg9","name":"평안면옥","city":"서초구 서초동","country":"서울","kind":"평양냉면","emoji":"🍜","status":"open","note":"평양냉면","rating":4.2,"reviews":2,"visits":[],"shows":["KT"],"primaryShow":"KT","image":"https://i.ytimg.com/vi/BAwGwVQOn9M/hqdefault.jpg"}},{"type":"Feature","geometry":{"type":"Point","coordinates":[129.2770946,35.7940506]},"properties":{"id":"kr-koreantable-IiKe0OUpdn9Q","name":"고두반","city":"경주시 도지동","country":"경북","kind":"한정식","emoji":"🍚","status":"open","note":"한정식, 농가맛집","rating":4.7,"reviews":3,"visits":[],"shows":["KT"],"primaryShow":"KT"}},{"type":"Feature","geometry":{"type":"Point","coordinates":[127.4460977,37.2789205]},"properties":{"id":"kr-koreantable-Sv9vseo6G4Ja","name":"백암토종순대","city":"이천시 창전동","country":"경기","kind":"순대국","emoji":"🍲","status":"open","note":"순대국, 선지","rating":5,"reviews":1,"visits":[],"shows":["KT"],"primaryShow":"KT"}},{"type":"Feature","geometry":{"type":"Point","coordinates":[128.7791499,36.5707739]},"properties":{"id":"kr-koreantable-Qeu0zYL9ZjTm","name":"일직식당","city":"안동시 운흥동","country":"경북","kind":"간고등어","emoji":"🍽️","status":"open","note":"간고등어, 조림","rating":4.1,"reviews":37,"visits":[],"shows":["KT"],"primaryShow":"KT"}},{"type":"Feature","geometry":{"type":"Point","coordinates":[128.002118,34.8367263]},"properties":{"id":"kr-koreantable-kcAA3jG4bdWH","name":"호원정","city":"남해군 창선면","country":"경남","kind":"멸치쌈밥","emoji":"🍚","status":"open","note":"멸치쌈밥, 멸치회무침","rating":5,"reviews":2,"visits":[],"shows":["KT"],"primaryShow":"KT"}},{"type":"Feature","geometry":{"type":"Point","coordinates":[126.6228038,37.4720938]},"properties":{"id":"kr-koreantable-jjHg3owh7WVP","name":"명월집","city":"중구 중앙동3가","country":"인천","kind":"백반","emoji":"🍚","status":"open","note":"백반, 김치찌개","rating":3.3,"reviews":6,"visits":[],"shows":["KT"],"primaryShow":"KT","image":"https://i.ytimg.com/vi/qHrUJxhUYb8/hqdefault.jpg"}},{"type":"Feature","geometry":{"type":"Point","coordinates":[128.9146711,37.7911711]},"properties":{"id":"kr-koreantable-ZjVE2ljcbyrP","name":"동화가든 본점","city":"강릉시 초당동","country":"강원","kind":"짬뽕순두부","emoji":"🍜","status":"open","note":"짬뽕순두부, 청국장","rating":4.3,"reviews":335,"visits":[],"shows":["KT"],"primaryShow":"KT","image":"https://i.ytimg.com/vi/v8iZb6Y4-rU/hqdefault.jpg"}},{"type":"Feature","geometry":{"type":"Point","coordinates":[128.6203662,35.2642762]},"properties":{"id":"kr-koreantable-KeTOGdT4Y74G","name":"창원아구촌","city":"창원시","country":"경남","kind":"아구찜","emoji":"🐟","status":"unknown","note":"아구찜, 아구요리","rating":4,"reviews":1,"visits":[],"shows":["KT"],"primaryShow":"KT"}},{"type":"Feature","geometry":{"type":"Point","coordinates":[128.0161749,36.8417606]},"properties":{"id":"kr-koreantable-qR0HI5KyICoD","name":"대장군","city":"충주시 수안보면","country":"충북","kind":"꿩요리","emoji":"🍽️","status":"open","note":"꿩요리","rating":5,"reviews":5,"visits":[],"shows":["KT"],"primaryShow":"KT","image":"https://i.ytimg.com/vi/0ZBDTS9g-0w/hqdefault.jpg"}},{"type":"Feature","geometry":{"type":"Point","coordinates":[126.9746958,37.5344019]},"properties":{"id":"kr-koreantable-lg6bIHYBXzyM","name":"대원식당","city":"용산구 용산동3가","country":"서울","kind":"생선구이","emoji":"🍚","status":"open","note":"생선구이, 생선구이백반","rating":4.5,"reviews":13,"visits":[],"shows":["KT"],"primaryShow":"KT","image":"https://i.ytimg.com/vi/67nFIb3H8YI/hqdefault.jpg"}},{"type":"Feature","geometry":{"type":"Point","coordinates":[128.0438573,34.7993869]},"properties":{"id":"kr-koreantable-qDuj0mthVz7t","name":"어부림","city":"남해군 삼동면","country":"경남","kind":"멸치쌈밥","emoji":"🍚","status":"open","note":"멸치쌈밥, 갈치조림","rating":5,"reviews":1,"visits":[],"shows":["KT"],"primaryShow":"KT"}},{"type":"Feature","geometry":{"type":"Point","coordinates":[127.0494505,37.7440927]},"properties":{"id":"kr-koreantable-MJV0vCt3w9v3","name":"오뎅식당","city":"의정부시 의정부동","country":"경기","kind":"부대찌개","emoji":"🍲","status":"open","note":"부대찌개, 부대볶음","rating":4.1,"reviews":46,"visits":[],"shows":["KT"],"primaryShow":"KT","image":"https://i.ytimg.com/vi/6SeoaGEZi60/hqdefault.jpg"}},{"type":"Feature","geometry":{"type":"Point","coordinates":[126.9987029,37.5682697]},"properties":{"id":"kr-koreantable-TjHHaWq8Ylqt","name":"우래옥 본점","city":"중구 주교동","country":"서울","kind":"평양냉면","emoji":"🍜","status":"open","note":"평양냉면","rating":4.3,"reviews":251,"visits":[],"shows":["KT"],"primaryShow":"KT","image":"https://i.ytimg.com/vi/zdREG1G6ad8/hqdefault.jpg"}},{"type":"Feature","geometry":{"type":"Point","coordinates":[126.9794207,37.5717535]},"properties":{"id":"kr-koreantable-JoJejHek5u8P","name":"청진옥","city":"종로구 청진동","country":"서울","kind":"해장국","emoji":"🍲","status":"open","note":"해장국, 선지","rating":4.1,"reviews":94,"visits":[],"shows":["KT"],"primaryShow":"KT","image":"https://i.ytimg.com/vi/JVQXkPmjanw/hqdefault.jpg"}},{"type":"Feature","geometry":{"type":"Point","coordinates":[127.126039,37.510237]},"properties":{"id":"kr-koreantable-pdVGcp9QJ5Ms","name":"봉피양 본점","city":"송파구 방이동","country":"서울","kind":"평양냉면","emoji":"🍜","status":"open","note":"평양냉면, 돼지갈비","rating":4.1,"reviews":64,"visits":[],"shows":["KT"],"primaryShow":"KT","image":"https://i.ytimg.com/vi/5Fi2LBnXbJ4/hqdefault.jpg"}},{"type":"Feature","geometry":{"type":"Point","coordinates":[127.0063922,37.5702657]},"properties":{"id":"kr-koreantable-8biwbMk3yQZI","name":"호남집","city":"종로구 종로5가","country":"서울","kind":"생선구이","emoji":"🥩","status":"open","note":"생선구이","rating":3.6,"reviews":10,"visits":[],"shows":["KT"],"primaryShow":"KT","image":"https://i.ytimg.com/vi/6Vip4dcC61E/hqdefault.jpg"}},{"type":"Feature","geometry":{"type":"Point","coordinates":[127.0081959,37.5530495]},"properties":{"id":"kr-koreantable-h3hRx43nD7Vt","name":"처가집","city":"중구 신당동","country":"서울","kind":"이북식찜닭","emoji":"🍗","status":"open","note":"이북식찜닭, 백숙","rating":4.3,"reviews":8,"visits":[],"shows":["KT"],"primaryShow":"KT"}},{"type":"Feature","geometry":{"type":"Point","coordinates":[126.99363,37.5628269]},"properties":{"id":"kr-koreantable-NB4eiD60jFmF","name":"통일집","city":"중구 충무로4가","country":"서울","kind":"한우","emoji":"🥩","status":"open","note":"한우, 소고기","rating":0,"reviews":0,"visits":[],"shows":["KT"],"primaryShow":"KT"}},{"type":"Feature","geometry":{"type":"Point","coordinates":[126.9618708,37.5703324]},"properties":{"id":"kr-koreantable-7a5MpbFwhGdH","name":"독립문영천시장 만나팥죽","city":"서대문구 영천동","country":"서울","kind":"팥죽","emoji":"🍲","status":"open","note":"팥죽, 동지팥죽","rating":0,"reviews":0,"visits":[],"shows":["KT"],"primaryShow":"KT"}},{"type":"Feature","geometry":{"type":"Point","coordinates":[126.9785551,37.5673053]},"properties":{"id":"kr-koreantable-r2247lZhVEn0","name":"이북 만두","city":"중구 무교동","country":"서울","kind":"만두국","emoji":"🥟","status":"open","note":"만두국, 이북만두","rating":2.9,"reviews":20,"visits":[],"shows":["KT"],"primaryShow":"KT","image":"https://i.ytimg.com/vi/f1h0oxs66QA/hqdefault.jpg"}},{"type":"Feature","geometry":{"type":"Point","coordinates":[127.0381749,37.6031486]},"properties":{"id":"kr-koreantable-VWwhXZow29YG","name":"동영해장국","city":"성북구 하월곡동","country":"서울","kind":"해장국","emoji":"🍲","status":"unknown","note":"해장국, 선지해장국","rating":0,"reviews":0,"visits":[],"shows":["KT"],"primaryShow":"KT","image":"https://i.ytimg.com/vi/LNz1ujoKOEA/hqdefault.jpg"}},{"type":"Feature","geometry":{"type":"Point","coordinates":[127.0036997,37.5829946]},"properties":{"id":"kr-koreantable-hc8tKwPbSxEp","name":"순대실록","city":"종로구 동숭동","country":"서울","kind":"순대국","emoji":"🍲","status":"open","note":"순대국, 순대스테이크","rating":4,"reviews":78,"visits":[],"shows":["KT"],"primaryShow":"KT","image":"https://i.ytimg.com/vi/HUn5X80K9OY/hqdefault.jpg"}},{"type":"Feature","geometry":{"type":"Point","coordinates":[127.0104459,37.572569]},"properties":{"id":"kr-koreantable-FtDu3aYFvnyd","name":"영순이네 곱창","city":"종로구 창신동","country":"서울","kind":"곱창","emoji":"🥩","status":"open","note":"곱창, 야채곱창","rating":5,"reviews":2,"visits":[],"shows":["KT"],"primaryShow":"KT","image":"https://i.ytimg.com/vi/5cvy39iK9r4/hqdefault.jpg"}},{"type":"Feature","geometry":{"type":"Point","coordinates":[126.9882793,37.5720328]},"properties":{"id":"kr-koreantable-TbHBvvTWVSIo","name":"유진식당","city":"종로구 낙원동","country":"서울","kind":"평양냉면","emoji":"🍜","status":"open","note":"평양냉면","rating":4,"reviews":61,"visits":[],"shows":["KT"],"primaryShow":"KT","image":"https://i.ytimg.com/vi/-k_bGqTXMjM/hqdefault.jpg"}},{"type":"Feature","geometry":{"type":"Point","coordinates":[126.9884979,37.5734176]},"properties":{"id":"kr-koreantable-KBLEojRFkDKA","name":"오온","city":"종로구 낙원동","country":"서울","kind":"소고기","emoji":"🥩","status":"open","note":"소고기","rating":0,"reviews":0,"visits":[],"shows":["KT"],"primaryShow":"KT","image":"https://i.ytimg.com/vi/noSG9KvPOeo/hqdefault.jpg"}},{"type":"Feature","geometry":{"type":"Point","coordinates":[126.9810422,37.566491]},"properties":{"id":"kr-koreantable-NCshEhXNZZU6","name":"규반","city":"중구 을지로1가","country":"서울","kind":"파인다이닝","emoji":"🍽️","status":"open","note":"파인다이닝, 한식","rating":4,"reviews":1,"visits":[],"shows":["KT"],"primaryShow":"KT"}},{"type":"Feature","geometry":{"type":"Point","coordinates":[126.9245525,37.5646016]},"properties":{"id":"kr-koreantable-FZmA8yBg4Qfc","name":"야키토리 묵","city":"마포구 연남동","country":"서울","kind":"야끼토리","emoji":"🍣","status":"open","note":"야끼토리, 오마카세","rating":4.6,"reviews":16,"visits":[],"shows":["KT"],"primaryShow":"KT"}},{"type":"Feature","geometry":{"type":"Point","coordinates":[127.0712573,37.5727588]},"properties":{"id":"kr-koreantable-ogrkd4BUoOu7","name":"올되다농장","city":"동대문구 장안동","country":"서울","kind":"샐러드","emoji":"🥗","status":"open","note":"샐러드, 브런치","rating":0,"reviews":0,"visits":[],"shows":["KT"],"primaryShow":"KT"}},{"type":"Feature","geometry":{"type":"Point","coordinates":[126.9706136,37.5748764]},"properties":{"id":"kr-koreantable-amIKsofd0OrC","name":"해물데이트","city":"종로구 내자동","country":"서울","kind":"해산물","emoji":"🐟","status":"open","note":"해산물, 다찌","rating":4.8,"reviews":5,"visits":[],"shows":["KT"],"primaryShow":"KT"}},{"type":"Feature","geometry":{"type":"Point","coordinates":[127.0180922,37.5186447]},"properties":{"id":"kr-koreantable-0Sh2f8IJsOjZ","name":"따뚱","city":"서초구 잠원동","country":"서울","kind":"베이징덕","emoji":"🍽️","status":"open","note":"베이징덕, 중식당","rating":4.2,"reviews":9,"visits":[],"shows":["KT"],"primaryShow":"KT","image":"https://i.ytimg.com/vi/rSNW3yw_vrk/hqdefault.jpg"}},{"type":"Feature","geometry":{"type":"Point","coordinates":[127.0483667,37.545754]},"properties":{"id":"kr-koreantable-nNENluieMEcs","name":"문츠 바베큐","city":"성동구 성수동1가","country":"서울","kind":"바베큐","emoji":"🍽️","status":"open","note":"바베큐, 플래터","rating":4,"reviews":13,"visits":[],"shows":["KT"],"primaryShow":"KT","image":"https://i.ytimg.com/vi/kB_A-YOzthk/hqdefault.jpg"}},{"type":"Feature","geometry":{"type":"Point","coordinates":[129.2115888,35.1854644]},"properties":{"id":"kr-koreantable-UjUQR8C81b7q","name":"해변짚불곰장어","city":"기장군 기장읍","country":"부산","kind":"꼼장어","emoji":"🐟","status":"open","note":"꼼장어","rating":3.8,"reviews":8,"visits":[],"shows":["KT"],"primaryShow":"KT","image":"https://i.ytimg.com/vi/zUOMlLCMWzQ/hqdefault.jpg"}},{"type":"Feature","geometry":{"type":"Point","coordinates":[129.0259595,35.1021741]},"properties":{"id":"kr-koreantable-xLe9skCTbyj9","name":"밀양집","city":"중구 부평동2가","country":"부산","kind":"돼지국밥","emoji":"🍲","status":"open","note":"돼지국밥","rating":4.4,"reviews":13,"visits":[],"shows":["KT"],"primaryShow":"KT","image":"https://i.ytimg.com/vi/fsEFDZQawYs/hqdefault.jpg"}},{"type":"Feature","geometry":{"type":"Point","coordinates":[129.0269971,35.0969449]},"properties":{"id":"kr-koreantable-80jX1ehlNV0I","name":"백화양곱창1호","city":"중구 남포동6가","country":"부산","kind":"양곱창","emoji":"🥩","status":"open","note":"양곱창, 양볶음밥","rating":4.2,"reviews":5,"visits":[],"shows":["KT"],"primaryShow":"KT","image":"https://i.ytimg.com/vi/fa5VHwiQ63o/hqdefault.jpg"}},{"type":"Feature","geometry":{"type":"Point","coordinates":[129.1644303,35.1623811]},"properties":{"id":"kr-koreantable-kIs9wIrsAmbR","name":"금수복국 해운대본점","city":"해운대구 중동","country":"부산","kind":"복어","emoji":"🍽️","status":"open","note":"복어, 복국","rating":4.2,"reviews":107,"visits":[],"shows":["KT"],"primaryShow":"KT","image":"https://i.ytimg.com/vi/a7ZXkCN2vZw/hqdefault.jpg"}},{"type":"Feature","geometry":{"type":"Point","coordinates":[129.2452707,35.2577204]},"properties":{"id":"kr-koreantable-5NKMUQXwPQMQ","name":"일광수산횟집","city":"기장군 일광읍","country":"부산","kind":"횟집","emoji":"🐟","status":"open","note":"횟집, 물회","rating":4.5,"reviews":1,"visits":[],"shows":["KT"],"primaryShow":"KT"}},{"type":"Feature","geometry":{"type":"Point","coordinates":[129.0240277,35.0971252]},"properties":{"id":"kr-koreantable-jFcBEGpqasWi","name":"달뜨네","city":"서구 충무동1가","country":"부산","kind":"고등어회","emoji":"🐟","status":"open","note":"고등어회","rating":0,"reviews":0,"visits":[],"shows":["KT"],"primaryShow":"KT"}},{"type":"Feature","geometry":{"type":"Point","coordinates":[129.1551753,35.1598372]},"properties":{"id":"kr-koreantable-Es9AGNKqAy2d","name":"몽","city":"해운대구 우동","country":"부산","kind":"일식당","emoji":"🍣","status":"open","note":"일식당, 오마카세","rating":5,"reviews":2,"visits":[],"shows":["KT"],"primaryShow":"KT"}},{"type":"Feature","geometry":{"type":"Point","coordinates":[128.8939806,35.1212781]},"properties":{"id":"kr-koreantable-bG3nOEgOiS5D","name":"수연횟집","city":"강서구 녹산동","country":"부산","kind":"횟집","emoji":"🐟","status":"unknown","note":"횟집, 수산물","rating":0,"reviews":0,"visits":[],"shows":["KT"],"primaryShow":"KT"}},{"type":"Feature","geometry":{"type":"Point","coordinates":[129.0263183,35.1021579]},"properties":{"id":"kr-koreantable-TBQubwTQHT79","name":"원조 깡통골목 비빔당면","city":"중구 부평동2가","country":"부산","kind":"비빔당면","emoji":"🍚","status":"open","note":"비빔당면, 김밥","rating":3.6,"reviews":6,"visits":[],"shows":["KT"],"primaryShow":"KT"}},{"type":"Feature","geometry":{"type":"Point","coordinates":[129.0301317,35.1026282]},"properties":{"id":"kr-koreantable-SGmFOZtCZZ8R","name":"쿠노이치","city":"중구 대청동2가","country":"부산","kind":"이자카야","emoji":"🍶","status":"open","note":"이자카야, 모츠나베","rating":5,"reviews":5,"visits":[],"shows":["KT"],"primaryShow":"KT"}},{"type":"Feature","geometry":{"type":"Point","coordinates":[128.5989685,35.8706355]},"properties":{"id":"kr-koreantable-MQro6Y8dZble","name":"부산안면옥","city":"중구 공평동","country":"대구","kind":"평양냉면","emoji":"🍜","status":"open","note":"평양냉면","rating":4.3,"reviews":34,"visits":[],"shows":["KT"],"primaryShow":"KT"}},{"type":"Feature","geometry":{"type":"Point","coordinates":[128.6067268,35.8685009]},"properties":{"id":"kr-koreantable-YxF37sEnd6vh","name":"왕거미식당","city":"중구 동인동4가","country":"대구","kind":"뭉티기","emoji":"🥩","status":"open","note":"뭉티기, 생고기","rating":4.5,"reviews":31,"visits":[],"shows":["KT"],"primaryShow":"KT","image":"https://i.ytimg.com/vi/R8dEfA5leAc/hqdefault.jpg"}},{"type":"Feature","geometry":{"type":"Point","coordinates":[128.5931887,35.87107]},"properties":{"id":"kr-koreantable-wUfLPTrDjfnj","name":"국일따로국밥","city":"중구 전동","country":"대구","kind":"국밥","emoji":"🍲","status":"open","note":"국밥, 따로국밥","rating":4.2,"reviews":31,"visits":[],"shows":["KT"],"primaryShow":"KT","image":"https://i.ytimg.com/vi/qSji2YrMXrg/hqdefault.jpg"}},{"type":"Feature","geometry":{"type":"Point","coordinates":[128.5862837,35.8568229]},"properties":{"id":"kr-koreantable-sKHrkV3FMTU2","name":"제일콩국","city":"중구 남산동","country":"대구","kind":"콩국","emoji":"🍽️","status":"open","note":"콩국, 토스트","rating":4.5,"reviews":25,"visits":[],"shows":["KT"],"primaryShow":"KT","image":"https://i.ytimg.com/vi/4Rt1ZuDTOVA/hqdefault.jpg"}},{"type":"Feature","geometry":{"type":"Point","coordinates":[128.6294123,35.8816826]},"properties":{"id":"kr-koreantable-Iyhc8UTOOKII","name":"해금강","city":"동구 신암동","country":"대구","kind":"복어","emoji":"🍽️","status":"open","note":"복어, 복어요리","rating":4,"reviews":3,"visits":[],"shows":["KT"],"primaryShow":"KT","image":"https://i.ytimg.com/vi/ITnebc2mhhc/hqdefault.jpg"}},{"type":"Feature","geometry":{"type":"Point","coordinates":[128.6193499,35.88279]},"properties":{"id":"kr-koreantable-G3mQnXfjaN4h","name":"운수좋은날","city":"동구 신암동","country":"대구","kind":"치킨","emoji":"🍗","status":"open","note":"치킨, 닭똥집","rating":0,"reviews":0,"visits":[],"shows":["KT"],"primaryShow":"KT"}},{"type":"Feature","geometry":{"type":"Point","coordinates":[126.6279877,37.4717633]},"properties":{"id":"kr-koreantable-bYbM26UI7cZI","name":"유성분식","city":"중구 내동","country":"인천","kind":"분식","emoji":"🍢","status":"open","note":"분식, 떡볶이","rating":3.5,"reviews":9,"visits":[],"shows":["KT"],"primaryShow":"KT"}},{"type":"Feature","geometry":{"type":"Point","coordinates":[126.61847,37.4747816]},"properties":{"id":"kr-koreantable-gDj1lm4bIOm3","name":"풍미","city":"중구 선린동","country":"인천","kind":"짜장면","emoji":"🍜","status":"open","note":"짜장면, 중국집","rating":3.5,"reviews":8,"visits":[],"shows":["KT"],"primaryShow":"KT","image":"https://i.ytimg.com/vi/ehhxLQg0cBw/hqdefault.jpg"}},{"type":"Feature","geometry":{"type":"Point","coordinates":[126.6282491,37.4725546]},"properties":{"id":"kr-koreantable-kjdRuYcmryv2","name":"경인면옥","city":"중구 내동","country":"인천","kind":"평양냉면","emoji":"🍜","status":"open","note":"평양냉면","rating":4.2,"reviews":19,"visits":[],"shows":["KT"],"primaryShow":"KT"}},{"type":"Feature","geometry":{"type":"Point","coordinates":[126.6941089,37.4717323]},"properties":{"id":"kr-koreantable-3pr7SLQQQnlu","name":"까치기사식당","city":"부평구 십정동","country":"인천","kind":"굴요리","emoji":"🐟","status":"open","note":"굴요리, 기사식당","rating":4.3,"reviews":11,"visits":[],"shows":["KT"],"primaryShow":"KT"}},{"type":"Feature","geometry":{"type":"Point","coordinates":[126.4956439,37.5974328]},"properties":{"id":"kr-koreantable-u8xAwH8FpOpg","name":"소망호","city":"강화군 길상면","country":"인천","kind":"생선회","emoji":"🐟","status":"open","note":"생선회, 놀래미","rating":3,"reviews":1,"visits":[],"shows":["KT"],"primaryShow":"KT"}},{"type":"Feature","geometry":{"type":"Point","coordinates":[126.4916988,37.6773892]},"properties":{"id":"kr-koreantable-3aO8gTel34qA","name":"소반정","city":"강화군 불은면","country":"인천","kind":"젓국갈비","emoji":"🥩","status":"open","note":"젓국갈비, 토속음식","rating":0,"reviews":0,"visits":[],"shows":["KT"],"primaryShow":"KT"}},{"type":"Feature","geometry":{"type":"Point","coordinates":[126.6193171,37.4767641]},"properties":{"id":"kr-koreantable-GQoEucOZ596f","name":"미미진","city":"중구 북성동3가","country":"인천","kind":"중식당","emoji":"🥟","status":"open","note":"중식당, 딤섬","rating":4.2,"reviews":14,"visits":[],"shows":["KT"],"primaryShow":"KT"}},{"type":"Feature","geometry":{"type":"Point","coordinates":[126.3558571,37.7694857]},"properties":{"id":"kr-koreantable-DThQVDld99x5","name":"형제호","city":"강화군 하점면","country":"인천","kind":"해물요리","emoji":"🐟","status":"unknown","note":"해물요리","rating":0,"reviews":0,"visits":[],"shows":["KT"],"primaryShow":"KT"}},{"type":"Feature","geometry":{"type":"Point","coordinates":[126.4992497,37.2595752]},"properties":{"id":"kr-koreantable-1XacoOR1Wlbk","name":"영흥가든","city":"옹진군 영흥면","country":"인천","kind":"칼국수","emoji":"🍜","status":"unknown","note":"칼국수, 꽃게탕","rating":0,"reviews":0,"visits":[],"shows":["KT"],"primaryShow":"KT"}},{"type":"Feature","geometry":{"type":"Point","coordinates":[126.8427311,35.1591784]},"properties":{"id":"kr-koreantable-PQPFnhkioom6","name":"빛고을흑염소","city":"서구 치평동","country":"광주","kind":"흑염소","emoji":"🍽️","status":"open","note":"흑염소, 흑염소탕","rating":0,"reviews":0,"visits":[],"shows":["KT"],"primaryShow":"KT"}},{"type":"Feature","geometry":{"type":"Point","coordinates":[127.3853385,36.3380318]},"properties":{"id":"kr-koreantable-1bUuMDZ3FAv6","name":"해자네가자","city":"서구 괴정동","country":"대전","kind":"민물새우탕","emoji":"🐟","status":"open","note":"민물새우탕, 새뱅이","rating":0,"reviews":0,"visits":[],"shows":["KT"],"primaryShow":"KT"}},{"type":"Feature","geometry":{"type":"Point","coordinates":[129.2023684,35.7098629]},"properties":{"id":"kr-koreantable-f7PT8uAvHqgj","name":"만복래숯불구이","city":"울주군 두동면","country":"울산","kind":"한우","emoji":"🥩","status":"open","note":"한우, 소고기","rating":0,"reviews":0,"visits":[],"shows":["KT"],"primaryShow":"KT"}},{"type":"Feature","geometry":{"type":"Point","coordinates":[127.3200958,36.5522363]},"properties":{"id":"kr-koreantable-NMfZNlOGVzQf","name":"한국인의밥상 세종","city":"연동면 내판리","country":"세종","kind":"한식","emoji":"🍽️","status":"unknown","note":"한식","rating":0,"reviews":0,"visits":[],"shows":["KT"],"primaryShow":"KT"}},{"type":"Feature","geometry":{"type":"Point","coordinates":[127.124792,37.1516938]},"properties":{"id":"kr-koreantable-RvwKb86u6ctv","name":"신동태","city":"화성시","country":"경기","kind":"동태탕","emoji":"🍽️","status":"open","note":"동태탕","rating":4.4,"reviews":8,"visits":[],"shows":["KT"],"primaryShow":"KT"}},{"type":"Feature","geometry":{"type":"Point","coordinates":[126.9088839,37.1890616]},"properties":{"id":"kr-koreantable-pkRzdlg3igr3","name":"기천맛집","city":"화성시","country":"경기","kind":"백숙","emoji":"🍗","status":"open","note":"백숙, 한방누룽지백숙","rating":0,"reviews":0,"visits":[],"shows":["KT"],"primaryShow":"KT"}},{"type":"Feature","geometry":{"type":"Point","coordinates":[127.2561599,37.5423562]},"properties":{"id":"kr-koreantable-26Iijvftmph1","name":"예봉산장","city":"남양주시 와부읍","country":"경기","kind":"송어회","emoji":"🐟","status":"open","note":"송어회","rating":0,"reviews":0,"visits":[],"shows":["KT"],"primaryShow":"KT"}},{"type":"Feature","geometry":{"type":"Point","coordinates":[128.2515516,37.4759877]},"properties":{"id":"kr-koreantable-SmQYESdYEwLq","name":"화이트 크로우 브루잉","city":"평창군 방림면","country":"강원","kind":"수제맥주","emoji":"🍺","status":"open","note":"수제맥주, 부루어리","rating":4,"reviews":2,"visits":[],"shows":["KT"],"primaryShow":"KT"}},{"type":"Feature","geometry":{"type":"Point","coordinates":[128.5963029,38.2156805]},"properties":{"id":"kr-koreantable-yRZyI62PRRwd","name":"아지트","city":"속초시 영랑동","country":"강원","kind":"대하구이","emoji":"🥩","status":"open","note":"대하구이, 꽃새우","rating":3.7,"reviews":4,"visits":[],"shows":["KT"],"primaryShow":"KT"}},{"type":"Feature","geometry":{"type":"Point","coordinates":[127.7253495,37.8788168]},"properties":{"id":"kr-koreantable-2RdYJiHfmGDY","name":"원조숯불닭불고기","city":"춘천시 중앙로2가","country":"강원","kind":"닭갈비","emoji":"🍗","status":"open","note":"닭갈비, 숯불닭갈비","rating":4.3,"reviews":56,"visits":[],"shows":["KT"],"primaryShow":"KT","image":"https://i.ytimg.com/vi/k-y8fUUCvLs/hqdefault.jpg"}},{"type":"Feature","geometry":{"type":"Point","coordinates":[129.1199286,37.5591161]},"properties":{"id":"kr-koreantable-QqWk1YV559NT","name":"황해횟집","city":"동해시 묵호진동","country":"강원","kind":"곰치국","emoji":"🐟","status":"open","note":"곰치국, 물회","rating":4.5,"reviews":8,"visits":[{"show":"KT","episode":82,"title":"동해바다가 그대로 풍덩 - 물회와 식해","year":2012,"label":"82회","video":"https://www.youtube.com/watch?v=bo6WCpKKZfg"},{"show":"KT","episode":468,"title":"어부들의 간편식 모두의 별미로 - 동해 물회 견문록","year":2020,"label":"468회"}],"shows":["KT"],"primaryShow":"KT","image":"https://i.ytimg.com/vi/bo6WCpKKZfg/hqdefault.jpg"}},{"type":"Feature","geometry":{"type":"Point","coordinates":[128.9920832,37.1735112]},"properties":{"id":"kr-koreantable-lujQqRKcRp6F","name":"김서방네 닭갈비","city":"태백시 황지동","country":"강원","kind":"물닭갈비","emoji":"🍗","status":"open","note":"물닭갈비","rating":4,"reviews":7,"visits":[],"shows":["KT"],"primaryShow":"KT"}},{"type":"Feature","geometry":{"type":"Point","coordinates":[128.9866183,37.1589514]},"properties":{"id":"kr-koreantable-YKWikpJv8mjV","name":"원조태성실비식당","city":"태백시 황지동","country":"강원","kind":"한우","emoji":"🥩","status":"open","note":"한우, 소고기","rating":4.8,"reviews":14,"visits":[],"shows":["KT"],"primaryShow":"KT","image":"https://i.ytimg.com/vi/fa5VHwiQ63o/hqdefault.jpg"}},{"type":"Feature","geometry":{"type":"Point","coordinates":[128.6302957,37.8120399]},"properties":{"id":"kr-koreantable-w9QtJDO9HFoS","name":"송천약수집","city":"강릉시 연곡면","country":"강원","kind":"백숙","emoji":"🍗","status":"unknown","note":"백숙, 감자전","rating":0,"reviews":0,"visits":[],"shows":["KT"],"primaryShow":"KT"}},{"type":"Feature","geometry":{"type":"Point","coordinates":[128.828337,37.8853175]},"properties":{"id":"kr-koreantable-jl4u6a1EVUdx","name":"주문진홍게","city":"강릉시 주문진읍","country":"강원","kind":"홍게","emoji":"🍽️","status":"open","note":"홍게, 홍게무한리필","rating":3.5,"reviews":7,"visits":[],"shows":["KT"],"primaryShow":"KT","image":"https://i.ytimg.com/vi/GES-zsVI6kQ/hqdefault.jpg"}},{"type":"Feature","geometry":{"type":"Point","coordinates":[128.1395844,38.2859179]},"properties":{"id":"kr-koreantable-yEsYGHOVWWSc","name":"숲밥","city":"양구군 해안면","country":"강원","kind":"콩탕","emoji":"🍽️","status":"unknown","note":"콩탕, 화채","rating":0,"reviews":0,"visits":[],"shows":["KT"],"primaryShow":"KT"}},{"type":"Feature","geometry":{"type":"Point","coordinates":[127.3092696,38.144941]},"properties":{"id":"kr-koreantable-f8sH3nL29Jmg","name":"육해공식당","city":"철원군 갈말읍","country":"강원","kind":"두부두루치기","emoji":"🍲","status":"open","note":"두부두루치기, 능이버섯","rating":0,"reviews":0,"visits":[],"shows":["KT"],"primaryShow":"KT"}},{"type":"Feature","geometry":{"type":"Point","coordinates":[127.7280896,37.8796219]},"properties":{"id":"kr-koreantable-UykmY0JXJZLF","name":"우미닭갈비 본점","city":"춘천시 조양동","country":"강원","kind":"닭갈비","emoji":"🍗","status":"open","note":"닭갈비, 볶음밥","rating":3.8,"reviews":23,"visits":[],"shows":["KT"],"primaryShow":"KT"}},{"type":"Feature","geometry":{"type":"Point","coordinates":[128.5837702,38.2011387]},"properties":{"id":"kr-koreantable-HxetNYGGEVal","name":"속초우리홍게랑","city":"속초시 청학동","country":"강원","kind":"홍게","emoji":"🐟","status":"open","note":"홍게, 대게","rating":5,"reviews":1,"visits":[{"show":"KT","episode":160,"title":"만년 2등 홍게는 억울하다 - 속초시 홍게","year":2014,"label":"160회"}],"shows":["KT"],"primaryShow":"KT"}},{"type":"Feature","geometry":{"type":"Point","coordinates":[127.8300928,37.659064]},"properties":{"id":"kr-koreantable-BbWDMoK7RFHe","name":"홍천잣떡","city":"홍천군 홍천읍","country":"강원","kind":"떡집","emoji":"🍚","status":"open","note":"떡집, 김밥","rating":4.1,"reviews":7,"visits":[],"shows":["KT"],"primaryShow":"KT"}},{"type":"Feature","geometry":{"type":"Point","coordinates":[127.9720195,37.3423642]},"properties":{"id":"kr-koreantable-F4nEqMhlgB3j","name":"깨 로스터리 옥희방앗간","city":"원주시 행구동","country":"강원","kind":"카페","emoji":"☕","status":"open","note":"카페, 들기름","rating":5,"reviews":5,"visits":[],"shows":["KT"],"primaryShow":"KT"}},{"type":"Feature","geometry":{"type":"Point","coordinates":[128.5938257,38.2018991]},"properties":{"id":"kr-koreantable-7JyJSdxCuux2","name":"아마이홍게","city":"속초시 청호동","country":"강원","kind":"홍게","emoji":"🍜","status":"open","note":"홍게, 홍게라면","rating":4.1,"reviews":7,"visits":[{"show":"KT","episode":160,"title":"만년 2등 홍게는 억울하다 - 속초시 홍게","year":2014,"label":"160회"}],"shows":["KT"],"primaryShow":"KT"}},{"type":"Feature","geometry":{"type":"Point","coordinates":[128.9008747,37.1590754]},"properties":{"id":"kr-koreantable-Ve0oeHEOaiIV","name":"만항할매닭집","city":"정선군 고한읍","country":"강원","kind":"백숙","emoji":"🍗","status":"open","note":"백숙, 녹두오리백숙","rating":0,"reviews":0,"visits":[],"shows":["KT"],"primaryShow":"KT"}},{"type":"Feature","geometry":{"type":"Point","coordinates":[127.85942,38.1596005]},"properties":{"id":"kr-koreantable-G0ASXbn6hRgC","name":"낙타민박","city":"화천군 화천읍","country":"강원","kind":"산채백반","emoji":"🍗","status":"unknown","note":"산채백반, 토종닭","rating":0,"reviews":0,"visits":[],"shows":["KT"],"primaryShow":"KT"}},{"type":"Feature","geometry":{"type":"Point","coordinates":[128.8749136,37.8378409]},"properties":{"id":"kr-koreantable-owkg4IEyPZEt","name":"사천물회전문","city":"강릉시 사천면","country":"강원","kind":"물회","emoji":"🍲","status":"open","note":"물회, 전복죽","rating":4,"reviews":2,"visits":[],"shows":["KT"],"primaryShow":"KT"}},{"type":"Feature","geometry":{"type":"Point","coordinates":[128.8279971,37.8909943]},"properties":{"id":"kr-koreantable-C6YIyKrCb768","name":"일출횟집","city":"강릉시 주문진읍","country":"강원","kind":"횟집","emoji":"🐟","status":"open","note":"횟집, 수산","rating":4.8,"reviews":7,"visits":[],"shows":["KT"],"primaryShow":"KT","image":"https://i.ytimg.com/vi/zaJQBZ2KZNE/hqdefault.jpg"}},{"type":"Feature","geometry":{"type":"Point","coordinates":[127.7296755,37.880309]},"properties":{"id":"kr-koreantable-Hh4g6AyI2oUL","name":"함흥냉면옥","city":"춘천시 조양동","country":"강원","kind":"회냉면","emoji":"🍜","status":"open","note":"회냉면","rating":4.1,"reviews":6,"visits":[],"shows":["KT"],"primaryShow":"KT"}},{"type":"Feature","geometry":{"type":"Point","coordinates":[129.0527187,37.6649421]},"properties":{"id":"kr-koreantable-mMGBUGPNDamQ","name":"헌화로횟집","city":"강릉시 강동면","country":"강원","kind":"횟집","emoji":"🐟","status":"open","note":"횟집, 물회","rating":0,"reviews":0,"visits":[],"shows":["KT"],"primaryShow":"KT"}},{"type":"Feature","geometry":{"type":"Point","coordinates":[128.8752925,37.8362394]},"properties":{"id":"kr-koreantable-3pzVCYdEQl8C","name":"사천포구횟집","city":"강릉시 사천면","country":"강원","kind":"물회","emoji":"🐟","status":"open","note":"물회, 횟집","rating":3.8,"reviews":4,"visits":[],"shows":["KT"],"primaryShow":"KT"}},{"type":"Feature","geometry":{"type":"Point","coordinates":[128.9857605,37.73863]},"properties":{"id":"kr-koreantable-vFgoMB7uluLW","name":"명성횟집","city":"강릉시 강동면","country":"강원","kind":"횟집","emoji":"🐟","status":"open","note":"횟집, 참가자미","rating":0,"reviews":0,"visits":[],"shows":["KT"],"primaryShow":"KT"}},{"type":"Feature","geometry":{"type":"Point","coordinates":[128.4541991,37.8174011]},"properties":{"id":"kr-koreantable-IkKnetIfTUGy","name":"깊은산골","city":"홍천군 내면","country":"강원","kind":"두부전골","emoji":"🍲","status":"unknown","note":"두부전골, 두부요리","rating":5,"reviews":1,"visits":[],"shows":["KT"],"primaryShow":"KT"}},{"type":"Feature","geometry":{"type":"Point","coordinates":[128.8676221,37.7399672]},"properties":{"id":"kr-koreantable-pdvaJzgYunJc","name":"포앤박강릉쌀국수","city":"강릉시 회산동","country":"강원","kind":"쌀국수","emoji":"🍜","status":"open","note":"쌀국수, 베트남","rating":4.6,"reviews":6,"visits":[],"shows":["KT"],"primaryShow":"KT"}},{"type":"Feature","geometry":{"type":"Point","coordinates":[128.5179845,37.148551]},"properties":{"id":"kr-koreantable-NXGq40sXJri1","name":"물레방아쉼터","city":"영월군 영월읍","country":"강원","kind":"매운탕","emoji":"🍲","status":"unknown","note":"매운탕, 민물매운탕","rating":0,"reviews":0,"visits":[],"shows":["KT"],"primaryShow":"KT"}},{"type":"Feature","geometry":{"type":"Point","coordinates":[129.1872826,37.4395446]},"properties":{"id":"kr-koreantable-3ORtrzcna3lv","name":"할머니의 부엌","city":"삼척시 정하동","country":"강원","kind":"김치찌개","emoji":"🍲","status":"unknown","note":"김치찌개, 가자미무침","rating":0,"reviews":0,"visits":[],"shows":["KT"],"primaryShow":"KT"}},{"type":"Feature","geometry":{"type":"Point","coordinates":[128.9514617,37.7709262]},"properties":{"id":"kr-koreantable-oDjv18SNOfDO","name":"성훈","city":"강릉시 견소동","country":"강원","kind":"삼치","emoji":"🍽️","status":"unknown","note":"삼치, 고등어","rating":0,"reviews":0,"visits":[],"shows":["KT"],"primaryShow":"KT"}},{"type":"Feature","geometry":{"type":"Point","coordinates":[128.211966,37.1355129]},"properties":{"id":"kr-koreantable-noludeDS2jQp","name":"제천빨간오뎅","city":"제천시 남천동","country":"충북","kind":"떡볶이","emoji":"🍢","status":"open","note":"떡볶이, 빨간오뎅","rating":3.6,"reviews":14,"visits":[],"shows":["KT"],"primaryShow":"KT","image":"https://i.ytimg.com/vi/EnTfBpIGd38/hqdefault.jpg"}},{"type":"Feature","geometry":{"type":"Point","coordinates":[126.8345758,36.6923288]},"properties":{"id":"kr-koreantable-6TqVFPvjtdAd","name":"무진장집","city":"예산군 예산읍","country":"충남","kind":"백숙","emoji":"🍗","status":"open","note":"백숙, 한방능이오리백숙","rating":5,"reviews":1,"visits":[],"shows":["KT"],"primaryShow":"KT"}},{"type":"Feature","geometry":{"type":"Point","coordinates":[126.5213336,36.3833867]},"properties":{"id":"kr-koreantable-SO0wCi2nPxqk","name":"흥업묵집","city":"보령시 주교면","country":"충남","kind":"묵무침","emoji":"🍽️","status":"open","note":"묵무침, 초계탕","rating":0,"reviews":0,"visits":[],"shows":["KT"],"primaryShow":"KT"}},{"type":"Feature","geometry":{"type":"Point","coordinates":[126.4710029,36.5397252]},"properties":{"id":"kr-koreantable-Jm8dTgo1ouyH","name":"이레횟집","city":"홍성군 서부면","country":"충남","kind":"새조개","emoji":"🐟","status":"open","note":"새조개, 대하","rating":5,"reviews":1,"visits":[],"shows":["KT"],"primaryShow":"KT"}},{"type":"Feature","geometry":{"type":"Point","coordinates":[126.9154104,36.2831667]},"properties":{"id":"kr-koreantable-8su8nYBJSMgp","name":"서동한우 부여본점","city":"부여군 부여읍","country":"충남","kind":"한우","emoji":"🥩","status":"open","note":"한우, 숙성한우","rating":3.6,"reviews":13,"visits":[],"shows":["KT"],"primaryShow":"KT","image":"https://i.ytimg.com/vi/XHlC5g7wUTk/hqdefault.jpg"}},{"type":"Feature","geometry":{"type":"Point","coordinates":[126.1353389,36.681225]},"properties":{"id":"kr-koreantable-RJxWQQN5AhYY","name":"해녀서해바다","city":"태안군 근흥면","country":"충남","kind":"횟집","emoji":"🐟","status":"open","note":"횟집, 캠핑","rating":4.7,"reviews":2,"visits":[],"shows":["KT"],"primaryShow":"KT"}},{"type":"Feature","geometry":{"type":"Point","coordinates":[126.4838605,36.5071188]},"properties":{"id":"kr-koreantable-vkGKJ4ihAH3Z","name":"청수굴집수산","city":"보령시 천북면","country":"충남","kind":"굴찜","emoji":"🐟","status":"open","note":"굴찜, 굴전","rating":4.7,"reviews":6,"visits":[],"shows":["KT"],"primaryShow":"KT"}},{"type":"Feature","geometry":{"type":"Point","coordinates":[127.0093002,36.1564825]},"properties":{"id":"kr-koreantable-3cC4GNe08T5l","name":"황산옥","city":"논산시 강경읍","country":"충남","kind":"복어","emoji":"🍽️","status":"open","note":"복어, 복탕","rating":0,"reviews":0,"visits":[],"shows":["KT"],"primaryShow":"KT"}},{"type":"Feature","geometry":{"type":"Point","coordinates":[127.2989941,36.7621932]},"properties":{"id":"kr-koreantable-gX8lxuACpf3L","name":"충남집순대","city":"천안시","country":"충남","kind":"순대국","emoji":"🍲","status":"open","note":"순대국, 병천순대","rating":4.2,"reviews":47,"visits":[],"shows":["KT"],"primaryShow":"KT","image":"https://i.ytimg.com/vi/fBuaJZbZwFA/hqdefault.jpg"}},{"type":"Feature","geometry":{"type":"Point","coordinates":[126.6696703,36.5910191]},"properties":{"id":"kr-koreantable-kaIko1Rt1mj2","name":"평양손만두","city":"홍성군 홍성읍","country":"충남","kind":"북한음식","emoji":"🥟","status":"open","note":"북한음식, 비건식당","rating":0,"reviews":0,"visits":[],"shows":["KT"],"primaryShow":"KT"}},{"type":"Feature","geometry":{"type":"Point","coordinates":[126.7389399,36.9868572]},"properties":{"id":"kr-koreantable-fRehzdSKi4o4","name":"대성포장마차","city":"당진시 송악읍","country":"충남","kind":"칼국수","emoji":"🍜","status":"open","note":"칼국수, 해물칼국수","rating":0,"reviews":0,"visits":[],"shows":["KT"],"primaryShow":"KT","image":"https://i.ytimg.com/vi/jbOETjkD3IA/hqdefault.jpg"}},{"type":"Feature","geometry":{"type":"Point","coordinates":[126.5733154,36.948468]},"properties":{"id":"kr-koreantable-oi9SM90MXZGc","name":"최정재시인의마을","city":"당진시 고대면","country":"충남","kind":"백숙","emoji":"🍗","status":"open","note":"백숙, 능이오리백숙","rating":0,"reviews":0,"visits":[],"shows":["KT"],"primaryShow":"KT"}},{"type":"Feature","geometry":{"type":"Point","coordinates":[127.147565,36.809136]},"properties":{"id":"kr-koreantable-uLaOX7DS1ZbT","name":"천안옛날호두과자","city":"천안시","country":"충남","kind":"호두과자","emoji":"🍢","status":"open","note":"호두과자, 튀김소보로","rating":4.3,"reviews":18,"visits":[],"shows":["KT"],"primaryShow":"KT","image":"https://i.ytimg.com/vi/CFi1eyWZi_A/hqdefault.jpg"}},{"type":"Feature","geometry":{"type":"Point","coordinates":[126.5031985,36.1301148]},"properties":{"id":"kr-koreantable-aPH3KIju6zP4","name":"만풍호","city":"서천군 서면","country":"충남","kind":"매운탕","emoji":"🍲","status":"open","note":"매운탕","rating":0,"reviews":0,"visits":[],"shows":["KT"],"primaryShow":"KT"}},{"type":"Feature","geometry":{"type":"Point","coordinates":[126.50022,36.1559498]},"properties":{"id":"kr-koreantable-lcwSXYA9r7F1","name":"서해바다로회센타","city":"서천군 서면","country":"충남","kind":"횟집","emoji":"🐟","status":"open","note":"횟집, 전어","rating":0,"reviews":0,"visits":[],"shows":["KT"],"primaryShow":"KT"}},{"type":"Feature","geometry":{"type":"Point","coordinates":[127.0156141,36.1625293]},"properties":{"id":"kr-koreantable-5B53TPh6FZ3C","name":"서창집","city":"논산시 강경읍","country":"충남","kind":"민속주점","emoji":"🍶","status":"unknown","note":"민속주점","rating":0,"reviews":0,"visits":[],"shows":["KT"],"primaryShow":"KT"}},{"type":"Feature","geometry":{"type":"Point","coordinates":[126.3975965,36.3814753]},"properties":{"id":"kr-koreantable-soKCJEJbQMCF","name":"초전부녀회맛집","city":"보령시 오천면","country":"충남","kind":"생선회","emoji":"🐟","status":"unknown","note":"생선회, 횟집","rating":0,"reviews":0,"visits":[],"shows":["KT"],"primaryShow":"KT"}},{"type":"Feature","geometry":{"type":"Point","coordinates":[126.466882,36.5706901]},"properties":{"id":"kr-koreantable-FdUroK7LkFzB","name":"아영이네수산","city":"홍성군 서부면","country":"충남","kind":"굴칼국수","emoji":"🍜","status":"open","note":"굴칼국수, 바지락칼국수","rating":0,"reviews":0,"visits":[],"shows":["KT"],"primaryShow":"KT"}},{"type":"Feature","geometry":{"type":"Point","coordinates":[126.2056308,36.8995147]},"properties":{"id":"kr-koreantable-yPpJtuOWycLq","name":"동백횟집","city":"태안군 원북면","country":"충남","kind":"바지락칼국수","emoji":"🍜","status":"unknown","note":"바지락칼국수","rating":0,"reviews":0,"visits":[],"shows":["KT"],"primaryShow":"KT"}},{"type":"Feature","geometry":{"type":"Point","coordinates":[126.4995003,36.1569676]},"properties":{"id":"kr-koreantable-ckYavQm5Wc1O","name":"해마루횟집","city":"서천군 서면","country":"충남","kind":"횟집","emoji":"🐟","status":"open","note":"횟집, 전어","rating":0,"reviews":0,"visits":[],"shows":["KT"],"primaryShow":"KT"}},{"type":"Feature","geometry":{"type":"Point","coordinates":[127.1483645,35.8433801]},"properties":{"id":"kr-koreantable-LElN5QvlE2MA","name":"진미반점","city":"전주시","country":"전북","kind":"짜장면","emoji":"🍜","status":"open","note":"짜장면, 물짜장","rating":4.3,"reviews":14,"visits":[],"shows":["KT"],"primaryShow":"KT"}},{"type":"Feature","geometry":{"type":"Point","coordinates":[126.6244812,35.4621929]},"properties":{"id":"kr-koreantable-QR8BZcypK49I","name":"홍가","city":"고창군 아산면","country":"전북","kind":"백숙","emoji":"🍗","status":"open","note":"백숙, 용봉탕","rating":0,"reviews":0,"visits":[],"shows":["KT"],"primaryShow":"KT"}},{"type":"Feature","geometry":{"type":"Point","coordinates":[126.4336762,35.4329618]},"properties":{"id":"kr-koreantable-pdcOdSYCsRw8","name":"거북선숯불풍천장어","city":"고창군 상하면","country":"전북","kind":"장어","emoji":"🐟","status":"open","note":"장어, 풍천장어","rating":3.4,"reviews":2,"visits":[],"shows":["KT"],"primaryShow":"KT"}},{"type":"Feature","geometry":{"type":"Point","coordinates":[126.7138796,35.9889339]},"properties":{"id":"kr-koreantable-0RSqijZ8nN3I","name":"빈해원","city":"군산시 장미동","country":"전북","kind":"짬뽕","emoji":"🍜","status":"open","note":"짬뽕, 물짜장","rating":3.8,"reviews":58,"visits":[],"shows":["KT"],"primaryShow":"KT","image":"https://i.ytimg.com/vi/m2SWhypxF04/hqdefault.jpg"}},{"type":"Feature","geometry":{"type":"Point","coordinates":[126.7110764,35.9872769]},"properties":{"id":"kr-koreantable-U2kQDdVl5XBj","name":"이성당","city":"군산시 중앙로1가","country":"전북","kind":"베이커리카페","emoji":"🍛","status":"open","note":"베이커리카페, 카페","rating":4.2,"reviews":188,"visits":[],"shows":["KT"],"primaryShow":"KT"}},{"type":"Feature","geometry":{"type":"Point","coordinates":[127.5904862,35.757412]},"properties":{"id":"kr-koreantable-inDP1CR2dngZ","name":"솟을터","city":"장수군 장계면","country":"전북","kind":"한식","emoji":"🍽️","status":"unknown","note":"한식","rating":0,"reviews":0,"visits":[],"shows":["KT"],"primaryShow":"KT"}},{"type":"Feature","geometry":{"type":"Point","coordinates":[127.7882336,36.0099251]},"properties":{"id":"kr-koreantable-ZczGdrw8eLjn","name":"장터국밥","city":"무주군 설천면","country":"전북","kind":"국밥","emoji":"🍲","status":"open","note":"국밥, 장터국밥","rating":3,"reviews":1,"visits":[],"shows":["KT"],"primaryShow":"KT"}},{"type":"Feature","geometry":{"type":"Point","coordinates":[126.6885498,35.9571748]},"properties":{"id":"kr-koreantable-6kq5PgKysAiX","name":"지미원","city":"군산시 나운동","country":"전북","kind":"한정식","emoji":"🍚","status":"open","note":"한정식, 궁중음식","rating":0,"reviews":0,"visits":[],"shows":["KT"],"primaryShow":"KT"}},{"type":"Feature","geometry":{"type":"Point","coordinates":[127.1171621,35.8500758]},"properties":{"id":"kr-koreantable-Adkkl3smONTG","name":"무궁화한정식","city":"전주시","country":"전북","kind":"한정식","emoji":"🍚","status":"open","note":"한정식, 코스요리","rating":0,"reviews":0,"visits":[],"shows":["KT"],"primaryShow":"KT"}},{"type":"Feature","geometry":{"type":"Point","coordinates":[127.521501,35.9560748]},"properties":{"id":"kr-koreantable-jieFuGjGOGBA","name":"섬바위가든","city":"진안군 용담면","country":"전북","kind":"메기탕","emoji":"🍲","status":"open","note":"메기탕, 민물매운탕","rating":0,"reviews":0,"visits":[],"shows":["KT"],"primaryShow":"KT"}},{"type":"Feature","geometry":{"type":"Point","coordinates":[127.0932961,35.81707]},"properties":{"id":"kr-koreantable-rUgwoMtVGsWW","name":"궁","city":"전주시","country":"전북","kind":"한정식","emoji":"🍚","status":"open","note":"한정식, 파이","rating":5,"reviews":1,"visits":[],"shows":["KT"],"primaryShow":"KT"}},{"type":"Feature","geometry":{"type":"Point","coordinates":[127.6721394,35.9494216]},"properties":{"id":"kr-koreantable-1yzkcu5lRSr7","name":"수작부리는 카페","city":"무주군 적상면","country":"전북","kind":"커피","emoji":"☕","status":"open","note":"커피, 카페","rating":3,"reviews":1,"visits":[],"shows":["KT"],"primaryShow":"KT"}},{"type":"Feature","geometry":{"type":"Point","coordinates":[127.378139,35.405563]},"properties":{"id":"kr-koreantable-AJ5GwY1k1d0v","name":"박토랑","city":"남원시 금동","country":"전북","kind":"낙지","emoji":"🥩","status":"open","note":"낙지, 낙지불고기","rating":0,"reviews":0,"visits":[],"shows":["KT"],"primaryShow":"KT"}},{"type":"Feature","geometry":{"type":"Point","coordinates":[126.733454,35.726685]},"properties":{"id":"kr-koreantable-HgZl2UYl3t0C","name":"보람횟집","city":"부안군 부안읍","country":"전북","kind":"횟집","emoji":"🐟","status":"open","note":"횟집","rating":5,"reviews":1,"visits":[],"shows":["KT"],"primaryShow":"KT"}},{"type":"Feature","geometry":{"type":"Point","coordinates":[126.9867276,35.2079903]},"properties":{"id":"kr-koreantable-0piiS5g3SDUg","name":"전통식당","city":"담양군 고서면","country":"전남","kind":"한정식","emoji":"🍚","status":"open","note":"한정식, 떡갈비","rating":4.9,"reviews":7,"visits":[],"shows":["KT"],"primaryShow":"KT"}},{"type":"Feature","geometry":{"type":"Point","coordinates":[127.7128126,34.725234]},"properties":{"id":"kr-koreantable-cZyqY5mQ7ngw","name":"상아식당","city":"여수시 국동","country":"전남","kind":"장어구이","emoji":"🥩","status":"open","note":"장어구이, 장어탕","rating":4.3,"reviews":7,"visits":[],"shows":["KT"],"primaryShow":"KT","image":"https://i.ytimg.com/vi/XENKyaoeu3U/hqdefault.jpg"}},{"type":"Feature","geometry":{"type":"Point","coordinates":[127.5035135,35.0690952]},"properties":{"id":"kr-koreantable-1ta8NxL64tlU","name":"산수정","city":"순천시 서면","country":"전남","kind":"닭구이","emoji":"🍗","status":"open","note":"닭구이","rating":0,"reviews":0,"visits":[],"shows":["KT"],"primaryShow":"KT"}},{"type":"Feature","geometry":{"type":"Point","coordinates":[126.716876,35.0322285]},"properties":{"id":"kr-koreantable-5xX9qiAjOoKu","name":"나주곰탕 하얀집","city":"나주시 중앙동","country":"전남","kind":"곰탕","emoji":"🍲","status":"open","note":"곰탕, 수육곰탕","rating":4.3,"reviews":111,"visits":[{"show":"KT","episode":52,"title":"곰삭은 세월의 맛 - 나주시 곰탕 밥상","year":2012,"label":"52회","video":"https://www.youtube.com/watch?v=zEiZWR42Ud8"}],"shows":["KT"],"primaryShow":"KT","image":"https://i.ytimg.com/vi/zEiZWR42Ud8/hqdefault.jpg"}},{"type":"Feature","geometry":{"type":"Point","coordinates":[126.3771138,34.7808401]},"properties":{"id":"kr-koreantable-Oc4gADg2D1WC","name":"조선쫄복탕","city":"목포시 금화동","country":"전남","kind":"복어","emoji":"🍲","status":"open","note":"복어, 쫄복탕","rating":4.3,"reviews":14,"visits":[],"shows":["KT"],"primaryShow":"KT"}},{"type":"Feature","geometry":{"type":"Point","coordinates":[127.5871079,34.9775672]},"properties":{"id":"kr-koreantable-kytvNkg3qkGY","name":"금목서 광양불고기","city":"광양시 광양읍","country":"전남","kind":"광양불고기","emoji":"🥩","status":"open","note":"광양불고기","rating":4.2,"reviews":19,"visits":[],"shows":["KT"],"primaryShow":"KT","image":"https://i.ytimg.com/vi/h_c8os6omqQ/hqdefault.jpg"}},{"type":"Feature","geometry":{"type":"Point","coordinates":[126.9826043,35.3239753]},"properties":{"id":"kr-koreantable-DS9OqmpAdsfP","name":"죽순닭국수","city":"담양군 담양읍","country":"전남","kind":"국수","emoji":"🍜","status":"open","note":"국수, 우리밀","rating":4.8,"reviews":7,"visits":[],"shows":["KT"],"primaryShow":"KT"}},{"type":"Feature","geometry":{"type":"Point","coordinates":[126.678148,34.7939098]},"properties":{"id":"kr-koreantable-lpO8Us99efBE","name":"월출산힘찬민물장어","city":"영암군 영암읍","country":"전남","kind":"장어","emoji":"🐟","status":"open","note":"장어, 민물장어","rating":0,"reviews":0,"visits":[],"shows":["KT"],"primaryShow":"KT"}},{"type":"Feature","geometry":{"type":"Point","coordinates":[127.4659766,35.2149]},"properties":{"id":"kr-koreantable-nj9rnrv1a4ff","name":"목월빵집","city":"구례군 구례읍","country":"전남","kind":"빵","emoji":"🍞","status":"open","note":"빵","rating":4.3,"reviews":51,"visits":[],"shows":["KT"],"primaryShow":"KT","image":"https://i.ytimg.com/vi/PRYo6j0se88/hqdefault.jpg"}},{"type":"Feature","geometry":{"type":"Point","coordinates":[126.3831166,34.791787]},"properties":{"id":"kr-koreantable-F8w3IQYEfNg5","name":"쑥꿀레","city":"목포시 죽동","country":"전남","kind":"디저트","emoji":"🍰","status":"open","note":"디저트, 쑥떡","rating":3.6,"reviews":36,"visits":[],"shows":["KT"],"primaryShow":"KT","image":"https://i.ytimg.com/vi/nQNHdx2RVfk/hqdefault.jpg"}},{"type":"Feature","geometry":{"type":"Point","coordinates":[127.795167,34.6028895]},"properties":{"id":"kr-koreantable-ExkI158cbe2G","name":"소율횟집","city":"여수시 돌산읍","country":"전남","kind":"횟집","emoji":"🐟","status":"open","note":"횟집","rating":0,"reviews":0,"visits":[],"shows":["KT"],"primaryShow":"KT"}},{"type":"Feature","geometry":{"type":"Point","coordinates":[126.0533571,35.0980036]},"properties":{"id":"kr-koreantable-02jKq0o2JTK2","name":"하우리부일호횟집","city":"신안군 임자면","country":"전남","kind":"민어","emoji":"🐟","status":"open","note":"민어, 횟집","rating":0,"reviews":0,"visits":[],"shows":["KT"],"primaryShow":"KT"}},{"type":"Feature","geometry":{"type":"Point","coordinates":[126.4607316,34.523125]},"properties":{"id":"kr-koreantable-0PP3EtNtt0cP","name":"갯마을짱뚱어탕","city":"해남군 황산면","country":"전남","kind":"짱뚱어탕","emoji":"🍲","status":"open","note":"짱뚱어탕, 삼겹살","rating":0,"reviews":0,"visits":[],"shows":["KT"],"primaryShow":"KT"}},{"type":"Feature","geometry":{"type":"Point","coordinates":[126.7839199,34.6470714]},"properties":{"id":"kr-koreantable-4x1if6vT2DB0","name":"청자골 종가집","city":"강진군 군동면","country":"전남","kind":"한정식","emoji":"🍚","status":"open","note":"한정식, 남도한정식","rating":3.5,"reviews":4,"visits":[],"shows":["KT"],"primaryShow":"KT"}},{"type":"Feature","geometry":{"type":"Point","coordinates":[127.5249851,34.8489572]},"properties":{"id":"kr-koreantable-asL7bZh2kAhc","name":"해반","city":"순천시 해룡면","country":"전남","kind":"집밥","emoji":"🍚","status":"unknown","note":"집밥, 가정식","rating":0,"reviews":0,"visits":[],"shows":["KT"],"primaryShow":"KT"}},{"type":"Feature","geometry":{"type":"Point","coordinates":[127.3694104,35.1882225]},"properties":{"id":"kr-koreantable-Q71WdGxrCvMz","name":"청솔가든","city":"곡성군 오곡면","country":"전남","kind":"참게탕","emoji":"🍽️","status":"open","note":"참게탕","rating":4.3,"reviews":3,"visits":[],"shows":["KT"],"primaryShow":"KT"}},{"type":"Feature","geometry":{"type":"Point","coordinates":[127.411983,34.8364319]},"properties":{"id":"kr-koreantable-B0isDYRwsyRe","name":"두무포산장","city":"보성군 벌교읍","country":"전남","kind":"짱뚱어탕","emoji":"🍽️","status":"open","note":"짱뚱어탕","rating":0,"reviews":0,"visits":[],"shows":["KT"],"primaryShow":"KT"}},{"type":"Feature","geometry":{"type":"Point","coordinates":[126.3818774,34.7843857]},"properties":{"id":"kr-koreantable-mxPGUE8w94vO","name":"낭만맛집","city":"목포시 금동2가","country":"전남","kind":"집밥","emoji":"🍚","status":"open","note":"집밥, 톳밥","rating":0,"reviews":0,"visits":[],"shows":["KT"],"primaryShow":"KT"}},{"type":"Feature","geometry":{"type":"Point","coordinates":[125.9359073,34.7152127]},"properties":{"id":"kr-koreantable-0EYnXqPOY4oX","name":"보광식당","city":"신안군 도초면","country":"전남","kind":"우럭","emoji":"🍽️","status":"open","note":"우럭, 간재미","rating":0,"reviews":0,"visits":[],"shows":["KT"],"primaryShow":"KT"}},{"type":"Feature","geometry":{"type":"Point","coordinates":[126.9608769,35.2666602]},"properties":{"id":"kr-koreantable-mrZYShjSt2Uq","name":"삼거리농원","city":"담양군 봉산면","country":"전남","kind":"닭볶음탕","emoji":"🍗","status":"open","note":"닭볶음탕, 솥뚜껑닭볶음탕","rating":4.3,"reviews":13,"visits":[],"shows":["KT"],"primaryShow":"KT"}},{"type":"Feature","geometry":{"type":"Point","coordinates":[127.6611191,34.7583608]},"properties":{"id":"kr-koreantable-C6unLwTlCtsK","name":"오죽헌","city":"여수시 학동","country":"전남","kind":"한정식","emoji":"🍚","status":"open","note":"한정식, 보리굴비","rating":3.6,"reviews":2,"visits":[],"shows":["KT"],"primaryShow":"KT"}},{"type":"Feature","geometry":{"type":"Point","coordinates":[126.3654647,34.8078033]},"properties":{"id":"kr-koreantable-Nwvy0tZU7MUX","name":"목포뻘낙지 목포본점","city":"목포시 산정동","country":"전남","kind":"낙지","emoji":"🐟","status":"open","note":"낙지","rating":0,"reviews":0,"visits":[],"shows":["KT"],"primaryShow":"KT"}},{"type":"Feature","geometry":{"type":"Point","coordinates":[126.985042,35.323958]},"properties":{"id":"kr-koreantable-KldWLm9S0fv6","name":"관방천국수","city":"담양군 담양읍","country":"전남","kind":"국수","emoji":"🍜","status":"open","note":"국수, 열무비빔국수","rating":3.5,"reviews":2,"visits":[],"shows":["KT"],"primaryShow":"KT"}},{"type":"Feature","geometry":{"type":"Point","coordinates":[126.4775032,34.9906425]},"properties":{"id":"kr-koreantable-M6sr56Rpn08B","name":"승달가든","city":"무안군 무안읍","country":"전남","kind":"한우","emoji":"🥩","status":"open","note":"한우, 한우샤브샤브","rating":0,"reviews":0,"visits":[],"shows":["KT"],"primaryShow":"KT"}},{"type":"Feature","geometry":{"type":"Point","coordinates":[127.6001226,35.0514209]},"properties":{"id":"kr-koreantable-KFp0h4xVA8QZ","name":"매화랑매실이랑","city":"광양시 옥룡면","country":"전남","kind":"한식","emoji":"🍽️","status":"unknown","note":"한식","rating":0,"reviews":0,"visits":[],"shows":["KT"],"primaryShow":"KT"}},{"type":"Feature","geometry":{"type":"Point","coordinates":[126.3323037,35.0615083]},"properties":{"id":"kr-koreantable-ncLaKfz3uCUG","name":"홀통장횟집","city":"무안군 현경면","country":"전남","kind":"횟집","emoji":"🐟","status":"open","note":"횟집, 해파리","rating":0,"reviews":0,"visits":[],"shows":["KT"],"primaryShow":"KT"}},{"type":"Feature","geometry":{"type":"Point","coordinates":[127.4387835,35.3098693]},"properties":{"id":"kr-koreantable-YW16Khzj5P6D","name":"카페 쑥부쟁이","city":"구례군 산동면","country":"전남","kind":"베이커리","emoji":"🍛","status":"open","note":"베이커리, 머핀","rating":0,"reviews":0,"visits":[],"shows":["KT"],"primaryShow":"KT"}},{"type":"Feature","geometry":{"type":"Point","coordinates":[127.2485168,34.6598989]},"properties":{"id":"kr-koreantable-YVjlitZfdzWU","name":"별헤는몰랑","city":"고흥군 두원면","country":"전남","kind":"카페","emoji":"☕","status":"open","note":"카페, 커피","rating":0,"reviews":0,"visits":[],"shows":["KT"],"primaryShow":"KT"}},{"type":"Feature","geometry":{"type":"Point","coordinates":[126.68128,35.0059314]},"properties":{"id":"kr-koreantable-XCpoE52r766a","name":"강촌장어","city":"나주시 안창동","country":"전남","kind":"장어구이","emoji":"🥩","status":"open","note":"장어구이, 장어탕","rating":0,"reviews":0,"visits":[],"shows":["KT"],"primaryShow":"KT"}},{"type":"Feature","geometry":{"type":"Point","coordinates":[128.5243638,36.8700436]},"properties":{"id":"kr-koreantable-BQkJftKVoR1c","name":"영주칠향계","city":"영주시 풍기읍","country":"경북","kind":"삼계탕","emoji":"🍗","status":"open","note":"삼계탕, 찰밥","rating":4,"reviews":1,"visits":[],"shows":["KT"],"primaryShow":"KT"}},{"type":"Feature","geometry":{"type":"Point","coordinates":[129.2136375,35.8408903]},"properties":{"id":"kr-koreantable-dN5To85XJgZy","name":"황남빵 본점","city":"경주시 황오동","country":"경북","kind":"경주빵","emoji":"🍞","status":"open","note":"경주빵, 황남빵","rating":4.5,"reviews":66,"visits":[],"shows":["KT"],"primaryShow":"KT","image":"https://i.ytimg.com/vi/luCb7hu6Kys/hqdefault.jpg"}},{"type":"Feature","geometry":{"type":"Point","coordinates":[129.3694302,36.0352359]},"properties":{"id":"kr-koreantable-LLiAhvmoK9iS","name":"연다라횟집","city":"포항시","country":"경북","kind":"대게","emoji":"🐟","status":"open","note":"대게, 물회","rating":4.2,"reviews":6,"visits":[{"show":"KT","episode":230,"title":"어부들의 든든한 한 끼 - 포항 물회 밥상","year":2015,"label":"230회","video":"https://www.youtube.com/watch?v=gMT9gRA8RCQ"}],"shows":["KT"],"primaryShow":"KT","image":"https://i.ytimg.com/vi/gMT9gRA8RCQ/hqdefault.jpg"}},{"type":"Feature","geometry":{"type":"Point","coordinates":[129.07206,36.443343]},"properties":{"id":"kr-koreantable-1wrK9hH6nwIG","name":"웰빙하우스","city":"청송군 청송읍","country":"경북","kind":"닭칼국수","emoji":"🍜","status":"open","note":"닭칼국수, 토종닭","rating":0,"reviews":0,"visits":[],"shows":["KT"],"primaryShow":"KT"}},{"type":"Feature","geometry":{"type":"Point","coordinates":[128.5751528,36.9134136]},"properties":{"id":"kr-koreantable-LKURqXUripZu","name":"순흥전통묵집","city":"영주시 순흥면","country":"경북","kind":"묵밥","emoji":"🍽️","status":"open","note":"묵밥, 메밀묵","rating":4.5,"reviews":11,"visits":[{"show":"KT","episode":49,"title":"인고의 세월을 담다 - 영주시 메밀묵밥","year":2011,"label":"49회"}],"shows":["KT"],"primaryShow":"KT"}},{"type":"Feature","geometry":{"type":"Point","coordinates":[128.7583393,36.605925]},"properties":{"id":"kr-koreantable-KUfHeM5mJZne","name":"농가맛집뜰","city":"안동시 와룡면","country":"경북","kind":"한정식","emoji":"🍚","status":"open","note":"한정식, 꿩","rating":0,"reviews":0,"visits":[],"shows":["KT"],"primaryShow":"KT"}},{"type":"Feature","geometry":{"type":"Point","coordinates":[129.433064,36.4749636]},"properties":{"id":"kr-koreantable-xiezZNLnRksD","name":"김서방대게수산","city":"영덕군 축산면","country":"경북","kind":"대게","emoji":"🐟","status":"open","note":"대게, 홍게","rating":5,"reviews":1,"visits":[],"shows":["KT"],"primaryShow":"KT"}},{"type":"Feature","geometry":{"type":"Point","coordinates":[128.2795381,36.6078024]},"properties":{"id":"kr-koreantable-vNETPcEFJ6qv","name":"흥부네토종한방순대","city":"예천군 용궁면","country":"경북","kind":"순대국","emoji":"🍲","status":"open","note":"순대국","rating":0,"reviews":0,"visits":[],"shows":["KT"],"primaryShow":"KT"}},{"type":"Feature","geometry":{"type":"Point","coordinates":[129.2719632,35.8687144]},"properties":{"id":"kr-koreantable-Siuu6o6Q1PmI","name":"담은청국장","city":"경주시 천북면","country":"경북","kind":"한정식","emoji":"🍚","status":"unknown","note":"한정식, 버섯불고기","rating":0,"reviews":0,"visits":[],"shows":["KT"],"primaryShow":"KT"}},{"type":"Feature","geometry":{"type":"Point","coordinates":[129.3822598,36.3424169]},"properties":{"id":"kr-koreantable-dxn0CWi7Z5ol","name":"은창호대게","city":"영덕군 강구면","country":"경북","kind":"대게","emoji":"🐟","status":"open","note":"대게, 박달대게","rating":0,"reviews":0,"visits":[],"shows":["KT"],"primaryShow":"KT"}},{"type":"Feature","geometry":{"type":"Point","coordinates":[130.9096721,37.4941432]},"properties":{"id":"kr-koreantable-APbDXMDkZ7Ly","name":"천금수산","city":"울릉군 울릉읍","country":"경북","kind":"모듬회","emoji":"🐟","status":"open","note":"모듬회, 독도새우","rating":3,"reviews":8,"visits":[],"shows":["KT"],"primaryShow":"KT"}},{"type":"Feature","geometry":{"type":"Point","coordinates":[129.5708613,36.0033171]},"properties":{"id":"kr-koreantable-R08ZYJB2mywn","name":"자연산횟집","city":"포항시","country":"경북","kind":"횟집","emoji":"🐟","status":"open","note":"횟집, 자연산횟집","rating":0,"reviews":0,"visits":[],"shows":["KT"],"primaryShow":"KT"}},{"type":"Feature","geometry":{"type":"Point","coordinates":[129.3669125,36.0354403]},"properties":{"id":"kr-koreantable-mtZKp9iWgIcm","name":"복만수산","city":"포항시","country":"경북","kind":"해물","emoji":"🐟","status":"open","note":"해물","rating":0,"reviews":0,"visits":[],"shows":["KT"],"primaryShow":"KT"}},{"type":"Feature","geometry":{"type":"Point","coordinates":[129.552395,35.9896596]},"properties":{"id":"kr-koreantable-v5tHJLm32ObT","name":"진강 수산식당","city":"포항시","country":"경북","kind":"과메기","emoji":"🥩","status":"open","note":"과메기, 아구불고기","rating":0,"reviews":0,"visits":[{"show":"KT","episode":47,"title":"하늬바람 과메기를 만들다 - 포항시 과메기 밥상","year":2011,"label":"47회"}],"shows":["KT"],"primaryShow":"KT"}},{"type":"Feature","geometry":{"type":"Point","coordinates":[128.9004663,36.8591981]},"properties":{"id":"kr-koreantable-OpvpEUNysIeM","name":"산들내","city":"봉화군 명호면","country":"경북","kind":"한식뷔페","emoji":"🍽️","status":"open","note":"한식뷔페, 고추부각","rating":0,"reviews":0,"visits":[],"shows":["KT"],"primaryShow":"KT"}},{"type":"Feature","geometry":{"type":"Point","coordinates":[128.6853153,36.8830701]},"properties":{"id":"kr-koreantable-XRBVDH3aIs7h","name":"도촌송어회식당","city":"봉화군 봉화읍","country":"경북","kind":"송어회","emoji":"🐟","status":"open","note":"송어회","rating":0,"reviews":0,"visits":[],"shows":["KT"],"primaryShow":"KT"}},{"type":"Feature","geometry":{"type":"Point","coordinates":[128.2603456,35.3192412]},"properties":{"id":"kr-koreantable-ZENp7vythO4Z","name":"다시식당","city":"의령군 의령읍","country":"경남","kind":"소바","emoji":"🍜","status":"open","note":"소바, 온소바","rating":3.5,"reviews":5,"visits":[],"shows":["KT"],"primaryShow":"KT"}},{"type":"Feature","geometry":{"type":"Point","coordinates":[127.6226352,35.1891835]},"properties":{"id":"kr-koreantable-n1SNvqscmk2H","name":"설송식당","city":"하동군 화개면","country":"경남","kind":"참게탕","emoji":"🐟","status":"open","note":"참게탕, 은어회","rating":0,"reviews":0,"visits":[],"shows":["KT"],"primaryShow":"KT"}},{"type":"Feature","geometry":{"type":"Point","coordinates":[128.5797527,35.2044084]},"properties":{"id":"kr-koreantable-x5GK5nswe0tA","name":"동경복집","city":"창원시","country":"경남","kind":"복어","emoji":"🍽️","status":"open","note":"복어, 복국","rating":5,"reviews":2,"visits":[],"shows":["KT"],"primaryShow":"KT","image":"https://i.ytimg.com/vi/zaJQBZ2KZNE/hqdefault.jpg"}},{"type":"Feature","geometry":{"type":"Point","coordinates":[128.3999569,34.8064194]},"properties":{"id":"kr-koreantable-obRJggAuhzZH","name":"야소주반","city":"통영시 산양읍","country":"경남","kind":"위구르요리","emoji":"🍶","status":"open","note":"위구르요리, 막걸리","rating":0,"reviews":0,"visits":[],"shows":["KT"],"primaryShow":"KT"}},{"type":"Feature","geometry":{"type":"Point","coordinates":[127.8352678,35.4925628]},"properties":{"id":"kr-koreantable-UeRT87o6QIoz","name":"늘비식당","city":"산청군 생초면","country":"경남","kind":"어탕국수","emoji":"🍜","status":"open","note":"어탕국수, 어탕칼국수","rating":4,"reviews":3,"visits":[],"shows":["KT"],"primaryShow":"KT"}},{"type":"Feature","geometry":{"type":"Point","coordinates":[127.9749765,34.9659721]},"properties":{"id":"kr-koreantable-CjAMNMJNIXic","name":"은지네굴구이","city":"사천시 서포면","country":"경남","kind":"굴구이","emoji":"🍜","status":"open","note":"굴구이, 굴라면","rating":5,"reviews":1,"visits":[],"shows":["KT"],"primaryShow":"KT"}},{"type":"Feature","geometry":{"type":"Point","coordinates":[128.2695979,34.6352957]},"properties":{"id":"kr-koreantable-LyA5cIkSjuAz","name":"봉이포장마차","city":"통영시 욕지면","country":"경남","kind":"고등어회","emoji":"🐟","status":"unknown","note":"고등어회","rating":0,"reviews":0,"visits":[],"shows":["KT"],"primaryShow":"KT"}},{"type":"Feature","geometry":{"type":"Point","coordinates":[127.8938327,34.8395325]},"properties":{"id":"kr-koreantable-2nnyX9hIJI4c","name":"행복베이커리","city":"남해군 남해읍","country":"경남","kind":"빵","emoji":"🍛","status":"open","note":"빵","rating":4.9,"reviews":5,"visits":[],"shows":["KT"],"primaryShow":"KT"}},{"type":"Feature","geometry":{"type":"Point","coordinates":[127.7097405,35.2417929]},"properties":{"id":"kr-koreantable-3J97HKb6uq7E","name":"산삼마루","city":"하동군 청암면","country":"경남","kind":"한정식","emoji":"🍚","status":"open","note":"한정식, 레몬","rating":0,"reviews":0,"visits":[],"shows":["KT"],"primaryShow":"KT"}},{"type":"Feature","geometry":{"type":"Point","coordinates":[128.2761359,34.904907]},"properties":{"id":"kr-koreantable-ZQVusz2IhISs","name":"나포리횟집","city":"고성군 삼산면","country":"경남","kind":"하모샤브샤브","emoji":"🐟","status":"open","note":"하모샤브샤브, 하모회","rating":0,"reviews":0,"visits":[],"shows":["KT"],"primaryShow":"KT"}},{"type":"Feature","geometry":{"type":"Point","coordinates":[128.4770637,34.8123524]},"properties":{"id":"kr-koreantable-R69f0iOIrJym","name":"한산황복명가","city":"통영시 한산면","country":"경남","kind":"복어","emoji":"🍽️","status":"unknown","note":"복어, 황복","rating":0,"reviews":0,"visits":[],"shows":["KT"],"primaryShow":"KT"}},{"type":"Feature","geometry":{"type":"Point","coordinates":[128.5685422,34.7843864]},"properties":{"id":"kr-koreantable-hP8s36xAoYFC","name":"거제가자횟집","city":"거제시 동부면","country":"경남","kind":"횟집","emoji":"🐟","status":"open","note":"횟집, 벵에돔","rating":0,"reviews":0,"visits":[],"shows":["KT"],"primaryShow":"KT"}},{"type":"Feature","geometry":{"type":"Point","coordinates":[128.3231068,34.9727223]},"properties":{"id":"kr-koreantable-B3mXb6I3o8mt","name":"풍년옥","city":"고성군 고성읍","country":"경남","kind":"칼국수","emoji":"🍜","status":"open","note":"칼국수, 가리비칼국수","rating":0,"reviews":0,"visits":[],"shows":["KT"],"primaryShow":"KT"}},{"type":"Feature","geometry":{"type":"Point","coordinates":[126.2976206,33.9633261]},"properties":{"id":"kr-koreantable-YvdXD7NLuFof","name":"신등대민박수산회센타","city":"제주시 추자면","country":"제주","kind":"굴비정식","emoji":"🍚","status":"unknown","note":"굴비정식, 조기매운탕","rating":0,"reviews":0,"visits":[],"shows":["KT"],"primaryShow":"KT"}},{"type":"Feature","geometry":{"type":"Point","coordinates":[126.3080262,33.2284533]},"properties":{"id":"kr-koreantable-zNKOfvN2GdRz","name":"용림식당","city":"서귀포시 안덕면","country":"제주","kind":"횟집","emoji":"🥩","status":"open","note":"횟집, 흑돼지","rating":4,"reviews":1,"visits":[],"shows":["KT"],"primaryShow":"KT"}},{"type":"Feature","geometry":{"type":"Point","coordinates":[126.2974738,33.963706]},"properties":{"id":"kr-koreantable-nG9q5ExZU1fW","name":"귀빈식당","city":"제주시 추자면","country":"제주","kind":"옥돔구이","emoji":"🥩","status":"unknown","note":"옥돔구이","rating":0,"reviews":0,"visits":[],"shows":["KT"],"primaryShow":"KT"}},{"type":"Feature","geometry":{"type":"Point","coordinates":[128.731941084355,36.56294536127]},"properties":{"id":"kr-koreantable-ext-일직식당-365629","name":"일직식당","city":"안동시 경동로","country":"경북","kind":"한식","emoji":"🍽️","status":"unknown","note":"한식","image":"https://i.ytimg.com/vi/2RYJ0KQ4vvY/hqdefault.jpg","visits":[{"show":"KT","video":"https://www.youtube.com/watch?v=2RYJ0KQ4vvY"}],"shows":["KT"],"primaryShow":"KT"}},{"type":"Feature","geometry":{"type":"Point","coordinates":[126.99167977913,37.5661204498117]},"properties":{"id":"kr-koreantable-ext-을지다방-375661","name":"을지다방","city":"중구 을지로","country":"서울","kind":"카페/디저트","emoji":"🍰","status":"unknown","note":"카페/디저트","image":"https://i.ytimg.com/vi/x94_2x_-p0Q/hqdefault.jpg","visits":[{"show":"KT","video":"https://www.youtube.com/watch?v=x94_2x_-p0Q"}],"shows":["KT"],"primaryShow":"KT"}}]}