{"type":"FeatureCollection","metadata":{"profile":"mokeultende","generated":"2026-07-15T03:40:12.316Z","counts":{"places":313,"withEpisodes":241,"fromDiningCode":276,"geocodedAdds":29,"externalNew":8,"externalEnriched":130,"episodeVenues":229,"episodeUnresolved":24}},"features":[{"type":"Feature","geometry":{"type":"Point","coordinates":[127.0295105,37.514514]},"properties":{"id":"kr-mokeultende-6EUbNXklTDRE","name":"홍명","city":"강남구 논현동","country":"서울","kind":"짜장면","emoji":"🍜","status":"open","note":"짜장면, 간짜장","rating":4.3,"reviews":41,"visits":[{"show":"MT","title":"논현동 홍명 1탄 (with. 싸이)","year":2023,"video":"https://www.youtube.com/watch?v=zCYgokuaenY","label":"86화"},{"show":"MT","title":"논현동 홍명 2탄 (with. 싸이)","year":2023,"video":"https://www.youtube.com/watch?v=fyMdXrBmXOo","label":"87화"}],"shows":["MT"],"primaryShow":"MT","image":"https://img.youtube.com/vi/Gf-koqnf9kQ/hqdefault.jpg"}},{"type":"Feature","geometry":{"type":"Point","coordinates":[126.9316586,37.5194005]},"properties":{"id":"kr-mokeultende-OGEbPVILTEHb","name":"화목순대국","city":"영등포구 여의도동","country":"서울","kind":"순대국","emoji":"🍲","status":"open","note":"순대국, 내장탕","rating":4.1,"reviews":78,"visits":[{"show":"MT","title":"화목 순대국","year":2022,"video":"https://www.youtube.com/watch?v=DpGJEDKsf1o","label":"4화"}],"shows":["MT"],"primaryShow":"MT","image":"https://img.youtube.com/vi/DpGJEDKsf1o/hqdefault.jpg"}},{"type":"Feature","geometry":{"type":"Point","coordinates":[127.0404677,37.5161154]},"properties":{"id":"kr-mokeultende-vSWiDSKUJAZ9","name":"백암왕순대","city":"강남구 논현동","country":"서울","kind":"순대국","emoji":"🍲","status":"open","note":"순대국","rating":4.5,"reviews":11,"visits":[{"show":"MT","title":"논현동 백암왕순대","year":2026,"video":"https://www.youtube.com/watch?v=cu6J1VZfaxw","label":"209화"}],"shows":["MT"],"primaryShow":"MT","image":"https://img.youtube.com/vi/cu6J1VZfaxw/hqdefault.jpg"}},{"type":"Feature","geometry":{"type":"Point","coordinates":[126.9824453,37.5621349]},"properties":{"id":"kr-mokeultende-2nrKYyY3cev7","name":"산동교자","city":"중구 명동2가","country":"서울","kind":"짜장면","emoji":"🍜","status":"open","note":"짜장면, 덴뿌라","rating":3.8,"reviews":28,"visits":[{"show":"MT","title":"명동 산동교자","year":2022,"video":"https://www.youtube.com/watch?v=AmZ5ceHhkG8","label":"43화"}],"shows":["MT"],"primaryShow":"MT","image":"https://img.youtube.com/vi/AmZ5ceHhkG8/hqdefault.jpg"}},{"type":"Feature","geometry":{"type":"Point","coordinates":[127.038754,37.5793184]},"properties":{"id":"kr-mokeultende-WTjhqhrEKOKe","name":"권영수대가전골","city":"동대문구 제기동","country":"서울","kind":"전골","emoji":"🥟","status":"open","note":"전골, 만두전골","rating":4.3,"reviews":10,"visits":[{"show":"MT","title":"경동시장 권영수 대가전골","year":2024,"video":"https://www.youtube.com/watch?v=UhlyCAVklLE","label":"118화"}],"shows":["MT"],"primaryShow":"MT","image":"https://img.youtube.com/vi/UhlyCAVklLE/hqdefault.jpg"}},{"type":"Feature","geometry":{"type":"Point","coordinates":[126.9300765,37.56755]},"properties":{"id":"kr-mokeultende-OAxlUe6SRL4L","name":"이품","city":"서대문구 연희동","country":"서울","kind":"짜장면","emoji":"🍜","status":"open","note":"짜장면, 간짜장","rating":4.5,"reviews":19,"visits":[{"show":"MT","title":"연희동 이품","year":2024,"video":"https://www.youtube.com/watch?v=C3E86BioldA","label":"137화"}],"shows":["MT"],"primaryShow":"MT","image":"https://img.youtube.com/vi/C3E86BioldA/hqdefault.jpg"}},{"type":"Feature","geometry":{"type":"Point","coordinates":[126.9832237,37.4826181]},"properties":{"id":"kr-mokeultende-o5cZTIzdMyHu","name":"돈키돈가스","city":"서초구 방배동","country":"서울","kind":"돈까스","emoji":"🐟","status":"open","note":"돈까스, 갑오징어","rating":4.5,"reviews":20,"visits":[{"show":"MT","title":"이수역 돈키돈까스","year":2024,"video":"https://www.youtube.com/watch?v=AwQ4g5o1F4Y","label":"117화"}],"shows":["MT"],"primaryShow":"MT"}},{"type":"Feature","geometry":{"type":"Point","coordinates":[127.0021758,37.5726942]},"properties":{"id":"kr-mokeultende-Z9QaHOVpLFod","name":"효제루","city":"종로구 효제동","country":"서울","kind":"짬뽕","emoji":"🍜","status":"open","note":"짬뽕, 탕수육","rating":4.4,"reviews":8,"visits":[{"show":"MT","title":"종로5가 효제루","year":2024,"video":"https://www.youtube.com/watch?v=iA84pSaU_G8","label":"139화"}],"shows":["MT"],"primaryShow":"MT","image":"https://img.youtube.com/vi/iA84pSaU_G8/hqdefault.jpg"}},{"type":"Feature","geometry":{"type":"Point","coordinates":[126.9817781,37.562083]},"properties":{"id":"kr-mokeultende-xHAcBBHlmqfv","name":"향미","city":"중구 명동2가","country":"서울","kind":"중식","emoji":"🐟","status":"open","note":"중식, 조개","rating":4,"reviews":15,"visits":[{"show":"MT","title":"명동역 향미, 개화","year":2024,"video":"https://www.youtube.com/watch?v=X5QLs6bflT4","label":"122화"}],"shows":["MT"],"primaryShow":"MT","image":"https://img.youtube.com/vi/X5QLs6bflT4/hqdefault.jpg"}},{"type":"Feature","geometry":{"type":"Point","coordinates":[127.0241084,37.5090456]},"properties":{"id":"kr-mokeultende-V4ZzjAgRQfxk","name":"현대순대국","city":"강남구 논현동","country":"서울","kind":"순대국","emoji":"🍲","status":"open","note":"순대국, 국밥","rating":4.2,"reviews":17,"visits":[{"show":"MT","title":"영동시장 현대순대국","year":2022,"video":"https://www.youtube.com/watch?v=AeZaYlJBWuI","label":"25화"}],"shows":["MT"],"primaryShow":"MT"}},{"type":"Feature","geometry":{"type":"Point","coordinates":[127.0427895,37.5804379]},"properties":{"id":"kr-mokeultende-uAtV6zlhRSHF","name":"남원통닭 별관","city":"동대문구 제기동","country":"서울","kind":"치킨","emoji":"🍗","status":"open","note":"치킨, 통닭","rating":4.2,"reviews":12,"visits":[{"show":"MT","title":"경동시장 남원통닭","year":2023,"video":"https://www.youtube.com/watch?v=jhAV4lWMlm8","label":"107화"}],"shows":["MT"],"primaryShow":"MT","image":"https://img.youtube.com/vi/inq2G9jzdQY/hqdefault.jpg"}},{"type":"Feature","geometry":{"type":"Point","coordinates":[127.0854264,37.5945544]},"properties":{"id":"kr-mokeultende-Zgkr9ogokWuG","name":"먹거리집","city":"중랑구 상봉동","country":"서울","kind":"순대국","emoji":"🍲","status":"open","note":"순대국, 수육","rating":4.2,"reviews":29,"visits":[{"show":"MT","title":"상봉역 먹거리집","year":2024,"video":"https://www.youtube.com/watch?v=vDVTYhm-2uU","label":"145화"}],"shows":["MT"],"primaryShow":"MT","image":"https://img.youtube.com/vi/vDVTYhm-2uU/hqdefault.jpg"}},{"type":"Feature","geometry":{"type":"Point","coordinates":[127.0892363,37.5954638]},"properties":{"id":"kr-mokeultende-bPFkNR85A8aO","name":"함평국밥","city":"중랑구 상봉동","country":"서울","kind":"육회","emoji":"🍣","status":"open","note":"육회, 육사시미","rating":4.1,"reviews":24,"visits":[{"show":"MT","title":"상봉역 함평국밥","year":2024,"video":"https://www.youtube.com/watch?v=Un7Nbfh42hg","label":"146화"}],"shows":["MT"],"primaryShow":"MT","image":"https://img.youtube.com/vi/Un7Nbfh42hg/hqdefault.jpg"}},{"type":"Feature","geometry":{"type":"Point","coordinates":[127.0402487,37.737076]},"properties":{"id":"kr-mokeultende-quRaDEYgpZpE","name":"수제 별미순대국","city":"의정부시 의정부동","country":"경기","kind":"순대국","emoji":"🍲","status":"open","note":"순대국","rating":4.5,"reviews":6,"visits":[{"show":"MT","title":"의정부 별미순대국","year":2023,"video":"https://www.youtube.com/watch?v=UipN-iww9FE","label":"106화"}],"shows":["MT"],"primaryShow":"MT"}},{"type":"Feature","geometry":{"type":"Point","coordinates":[126.9004447,37.4715782]},"properties":{"id":"kr-mokeultende-6TF5KIY755DV","name":"진영면옥","city":"금천구 독산동","country":"서울","kind":"평양냉면","emoji":"🍜","status":"open","note":"평양냉면","rating":4.8,"reviews":41,"visits":[{"show":"MT","title":"독산동 진영면옥","year":2023,"video":"https://www.youtube.com/watch?v=u4WD7bWkMus","label":"95화"}],"shows":["MT"],"primaryShow":"MT","image":"https://img.youtube.com/vi/u4WD7bWkMus/hqdefault.jpg"}},{"type":"Feature","geometry":{"type":"Point","coordinates":[129.3356855,35.5340764]},"properties":{"id":"kr-mokeultende-ueQ2cWMSHzFT","name":"신천지대반점","city":"남구 달동","country":"울산","kind":"짜장면","emoji":"🍜","status":"unknown","note":"짜장면, 고기튀김","rating":4,"reviews":7,"visits":[],"shows":["MT"],"primaryShow":"MT","image":"https://i.ytimg.com/vi/EJ24_XjKbxY/hqdefault.jpg"}},{"type":"Feature","geometry":{"type":"Point","coordinates":[126.956275,37.5483083]},"properties":{"id":"kr-mokeultende-SzitUX159PY1","name":"원조신촌설렁탕","city":"마포구 공덕동","country":"서울","kind":"설렁탕","emoji":"🍲","status":"open","note":"설렁탕, 내장곰탕","rating":4.1,"reviews":10,"visits":[{"show":"MT","title":"공덕동 원조신촌설렁탕","year":2023,"video":"https://www.youtube.com/watch?v=XO-UqGjZomc","label":"104화"}],"shows":["MT"],"primaryShow":"MT"}},{"type":"Feature","geometry":{"type":"Point","coordinates":[127.1171587,37.4924304]},"properties":{"id":"kr-mokeultende-ry5HPjKQef7Z","name":"수동상회","city":"송파구 가락동","country":"서울","kind":"횟집","emoji":"🐟","status":"open","note":"횟집","rating":4.6,"reviews":5,"visits":[{"show":"MT","title":"가락시장 수동상회","year":2026,"video":"https://www.youtube.com/watch?v=Xhy8JKSIp70","label":"212화"}],"shows":["MT"],"primaryShow":"MT","image":"https://img.youtube.com/vi/Xhy8JKSIp70/hqdefault.jpg"}},{"type":"Feature","geometry":{"type":"Point","coordinates":[126.9733419,37.5426589]},"properties":{"id":"kr-mokeultende-24qFtrlTrDi3","name":"초원","city":"용산구 남영동","country":"서울","kind":"한우","emoji":"🥩","status":"open","note":"한우, 우설","rating":4.3,"reviews":28,"visits":[{"show":"MT","title":"남영동 초원","year":2024,"video":"https://www.youtube.com/watch?v=3OpdevZyzrs","label":"135화"}],"shows":["MT"],"primaryShow":"MT"}},{"type":"Feature","geometry":{"type":"Point","coordinates":[126.9701829,37.5366941]},"properties":{"id":"kr-mokeultende-tLWPXtXCrvJ3","name":"진미식당","city":"용산구 문배동","country":"서울","kind":"콩국수","emoji":"🍜","status":"open","note":"콩국수, 오징어볶음","rating":4.2,"reviews":15,"visits":[{"show":"MT","title":"콩국수 특집 (문배동 진미식당, 신당동 홍탁 목포집, 신촌 즉석 생우동)","year":2023,"video":"https://www.youtube.com/watch?v=Nz0jI_Lck0U","label":"90화"}],"shows":["MT"],"primaryShow":"MT","image":"https://img.youtube.com/vi/Nz0jI_Lck0U/hqdefault.jpg"}},{"type":"Feature","geometry":{"type":"Point","coordinates":[127.1112659,37.5083768]},"properties":{"id":"kr-mokeultende-hDLnaLSF5Am2","name":"본가진미간장게장","city":"송파구 송파동","country":"서울","kind":"간장게장","emoji":"🐟","status":"open","note":"간장게장","rating":4.3,"reviews":24,"visits":[{"show":"MT","title":"송파동 본가진미간장게장 (with.넬 김종완)","year":2026,"video":"https://www.youtube.com/watch?v=9NycugQL2xw","label":"214화"}],"shows":["MT"],"primaryShow":"MT","image":"https://img.youtube.com/vi/9NycugQL2xw/hqdefault.jpg"}},{"type":"Feature","geometry":{"type":"Point","coordinates":[127.022887,37.5096767]},"properties":{"id":"kr-mokeultende-Qa1HSrsHhF8i","name":"현대순대국 2호점","city":"강남구 논현동","country":"서울","kind":"순대국","emoji":"🍲","status":"open","note":"순대국, 국밥","rating":4.5,"reviews":3,"visits":[{"show":"MT","title":"영동시장 현대순대국","year":2022,"video":"https://www.youtube.com/watch?v=AeZaYlJBWuI","label":"25화"}],"shows":["MT"],"primaryShow":"MT"}},{"type":"Feature","geometry":{"type":"Point","coordinates":[127.0839845,37.5373926]},"properties":{"id":"kr-mokeultende-GA8ZnapOI09H","name":"풍성감자탕","city":"광진구 구의동","country":"서울","kind":"감자탕","emoji":"🍲","status":"open","note":"감자탕, 뼈해장국","rating":4.3,"reviews":15,"visits":[{"show":"MT","title":"구의역 풍성감자탕","year":2024,"video":"https://www.youtube.com/watch?v=wKNO7zfr8JQ","label":"140화"}],"shows":["MT"],"primaryShow":"MT","image":"https://img.youtube.com/vi/wKNO7zfr8JQ/hqdefault.jpg"}},{"type":"Feature","geometry":{"type":"Point","coordinates":[126.987604,37.5022795]},"properties":{"id":"kr-mokeultende-7OS8700o2pld","name":"미소의집","city":"서초구 반포동","country":"서울","kind":"떡볶이","emoji":"🍢","status":"open","note":"떡볶이, 즉석떡볶이","rating":4.3,"reviews":21,"visits":[],"shows":["MT"],"primaryShow":"MT","image":"https://img.youtube.com/vi/b3-Bf1JRscM/hqdefault.jpg"}},{"type":"Feature","geometry":{"type":"Point","coordinates":[126.9732428,37.5443857]},"properties":{"id":"kr-mokeultende-cZIoTojCPqpY","name":"까치네","city":"용산구 남영동","country":"서울","kind":"오징어볶음","emoji":"🐟","status":"open","note":"오징어볶음, 계란범벅","rating":4.1,"reviews":14,"visits":[{"show":"MT","title":"남영동 까치네","year":2026,"video":"https://www.youtube.com/watch?v=Nyg6h7-xxEA","label":"217화"}],"shows":["MT"],"primaryShow":"MT","image":"https://img.youtube.com/vi/Nyg6h7-xxEA/hqdefault.jpg"}},{"type":"Feature","geometry":{"type":"Point","coordinates":[127.0762601,37.5344591]},"properties":{"id":"kr-mokeultende-P4QhCTn2wmxv","name":"연지민물매운탕칼국수","city":"광진구 자양동","country":"서울","kind":"어탕국수","emoji":"🍜","status":"open","note":"어탕국수, 민물매운탕","rating":4.3,"reviews":2,"visits":[{"show":"MT","title":"구의 연지민물매운탕칼국수","year":2026,"video":"https://www.youtube.com/watch?v=G_DZw6f5bhk","label":"219화"}],"shows":["MT"],"primaryShow":"MT","image":"https://img.youtube.com/vi/G_DZw6f5bhk/hqdefault.jpg"}},{"type":"Feature","geometry":{"type":"Point","coordinates":[126.9309264,37.5260281]},"properties":{"id":"kr-mokeultende-dbHwsadi8j3P","name":"농부와닭동네","city":"영등포구 여의도동","country":"서울","kind":"치킨","emoji":"🍗","status":"open","note":"치킨, 치킨떡볶이","rating":3.8,"reviews":11,"visits":[{"show":"MT","title":"여의도 농부와닭동네","year":2023,"video":"https://www.youtube.com/watch?v=m5QDgJ3zWsY","label":"89화"}],"shows":["MT"],"primaryShow":"MT"}},{"type":"Feature","geometry":{"type":"Point","coordinates":[126.974758,37.520975]},"properties":{"id":"kr-mokeultende-rBntL79xkkxR","name":"야래향 동부이촌동점","city":"용산구 이촌동","country":"서울","kind":"짜장면","emoji":"🍜","status":"open","note":"짜장면, 유니짜장","rating":3.5,"reviews":10,"visits":[{"show":"MT","title":"이촌동 야래향","year":2023,"video":"https://www.youtube.com/watch?v=yI88OaPRMhA","label":"96화"}],"shows":["MT"],"primaryShow":"MT","image":"https://img.youtube.com/vi/yI88OaPRMhA/hqdefault.jpg"}},{"type":"Feature","geometry":{"type":"Point","coordinates":[126.998918,37.499564]},"properties":{"id":"kr-mokeultende-XyaLLFlYTHrA","name":"청실홍실","city":"서초구 반포동","country":"서울","kind":"감자탕","emoji":"🍲","status":"open","note":"감자탕, 감자국","rating":4.3,"reviews":10,"visits":[{"show":"MT","title":"서래마을 청실홍실","year":2022,"video":"https://www.youtube.com/watch?v=3rWCk9M9MQY","label":"30화"}],"shows":["MT"],"primaryShow":"MT","image":"https://img.youtube.com/vi/3rWCk9M9MQY/hqdefault.jpg"}},{"type":"Feature","geometry":{"type":"Point","coordinates":[127.073634,37.530869]},"properties":{"id":"kr-mokeultende-0Z2vCXejL5k8","name":"맛좋은 순대국","city":"광진구 자양동","country":"서울","kind":"순대국","emoji":"🍲","status":"open","note":"순대국","rating":3.6,"reviews":6,"visits":[{"show":"MT","title":"맛 좋은 순대국","year":2022,"video":"https://www.youtube.com/watch?v=P6sEVRj87gQ","label":"17화"}],"shows":["MT"],"primaryShow":"MT"}},{"type":"Feature","geometry":{"type":"Point","coordinates":[127.0321358,37.5198526]},"properties":{"id":"kr-mokeultende-Vs9fVoZhX0ip","name":"청석골","city":"강남구 논현동","country":"서울","kind":"된장찌개","emoji":"🍚","status":"unknown","note":"된장찌개, 백반","rating":4.5,"reviews":3,"visits":[{"show":"MT","title":"논현동 청석골","year":2025,"video":"https://www.youtube.com/watch?v=8JQNbjWEze0","label":"196화"}],"shows":["MT"],"primaryShow":"MT","image":"https://img.youtube.com/vi/8JQNbjWEze0/hqdefault.jpg"}},{"type":"Feature","geometry":{"type":"Point","coordinates":[127.045004,37.546475]},"properties":{"id":"kr-mokeultende-BnimtHfeTr74","name":"성수아구찜","city":"성동구 성수동1가","country":"서울","kind":"아구찜","emoji":"🥩","status":"open","note":"아구찜, 삼겹살","rating":4.1,"reviews":12,"visits":[{"show":"MT","title":"성수동 성수아구찜","year":2025,"video":"https://www.youtube.com/watch?v=kgvkGuMNJN8","label":"172화"}],"shows":["MT"],"primaryShow":"MT"}},{"type":"Feature","geometry":{"type":"Point","coordinates":[127.0753555,37.5314465]},"properties":{"id":"kr-mokeultende-kXIRtMHhdlAC","name":"샤오롱바오","city":"광진구 자양동","country":"서울","kind":"딤섬","emoji":"🥟","status":"open","note":"딤섬, 샤오롱바오","rating":4.5,"reviews":8,"visits":[{"show":"MT","title":"자양동 샤오롱바오","year":2022,"video":"https://www.youtube.com/watch?v=13JU5821Xd0","label":"26화"}],"shows":["MT"],"primaryShow":"MT","image":"https://img.youtube.com/vi/13JU5821Xd0/hqdefault.jpg"}},{"type":"Feature","geometry":{"type":"Point","coordinates":[126.9043521,37.5606012]},"properties":{"id":"kr-mokeultende-P16GK4qSC2VZ","name":"일등식당","city":"마포구 망원동","country":"서울","kind":"해장국","emoji":"🍲","status":"open","note":"해장국, 뼈해장국","rating":4.2,"reviews":29,"visits":[{"show":"MT","title":"망원동 일등식당","year":2025,"video":"https://www.youtube.com/watch?v=1lL4GBfr-JY","label":"175화"}],"shows":["MT"],"primaryShow":"MT","image":"https://img.youtube.com/vi/agsqPTAcWNg/hqdefault.jpg"}},{"type":"Feature","geometry":{"type":"Point","coordinates":[126.9638161,37.5078102]},"properties":{"id":"kr-mokeultende-1dMCiPYV4XZ9","name":"충북순대","city":"동작구 흑석동","country":"서울","kind":"순대국","emoji":"🍲","status":"open","note":"순대국","rating":4.3,"reviews":4,"visits":[{"show":"MT","title":"흑석시장 충북순대","year":2024,"video":"https://www.youtube.com/watch?v=TUbvswTagLg","label":"128화"}],"shows":["MT"],"primaryShow":"MT","image":"https://img.youtube.com/vi/TUbvswTagLg/hqdefault.jpg"}},{"type":"Feature","geometry":{"type":"Point","coordinates":[127.0099012,37.5528936]},"properties":{"id":"kr-mokeultende-yY6wvvIykmA9","name":"해남순대국","city":"중구 신당동","country":"서울","kind":"순대국","emoji":"🍲","status":"open","note":"순대국, 수육","rating":4.3,"reviews":12,"visits":[{"show":"MT","title":"약수동 해남순대국","year":2023,"video":"https://www.youtube.com/watch?v=W-W42TwYUGw","label":"84화"}],"shows":["MT"],"primaryShow":"MT","image":"https://img.youtube.com/vi/W-W42TwYUGw/hqdefault.jpg"}},{"type":"Feature","geometry":{"type":"Point","coordinates":[127.0103314,37.5534147]},"properties":{"id":"kr-mokeultende-JKfSPlB3bX8b","name":"춘천막국수","city":"중구 신당동","country":"서울","kind":"막국수","emoji":"🍜","status":"open","note":"막국수, 이북식찜닭","rating":4.4,"reviews":14,"visits":[{"show":"MT","title":"약수동 춘천막국수","year":2022,"video":"https://www.youtube.com/watch?v=XvmK69zZJOo","label":"65화"}],"shows":["MT"],"primaryShow":"MT","image":"https://i.ytimg.com/vi/XvmK69zZJOo/hqdefault.jpg"}},{"type":"Feature","geometry":{"type":"Point","coordinates":[126.9889664,37.5664523]},"properties":{"id":"kr-mokeultende-oJ1GPlqxWuiM","name":"동강나루터","city":"중구 을지로2가","country":"서울","kind":"메기탕","emoji":"🍲","status":"open","note":"메기탕, 참게메기매운탕","rating":4.1,"reviews":27,"visits":[{"show":"MT","title":"을지로 동강나루터","year":2022,"video":"https://www.youtube.com/watch?v=AxYI-p5wzYw","label":"51화"}],"shows":["MT"],"primaryShow":"MT"}},{"type":"Feature","geometry":{"type":"Point","coordinates":[128.598053,38.2129301]},"properties":{"id":"kr-mokeultende-Eer8BKiz5AdQ","name":"전원식당","city":"속초시 동명동","country":"강원","kind":"두루치기","emoji":"🍲","status":"open","note":"두루치기, 된장찌개","rating":4.1,"reviews":11,"visits":[{"show":"MT","title":"속초 전원식당","year":2024,"video":"https://www.youtube.com/watch?v=IJwIJZ3G-pw","label":"138화"}],"shows":["MT"],"primaryShow":"MT","image":"https://img.youtube.com/vi/IJwIJZ3G-pw/hqdefault.jpg"}},{"type":"Feature","geometry":{"type":"Point","coordinates":[126.7100896,33.5536819]},"properties":{"id":"kr-mokeultende-OxqTIjqlUDNJ","name":"촌촌해녀촌","city":"제주시 구좌읍","country":"제주","kind":"물회","emoji":"🍜","status":"open","note":"물회, 회국수","rating":4.5,"reviews":15,"visits":[],"shows":["MT"],"primaryShow":"MT"}},{"type":"Feature","geometry":{"type":"Point","coordinates":[126.9754231,37.558538]},"properties":{"id":"kr-mokeultende-hAebbrQ1gHyi","name":"서령 본점","city":"중구 남대문로5가","country":"서울","kind":"평양냉면","emoji":"🍜","status":"open","note":"평양냉면","rating":4.6,"reviews":78,"visits":[{"show":"MT","title":"남대문 서령","year":2025,"video":"https://www.youtube.com/watch?v=SvJ5mdneRSA","label":"167화"}],"shows":["MT"],"primaryShow":"MT","image":"https://img.youtube.com/vi/SvJ5mdneRSA/hqdefault.jpg"}},{"type":"Feature","geometry":{"type":"Point","coordinates":[126.9731384,37.5439758]},"properties":{"id":"kr-mokeultende-RfIFC2Hld5qB","name":"옛날감자전","city":"용산구 남영동","country":"서울","kind":"막걸리","emoji":"🍶","status":"open","note":"막걸리, 감자전","rating":4.4,"reviews":8,"visits":[{"show":"MT","title":"남영동 옛날감자전","year":2024,"video":"https://www.youtube.com/watch?v=1TmG1Wwb7_U","label":"149화"}],"shows":["MT"],"primaryShow":"MT","image":"https://img.youtube.com/vi/1TmG1Wwb7_U/hqdefault.jpg"}},{"type":"Feature","geometry":{"type":"Point","coordinates":[128.5931812,35.8723495]},"properties":{"id":"kr-mokeultende-LuSeZNWqg3Le","name":"군위식당","city":"중구 포정동","country":"대구","kind":"국밥","emoji":"🍲","status":"open","note":"국밥, 수육","rating":4.5,"reviews":54,"visits":[{"show":"MT","title":"대구 군위식당","year":2022,"video":"https://www.youtube.com/watch?v=KEeGBUHnJsc","label":"44화"}],"shows":["MT"],"primaryShow":"MT","image":"https://img.youtube.com/vi/KEeGBUHnJsc/hqdefault.jpg"}},{"type":"Feature","geometry":{"type":"Point","coordinates":[126.9319846,37.5200311]},"properties":{"id":"kr-mokeultende-Jz1t9XTzGzbH","name":"서궁","city":"영등포구 여의도동","country":"서울","kind":"중식","emoji":"🍽️","status":"open","note":"중식, 오향장육","rating":3.9,"reviews":29,"visits":[],"shows":["MT"],"primaryShow":"MT"}},{"type":"Feature","geometry":{"type":"Point","coordinates":[127.0577734,37.5699005]},"properties":{"id":"kr-mokeultende-ZidlKeh2NLqt","name":"성천 막국수","city":"동대문구 답십리동","country":"서울","kind":"막국수","emoji":"🍜","status":"open","note":"막국수, 제육","rating":4.3,"reviews":34,"visits":[{"show":"MT","title":"논현 성천막국수","year":2022,"video":"https://www.youtube.com/watch?v=V0QUgTpLTwo","label":"24화"}],"shows":["MT"],"primaryShow":"MT"}},{"type":"Feature","geometry":{"type":"Point","coordinates":[127.0310038,37.5196641]},"properties":{"id":"kr-mokeultende-MhwOv0XiYL3H","name":"삼호 짱뚱이","city":"강남구 논현동","country":"서울","kind":"남도음식","emoji":"🍽️","status":"open","note":"남도음식, 홍어삼합","rating":4.4,"reviews":9,"visits":[{"show":"MT","title":"논현동 삼호짱뚱이 1탄 (with. 하정우,주지훈)","year":2023,"video":"https://www.youtube.com/watch?v=BruwoWzx3vA","label":"98화"},{"show":"MT","title":"논현동 삼호짱뚱이 2탄 (with. 하정우,주지훈)","year":2023,"video":"https://www.youtube.com/watch?v=9XLtqkJt1wY","label":"99화"}],"shows":["MT"],"primaryShow":"MT","image":"https://img.youtube.com/vi/9XLtqkJt1wY/hqdefault.jpg"}},{"type":"Feature","geometry":{"type":"Point","coordinates":[127.0058663,37.5324975]},"properties":{"id":"kr-mokeultende-4gZdNmsHfKuc","name":"압구정진주 한남직영점","city":"용산구 한남동","country":"서울","kind":"가브리살","emoji":"🥩","status":"open","note":"가브리살, 고기집","rating":4.8,"reviews":4,"visits":[{"show":"MT","title":"한남동 압구정진주 (with.박서준)","year":2025,"video":"https://www.youtube.com/watch?v=1tg6dEbU1no","label":"202화"}],"shows":["MT"],"primaryShow":"MT","image":"https://img.youtube.com/vi/1tg6dEbU1no/hqdefault.jpg"}},{"type":"Feature","geometry":{"type":"Point","coordinates":[126.9783839,37.562107]},"properties":{"id":"kr-mokeultende-xSIy4moMqqVA","name":"부산 갈매기","city":"중구 북창동","country":"서울","kind":"생태찌개","emoji":"🍲","status":"open","note":"생태찌개","rating":4,"reviews":1,"visits":[{"show":"MT","title":"시청역 부산갈매기","year":2026,"video":"https://www.youtube.com/watch?v=naqn5QAKsnM","label":"207화"}],"shows":["MT"],"primaryShow":"MT","image":"https://img.youtube.com/vi/n5Zpld_kH0o/hqdefault.jpg"}},{"type":"Feature","geometry":{"type":"Point","coordinates":[126.9275231,37.5617816]},"properties":{"id":"kr-mokeultende-estY2nu0AFxm","name":"편의방","city":"서대문구 연희동","country":"서울","kind":"짬뽕","emoji":"🍜","status":"open","note":"짬뽕, 군만두","rating":4.3,"reviews":12,"visits":[{"show":"MT","title":"연남동 편의방","year":2022,"video":"https://www.youtube.com/watch?v=fk_BFKQ3UI8","label":"61화"}],"shows":["MT"],"primaryShow":"MT"}},{"type":"Feature","geometry":{"type":"Point","coordinates":[127.0360501,37.5161247]},"properties":{"id":"kr-mokeultende-VT9sxn0135MR","name":"진미평양냉면","city":"강남구 논현동","country":"서울","kind":"평양냉면","emoji":"🍜","status":"open","note":"평양냉면","rating":4.3,"reviews":182,"visits":[{"show":"MT","title":"논현동 진미평양냉면","year":2022,"video":"https://www.youtube.com/watch?v=H_Aw-akvQPQ","label":"67화"}],"shows":["MT"],"primaryShow":"MT","image":"https://img.youtube.com/vi/H_Aw-akvQPQ/hqdefault.jpg"}},{"type":"Feature","geometry":{"type":"Point","coordinates":[126.8465569,35.160163]},"properties":{"id":"kr-mokeultende-I4z6nJof0VbR","name":"상무암뽕순대국밥","city":"서구 치평동","country":"광주","kind":"국밥","emoji":"🍲","status":"open","note":"국밥, 암뽕","rating":4,"reviews":5,"visits":[{"show":"MT","title":"광주상무암뽕순대국밥","year":2025,"video":"https://www.youtube.com/watch?v=MnDzadd1o64","label":"192화"}],"shows":["MT"],"primaryShow":"MT","image":"https://img.youtube.com/vi/MnDzadd1o64/hqdefault.jpg"}},{"type":"Feature","geometry":{"type":"Point","coordinates":[127.0351854,37.5027171]},"properties":{"id":"kr-mokeultende-4tnoUOSjdKC9","name":"대우부대찌개","city":"강남구 역삼동","country":"서울","kind":"부대찌개","emoji":"🍲","status":"open","note":"부대찌개, 미나리","rating":4.2,"reviews":65,"visits":[{"show":"MT","title":"역삼동 대우 부대찌개","year":2022,"video":"https://www.youtube.com/watch?v=lQ9le3dqrRk","label":"58화"}],"shows":["MT"],"primaryShow":"MT"}},{"type":"Feature","geometry":{"type":"Point","coordinates":[126.9131744,37.5521542]},"properties":{"id":"kr-mokeultende-HKty0ngODvLB","name":"제주삼다돈","city":"마포구 서교동","country":"서울","kind":"삼겹살","emoji":"🥩","status":"open","note":"삼겹살, 오겹살","rating":4.5,"reviews":8,"visits":[{"show":"MT","title":"합정역 제주삼다돈 (with.임지연)","year":2026,"video":"https://www.youtube.com/watch?v=bfBmJCPgCmI","label":"221화"}],"shows":["MT"],"primaryShow":"MT"}},{"type":"Feature","geometry":{"type":"Point","coordinates":[126.8120128,35.1900786]},"properties":{"id":"kr-mokeultende-5IQmFU5gVz0j","name":"상무암뽕순대국밥 수완점","city":"광산구 장덕동","country":"광주","kind":"순대국밥","emoji":"🍲","status":"open","note":"순대국밥","rating":4.8,"reviews":5,"visits":[{"show":"MT","title":"광주상무암뽕순대국밥","year":2025,"video":"https://www.youtube.com/watch?v=MnDzadd1o64","label":"192화"}],"shows":["MT"],"primaryShow":"MT"}},{"type":"Feature","geometry":{"type":"Point","coordinates":[127.0551985,37.5382184]},"properties":{"id":"kr-mokeultende-ZtbwcZ5vd7Gh","name":"코치","city":"성동구 성수동2가","country":"서울","kind":"야끼토리","emoji":"🍽️","status":"open","note":"야끼토리, 꼬치","rating":4.6,"reviews":17,"visits":[{"show":"MT","title":"성수동 코치","year":2022,"video":"https://www.youtube.com/watch?v=77dousCT2Fs","label":"29화"}],"shows":["MT"],"primaryShow":"MT"}},{"type":"Feature","geometry":{"type":"Point","coordinates":[126.9067909,37.5189822]},"properties":{"id":"kr-mokeultende-kkIUDZnHBIpt","name":"함흥냉면","city":"영등포구 영등포동3가","country":"서울","kind":"함흥냉면","emoji":"🍜","status":"open","note":"함흥냉면, 회냉면","rating":4.1,"reviews":25,"visits":[{"show":"MT","title":"영등포 함흥냉면","year":2025,"video":"https://www.youtube.com/watch?v=1Aj5KPmsxMU","label":"166화"}],"shows":["MT"],"primaryShow":"MT","image":"https://img.youtube.com/vi/1Aj5KPmsxMU/hqdefault.jpg"}},{"type":"Feature","geometry":{"type":"Point","coordinates":[127.0320212,37.6127933]},"properties":{"id":"kr-mokeultende-g3fc1L7CcKHB","name":"주막","city":"강북구 미아동","country":"서울","kind":"막걸리","emoji":"🍶","status":"open","note":"막걸리, 술집","rating":4.3,"reviews":5,"visits":[{"show":"MT","title":"다나카상과 주막 1탄","year":2023,"video":"https://www.youtube.com/watch?v=3tc3F4M607s","label":"71화"},{"show":"MT","title":"다나카상과 주막 2탄","year":2023,"video":"https://www.youtube.com/watch?v=qs5ze9IhkDE","label":"72화"}],"shows":["MT"],"primaryShow":"MT"}},{"type":"Feature","geometry":{"type":"Point","coordinates":[126.9929795,37.5660942]},"properties":{"id":"kr-mokeultende-sp1PUlMLT1ot","name":"을지칼국수","city":"중구 을지로3가","country":"서울","kind":"만두국","emoji":"🍜","status":"open","note":"만두국, 손만두칼국수","rating":4.4,"reviews":11,"visits":[{"show":"MT","title":"을지로 을지칼국수","year":2022,"video":"https://www.youtube.com/watch?v=1Q-_xTROMkE","label":"34화"}],"shows":["MT"],"primaryShow":"MT"}},{"type":"Feature","geometry":{"type":"Point","coordinates":[126.9387125,37.5441166]},"properties":{"id":"kr-mokeultende-RjlJsy9tf8PE","name":"신촌즉석생우동","city":"마포구 대흥동","country":"서울","kind":"우동","emoji":"🍜","status":"open","note":"우동, 즉석우동","rating":4.4,"reviews":14,"visits":[{"show":"MT","title":"마포 신촌생우동","year":2022,"video":"https://www.youtube.com/watch?v=M06R491YFF4","label":"37화"},{"show":"MT","title":"콩국수 특집 (문배동 진미식당, 신당동 홍탁 목포집, 신촌 즉석 생우동)","year":2023,"video":"https://www.youtube.com/watch?v=Nz0jI_Lck0U","label":"90화"}],"shows":["MT"],"primaryShow":"MT","image":"https://img.youtube.com/vi/Nz0jI_Lck0U/hqdefault.jpg"}},{"type":"Feature","geometry":{"type":"Point","coordinates":[127.0382495,37.7402936]},"properties":{"id":"kr-mokeultende-L1RPARi5TO49","name":"경원식당","city":"의정부시 의정부동","country":"경기","kind":"부대찌개","emoji":"🍜","status":"open","note":"부대찌개, 라면","rating":4.3,"reviews":51,"visits":[{"show":"MT","title":"경원식당 부대찌개","year":2022,"video":"https://www.youtube.com/watch?v=s1ToTcCXgy0","label":"7화"}],"shows":["MT"],"primaryShow":"MT"}},{"type":"Feature","geometry":{"type":"Point","coordinates":[127.1329286,37.524603]},"properties":{"id":"kr-mokeultende-dXqphFkGHXdI","name":"다람","city":"강동구 성내동","country":"서울","kind":"삼겹살","emoji":"🥩","status":"open","note":"삼겹살, 김치","rating":4,"reviews":16,"visits":[{"show":"MT","title":"둔촌동역 다람 강동본점","year":2026,"video":"https://www.youtube.com/watch?v=KF_8wNtJ9TM","label":"220화"}],"shows":["MT"],"primaryShow":"MT","image":"https://img.youtube.com/vi/KF_8wNtJ9TM/hqdefault.jpg"}},{"type":"Feature","geometry":{"type":"Point","coordinates":[127.0306981,37.5275592]},"properties":{"id":"kr-mokeultende-lAPybzjJJBIW","name":"뉴델리","city":"강남구 신사동","country":"서울","kind":"인도음식","emoji":"🍽️","status":"open","note":"인도음식","rating":4.4,"reviews":6,"visits":[{"show":"MT","title":"압구정 뉴 델리","year":2025,"video":"https://www.youtube.com/watch?v=YnFtQxX8r5Q","label":"169화"}],"shows":["MT"],"primaryShow":"MT","image":"https://img.youtube.com/vi/YnFtQxX8r5Q/hqdefault.jpg"}},{"type":"Feature","geometry":{"type":"Point","coordinates":[128.5732536,38.1953835]},"properties":{"id":"kr-mokeultende-yUCJvlj7r8q9","name":"화진호 이선장네","city":"속초시 교동","country":"강원","kind":"생선조림","emoji":"🐟","status":"open","note":"생선조림, 가자미","rating":4.5,"reviews":7,"visits":[{"show":"MT","title":"속초 화진호 이선장네","year":2024,"video":"https://www.youtube.com/watch?v=Khjn-JspNkQ","label":"150화"}],"shows":["MT"],"primaryShow":"MT","image":"https://img.youtube.com/vi/Khjn-JspNkQ/hqdefault.jpg"}},{"type":"Feature","geometry":{"type":"Point","coordinates":[126.9819178,37.4895597]},"properties":{"id":"kr-mokeultende-dMLX7cQ3eoOx","name":"원조추어탕","city":"동작구 사당동","country":"서울","kind":"어죽","emoji":"🍲","status":"open","note":"어죽, 추어탕","rating":4.6,"reviews":11,"visits":[{"show":"MT","title":"이수역 원조추어탕","year":2023,"video":"https://www.youtube.com/watch?v=HZrFCIt3oYY","label":"94화"}],"shows":["MT"],"primaryShow":"MT"}},{"type":"Feature","geometry":{"type":"Point","coordinates":[126.9888693,37.5645624]},"properties":{"id":"kr-mokeultende-PAapMa7ncrOL","name":"을지칼국수","city":"중구 저동2가","country":"서울","kind":"만두국","emoji":"🍜","status":"unknown","note":"만두국, 칼국수","rating":4,"reviews":11,"visits":[{"show":"MT","title":"을지로 을지칼국수","year":2022,"video":"https://www.youtube.com/watch?v=1Q-_xTROMkE","label":"34화"}],"shows":["MT"],"primaryShow":"MT"}},{"type":"Feature","geometry":{"type":"Point","coordinates":[126.9608828,37.5727012]},"properties":{"id":"kr-mokeultende-qpxxC2UiEFYc","name":"대성집","city":"종로구 행촌동","country":"서울","kind":"도가니탕","emoji":"🍽️","status":"open","note":"도가니탕","rating":4.4,"reviews":43,"visits":[{"show":"MT","title":"대성집 도가니탕","year":2022,"video":"https://www.youtube.com/watch?v=wu1fOmsPEr8","label":"1화"}],"shows":["MT"],"primaryShow":"MT","image":"https://img.youtube.com/vi/wu1fOmsPEr8/hqdefault.jpg"}},{"type":"Feature","geometry":{"type":"Point","coordinates":[126.9781459,37.5627552]},"properties":{"id":"kr-mokeultende-3YYzjMMzpJrl","name":"묵호집","city":"중구 북창동","country":"서울","kind":"횟집","emoji":"🐟","status":"open","note":"횟집, 숙성회","rating":4.2,"reviews":3,"visits":[{"show":"MT","title":"북창동 묵호회집 (with.최자)","year":2023,"video":"https://www.youtube.com/watch?v=n5Zpld_kH0o","label":"109화"}],"shows":["MT"],"primaryShow":"MT"}},{"type":"Feature","geometry":{"type":"Point","coordinates":[127.012006,37.552668]},"properties":{"id":"kr-mokeultende-hRYLsAfXdsU1","name":"완도전복","city":"중구 신당동","country":"서울","kind":"전복죽","emoji":"🍲","status":"open","note":"전복죽","rating":5,"reviews":1,"visits":[{"show":"MT","title":"약수 완도 전복","year":2022,"video":"https://www.youtube.com/watch?v=ZKOYAQXVhaA","label":"22화"}],"shows":["MT"],"primaryShow":"MT"}},{"type":"Feature","geometry":{"type":"Point","coordinates":[126.9022584,37.553664]},"properties":{"id":"kr-mokeultende-rbDTcMjaxP6T","name":"몽골 생소금구이","city":"마포구 망원동","country":"서울","kind":"고깃집","emoji":"🥩","status":"open","note":"고깃집, 소금구이","rating":4.6,"reviews":2,"visits":[{"show":"MT","title":"망원역 몽골생소금구이 (with. 화사)","year":2026,"video":"https://www.youtube.com/watch?v=RZJDKKl7VrM","label":"206화"}],"shows":["MT"],"primaryShow":"MT","image":"https://img.youtube.com/vi/RZJDKKl7VrM/hqdefault.jpg"}},{"type":"Feature","geometry":{"type":"Point","coordinates":[126.988662,37.566664]},"properties":{"id":"kr-mokeultende-cQ5qKSnRnaGt","name":"이남장","city":"중구 을지로2가","country":"서울","kind":"설렁탕","emoji":"🍲","status":"open","note":"설렁탕","rating":4.3,"reviews":37,"visits":[{"show":"MT","title":"삼성동 이남장","year":2022,"video":"https://www.youtube.com/watch?v=YJpv-lwKPNg","label":"50화"},{"show":"MT","title":"청담동 잔비워, 이남장 삼성점 (with.크리스탈 케이)","year":2024,"video":"https://www.youtube.com/watch?v=UFN682fRiWQ","label":"134화"}],"shows":["MT"],"primaryShow":"MT"}},{"type":"Feature","geometry":{"type":"Point","coordinates":[127.0324393,37.4942732]},"properties":{"id":"kr-mokeultende-3fUdK5E9YyzH","name":"대운식당","city":"강남구 역삼동","country":"서울","kind":"동태탕","emoji":"🍽️","status":"open","note":"동태탕, 생태탕","rating":3.9,"reviews":8,"visits":[{"show":"MT","title":"역삼동 대운식당","year":2023,"video":"https://www.youtube.com/watch?v=WE8M1jVA9QM","label":"69화"}],"shows":["MT"],"primaryShow":"MT"}},{"type":"Feature","geometry":{"type":"Point","coordinates":[127.0148958,37.5639534]},"properties":{"id":"kr-mokeultende-GUvSH7SUZByN","name":"이조갈비","city":"중구 무학동","country":"서울","kind":"냉삼","emoji":"🥩","status":"open","note":"냉삼, 꽃게탕","rating":4,"reviews":3,"visits":[{"show":"MT","title":"신당역 이조갈비","year":2025,"video":"https://www.youtube.com/watch?v=ZC5klhd08ME","label":"168화"}],"shows":["MT"],"primaryShow":"MT","image":"https://img.youtube.com/vi/ZC5klhd08ME/hqdefault.jpg"}},{"type":"Feature","geometry":{"type":"Point","coordinates":[126.9602673,37.5352498]},"properties":{"id":"kr-mokeultende-GVYHvdIFhGB8","name":"이조순대국","city":"용산구 원효로2가","country":"서울","kind":"순대국","emoji":"🍲","status":"open","note":"순대국, 순대","rating":4.8,"reviews":2,"visits":[{"show":"MT","title":"용산 이조순대국","year":2023,"video":"https://www.youtube.com/watch?v=Q9p4sWtOkec","label":"85화"}],"shows":["MT"],"primaryShow":"MT","image":"https://img.youtube.com/vi/Q9p4sWtOkec/hqdefault.jpg"}},{"type":"Feature","geometry":{"type":"Point","coordinates":[129.0374199,35.1061271]},"properties":{"id":"kr-mokeultende-y0PHoZs4lsOv","name":"중앙곰탕","city":"중구 중앙동4가","country":"부산","kind":"곰탕","emoji":"🍲","status":"open","note":"곰탕, 양수백","rating":3.9,"reviews":8,"visits":[{"show":"MT","title":"부산 중앙역 중앙곰탕","year":2025,"video":"https://www.youtube.com/watch?v=k9pte2X-4NA","label":"183화"}],"shows":["MT"],"primaryShow":"MT"}},{"type":"Feature","geometry":{"type":"Point","coordinates":[126.9884498,37.5345147]},"properties":{"id":"kr-mokeultende-npyaajGwiOMb","name":"크리스피 포크 타운","city":"용산구 이태원동","country":"서울","kind":"퀘사디아","emoji":"🌮","status":"open","note":"퀘사디아, 타코","rating":4.4,"reviews":14,"visits":[{"show":"MT","title":"녹사평역 크리스피포크타운","year":2024,"video":"https://www.youtube.com/watch?v=BI7EPHvf0dY","label":"156화"}],"shows":["MT"],"primaryShow":"MT","image":"https://img.youtube.com/vi/BI7EPHvf0dY/hqdefault.jpg"}},{"type":"Feature","geometry":{"type":"Point","coordinates":[127.0722342,37.5747249]},"properties":{"id":"kr-mokeultende-uwkPwv8k0sZL","name":"남도보쌈파전","city":"동대문구 장안동","country":"서울","kind":"보쌈","emoji":"🍖","status":"open","note":"보쌈, 생굴회","rating":4,"reviews":10,"visits":[{"show":"MT","title":"장안동 남도보쌈파전","year":2024,"video":"https://www.youtube.com/watch?v=GmtBOb8RJ2g","label":"158화"}],"shows":["MT"],"primaryShow":"MT","image":"https://img.youtube.com/vi/GmtBOb8RJ2g/hqdefault.jpg"}},{"type":"Feature","geometry":{"type":"Point","coordinates":[126.93185,35.125674]},"properties":{"id":"kr-mokeultende-OcTmsqn4Kzav","name":"막동이회관","city":"동구 소태동","country":"광주","kind":"소고기","emoji":"🥩","status":"open","note":"소고기, 생고기","rating":4.4,"reviews":4,"visits":[{"show":"MT","title":"광주 막동이회관","year":2024,"video":"https://www.youtube.com/watch?v=sGeuize0CAA","label":"141화"}],"shows":["MT"],"primaryShow":"MT","image":"https://img.youtube.com/vi/sGeuize0CAA/hqdefault.jpg"}},{"type":"Feature","geometry":{"type":"Point","coordinates":[126.9817245,37.5621053]},"properties":{"id":"kr-mokeultende-fyyp6Mh5oi67","name":"행화촌","city":"중구 명동2가","country":"서울","kind":"짜장면","emoji":"🍜","status":"open","note":"짜장면, 라조기","rating":4.1,"reviews":14,"visits":[{"show":"MT","title":"명동 행화촌","year":2025,"video":"https://www.youtube.com/watch?v=DnWF9WuObgE","label":"201화"}],"shows":["MT"],"primaryShow":"MT"}},{"type":"Feature","geometry":{"type":"Point","coordinates":[127.0379967,37.5268364]},"properties":{"id":"kr-mokeultende-86swa21VRGsh","name":"뱃고동 본점","city":"강남구 신사동","country":"서울","kind":"오징어","emoji":"🥩","status":"open","note":"오징어, 오징어불고기","rating":4.3,"reviews":60,"visits":[{"show":"MT","title":"압구정로데오 뱃고동","year":2025,"video":"https://www.youtube.com/watch?v=Jh-xHVzBL80","label":"199화"}],"shows":["MT"],"primaryShow":"MT","image":"https://img.youtube.com/vi/Jh-xHVzBL80/hqdefault.jpg"}},{"type":"Feature","geometry":{"type":"Point","coordinates":[127.0206035,37.51037]},"properties":{"id":"kr-mokeultende-5QyATNyYiqvH","name":"성천막국수 논현점","city":"서초구 반포동","country":"서울","kind":"막국수","emoji":"🍜","status":"open","note":"막국수, 제육","rating":4.2,"reviews":8,"visits":[{"show":"MT","title":"논현 성천막국수","year":2022,"video":"https://www.youtube.com/watch?v=V0QUgTpLTwo","label":"24화"}],"shows":["MT"],"primaryShow":"MT","image":"https://img.youtube.com/vi/V0QUgTpLTwo/hqdefault.jpg"}},{"type":"Feature","geometry":{"type":"Point","coordinates":[127.0220884,37.6167696]},"properties":{"id":"kr-mokeultende-73L1PJURt3br","name":"시경양꼬치","city":"강북구 미아동","country":"서울","kind":"양꼬치","emoji":"🥩","status":"open","note":"양꼬치, 양갈비","rating":4.2,"reviews":5,"visits":[{"show":"MT","title":"삼양사거리역 시경양꼬치","year":2025,"video":"https://www.youtube.com/watch?v=X6PIOsW-Y3s","label":"173화"}],"shows":["MT"],"primaryShow":"MT"}},{"type":"Feature","geometry":{"type":"Point","coordinates":[127.0968527,37.5036876]},"properties":{"id":"kr-mokeultende-UXtOn4XC0rF1","name":"주은감자탕","city":"송파구 삼전동","country":"서울","kind":"감자탕","emoji":"🍲","status":"open","note":"감자탕, 해장국","rating":4.3,"reviews":51,"visits":[{"show":"MT","title":"삼전동 주은감자탕","year":2023,"video":"https://www.youtube.com/watch?v=Kt1kbC2KBN4","label":"77화"}],"shows":["MT"],"primaryShow":"MT"}},{"type":"Feature","geometry":{"type":"Point","coordinates":[127.0424048,37.5803334]},"properties":{"id":"kr-mokeultende-SIs9MtG6p53m","name":"남원통닭","city":"동대문구 제기동","country":"서울","kind":"후라이드","emoji":"🍗","status":"open","note":"후라이드, 양념치킨","rating":4.2,"reviews":17,"visits":[{"show":"MT","title":"경동시장 남원통닭","year":2023,"video":"https://www.youtube.com/watch?v=jhAV4lWMlm8","label":"107화"}],"shows":["MT"],"primaryShow":"MT"}},{"type":"Feature","geometry":{"type":"Point","coordinates":[127.026152,37.549248]},"properties":{"id":"kr-mokeultende-7kGOFfHznat5","name":"광주홍어회찜","city":"성동구 금호동1가","country":"서울","kind":"홍어","emoji":"🐟","status":"open","note":"홍어, 홍어삼합","rating":5,"reviews":1,"visits":[{"show":"MT","title":"금호동 광주홍어회찜","year":2026,"video":"https://www.youtube.com/watch?v=saEJhTwMPKc","label":"224화"}],"shows":["MT"],"primaryShow":"MT","image":"https://img.youtube.com/vi/saEJhTwMPKc/hqdefault.jpg"}},{"type":"Feature","geometry":{"type":"Point","coordinates":[126.981225,37.567825]},"properties":{"id":"kr-mokeultende-LMdSl90on3Sm","name":"인천집","city":"중구 다동","country":"서울","kind":"보쌈","emoji":"🍜","status":"open","note":"보쌈, 조개칼국수","rating":4.1,"reviews":13,"visits":[{"show":"MT","title":"을지로 인천집","year":2025,"video":"https://www.youtube.com/watch?v=ysMucw9HzSc","label":"198화"}],"shows":["MT"],"primaryShow":"MT"}},{"type":"Feature","geometry":{"type":"Point","coordinates":[126.9246634,37.6075458]},"properties":{"id":"kr-mokeultende-g8dQFGA5EPaV","name":"이가네가마솥설렁탕","city":"은평구 녹번동","country":"서울","kind":"설렁탕","emoji":"🍲","status":"open","note":"설렁탕, 꼬리찜","rating":3.9,"reviews":6,"visits":[{"show":"MT","title":"역촌역 이가네가마솥설렁탕","year":2023,"video":"https://www.youtube.com/watch?v=4zBBUw-VDnU","label":"93화"}],"shows":["MT"],"primaryShow":"MT","image":"https://img.youtube.com/vi/4zBBUw-VDnU/hqdefault.jpg"}},{"type":"Feature","geometry":{"type":"Point","coordinates":[127.0628906,37.5366374]},"properties":{"id":"kr-mokeultende-I6F4IvwRxqsX","name":"엄마순대","city":"광진구 자양동","country":"서울","kind":"순대국","emoji":"🍲","status":"open","note":"순대국, 머리고기","rating":4.1,"reviews":3,"visits":[{"show":"MT","title":"자양동 엄마순대","year":2026,"video":"https://www.youtube.com/watch?v=fPsMKDTzqaI","label":"222화"}],"shows":["MT"],"primaryShow":"MT","image":"https://img.youtube.com/vi/fPsMKDTzqaI/hqdefault.jpg"}},{"type":"Feature","geometry":{"type":"Point","coordinates":[126.9526794,37.5412839]},"properties":{"id":"kr-mokeultende-OVxelXQaCqAk","name":"뫼촌","city":"마포구 도화동","country":"서울","kind":"닭볶음탕","emoji":"🍗","status":"open","note":"닭볶음탕, 감자전","rating":3.8,"reviews":12,"visits":[],"shows":["MT"],"primaryShow":"MT"}},{"type":"Feature","geometry":{"type":"Point","coordinates":[127.0460566,37.5048955]},"properties":{"id":"kr-mokeultende-BjcKCeulZpCL","name":"가연국시","city":"강남구 역삼동","country":"서울","kind":"북어구이","emoji":"🥩","status":"open","note":"북어구이, 국시","rating":3.9,"reviews":7,"visits":[],"shows":["MT"],"primaryShow":"MT"}},{"type":"Feature","geometry":{"type":"Point","coordinates":[127.0880931,37.593222]},"properties":{"id":"kr-mokeultende-NH6pLOypMdmP","name":"부흥축산","city":"중랑구 상봉동","country":"서울","kind":"정육식당","emoji":"🥩","status":"open","note":"정육식당, 삼겹살","rating":4.5,"reviews":9,"visits":[{"show":"MT","title":"상봉역 부흥축산","year":2025,"video":"https://www.youtube.com/watch?v=6D0dhN2y0b8","label":"195화"}],"shows":["MT"],"primaryShow":"MT"}},{"type":"Feature","geometry":{"type":"Point","coordinates":[126.8637428,37.5257079]},"properties":{"id":"kr-mokeultende-4db2fDmJxWGo","name":"대포항","city":"양천구 신정동","country":"서울","kind":"막회","emoji":"🐟","status":"open","note":"막회, 횟집","rating":4.4,"reviews":2,"visits":[{"show":"MT","title":"목동역 대포항회집","year":2025,"video":"https://www.youtube.com/watch?v=OJl_XAXANH0","label":"191화"}],"shows":["MT"],"primaryShow":"MT"}},{"type":"Feature","geometry":{"type":"Point","coordinates":[126.9242273,37.5624137]},"properties":{"id":"kr-mokeultende-CEdrGiQVc1S8","name":"서대문 양꼬치 BAR","city":"마포구 연남동","country":"서울","kind":"양꼬치","emoji":"🥩","status":"open","note":"양꼬치, 양고기","rating":4.2,"reviews":3,"visits":[{"show":"MT","title":"연남동 서대문 양꼬치","year":2022,"video":"https://www.youtube.com/watch?v=OHPgGihCSZQ","label":"52화"}],"shows":["MT"],"primaryShow":"MT"}},{"type":"Feature","geometry":{"type":"Point","coordinates":[127.0329257,37.5603621]},"properties":{"id":"kr-mokeultende-jQIZpNc3hko6","name":"굴과찜사랑","city":"성동구 행당동","country":"서울","kind":"굴찜","emoji":"🐟","status":"open","note":"굴찜, 생굴","rating":4.4,"reviews":10,"visits":[{"show":"MT","title":"왕십리역 굴과찜사랑","year":2024,"video":"https://www.youtube.com/watch?v=RDcRtNT-bm0","label":"119화"}],"shows":["MT"],"primaryShow":"MT","image":"https://img.youtube.com/vi/RDcRtNT-bm0/hqdefault.jpg"}},{"type":"Feature","geometry":{"type":"Point","coordinates":[128.9679369,35.0808733]},"properties":{"id":"kr-mokeultende-MvFjzr9ewbwN","name":"월드양념통닭","city":"사하구 장림동","country":"부산","kind":"치킨","emoji":"🍗","status":"open","note":"치킨, 후라이드","rating":4.3,"reviews":5,"visits":[{"show":"MT","title":"부산 월드양념통닭","year":2023,"video":"https://www.youtube.com/watch?v=EMEROo6ZX6E","label":"105화"}],"shows":["MT"],"primaryShow":"MT","image":"https://img.youtube.com/vi/EMEROo6ZX6E/hqdefault.jpg"}},{"type":"Feature","geometry":{"type":"Point","coordinates":[127.0399662,37.5036357]},"properties":{"id":"kr-mokeultende-CXUkHe9nNT88","name":"서울집","city":"강남구 역삼동","country":"서울","kind":"만두국","emoji":"🥟","status":"open","note":"만두국, 만두전골","rating":4.4,"reviews":10,"visits":[{"show":"MT","title":"역삼역 서울집","year":2026,"video":"https://www.youtube.com/watch?v=zOJrMLxtweM","label":"225화"}],"shows":["MT"],"primaryShow":"MT","image":"https://img.youtube.com/vi/zOJrMLxtweM/hqdefault.jpg"}},{"type":"Feature","geometry":{"type":"Point","coordinates":[126.9825249,37.5722311]},"properties":{"id":"kr-mokeultende-nsVTrbxvgMbO","name":"서린낙지 견지점","city":"종로구 견지동","country":"서울","kind":"낙지볶음","emoji":"🐟","status":"open","note":"낙지볶음, 베이컨","rating":4.2,"reviews":4,"visits":[{"show":"MT","title":"종로 서린낙지","year":2022,"video":"https://www.youtube.com/watch?v=YfEY2fPIw8s","label":"19화"}],"shows":["MT"],"primaryShow":"MT","image":"https://img.youtube.com/vi/YfEY2fPIw8s/hqdefault.jpg"}},{"type":"Feature","geometry":{"type":"Point","coordinates":[127.0190568,37.5660163]},"properties":{"id":"kr-mokeultende-RCQqQZkIkELY","name":"영미식당","city":"중구 황학동","country":"서울","kind":"갈치구이","emoji":"🍚","status":"open","note":"갈치구이, 백반","rating":4.3,"reviews":2,"visits":[{"show":"MT","title":"신당 중앙시장 습격사건","year":2022,"video":"https://www.youtube.com/watch?v=QakFqXFK2Xs","label":"6화"}],"shows":["MT"],"primaryShow":"MT"}},{"type":"Feature","geometry":{"type":"Point","coordinates":[126.8909372,37.5226478]},"properties":{"id":"kr-mokeultende-5jQw0M3VoQ7Q","name":"양남한우정육식당","city":"영등포구 양평동1가","country":"서울","kind":"한우","emoji":"🥩","status":"open","note":"한우, 소고기","rating":4.4,"reviews":2,"visits":[{"show":"MT","title":"양평역 양남한우정육식당 (with.정용화)","year":2025,"video":"https://www.youtube.com/watch?v=OuGZB0CodmQ","label":"181화"}],"shows":["MT"],"primaryShow":"MT","image":"https://img.youtube.com/vi/OuGZB0CodmQ/hqdefault.jpg"}},{"type":"Feature","geometry":{"type":"Point","coordinates":[127.0644223,37.513631]},"properties":{"id":"kr-mokeultende-qTLEDNIJmIkc","name":"이남장","city":"강남구 삼성동","country":"서울","kind":"설렁탕","emoji":"🍲","status":"open","note":"설렁탕, 수육","rating":4.1,"reviews":19,"visits":[{"show":"MT","title":"삼성동 이남장","year":2022,"video":"https://www.youtube.com/watch?v=YJpv-lwKPNg","label":"50화"},{"show":"MT","title":"청담동 잔비워, 이남장 삼성점 (with.크리스탈 케이)","year":2024,"video":"https://www.youtube.com/watch?v=UFN682fRiWQ","label":"134화"}],"shows":["MT"],"primaryShow":"MT"}},{"type":"Feature","geometry":{"type":"Point","coordinates":[127.0108212,37.5533049]},"properties":{"id":"kr-mokeultende-CexKfHLT3oiX","name":"약수순대국","city":"중구 신당동","country":"서울","kind":"순대","emoji":"🍲","status":"open","note":"순대, 순대국","rating":4.1,"reviews":43,"visits":[{"show":"MT","title":"약수 순대국","year":2022,"video":"https://www.youtube.com/watch?v=p52CSWUXQMk","label":"3화"}],"shows":["MT"],"primaryShow":"MT"}},{"type":"Feature","geometry":{"type":"Point","coordinates":[126.9715667,37.6069978]},"properties":{"id":"kr-mokeultende-hAPq09HmVZQC","name":"이식당","city":"종로구 평창동","country":"서울","kind":"한우","emoji":"🍚","status":"open","note":"한우, 갈비덮밥","rating":4.2,"reviews":4,"visits":[{"show":"MT","title":"평창동 이식당 (with.정우)","year":2024,"video":"https://www.youtube.com/watch?v=5ZUmZiQYZLo","label":"155화"}],"shows":["MT"],"primaryShow":"MT","image":"https://img.youtube.com/vi/5ZUmZiQYZLo/hqdefault.jpg"}},{"type":"Feature","geometry":{"type":"Point","coordinates":[126.9747764,37.5712514]},"properties":{"id":"kr-mokeultende-m1S5Ajfk8XG0","name":"화목순대국전문","city":"종로구 당주동","country":"서울","kind":"순대국","emoji":"🍲","status":"open","note":"순대국, 내장탕","rating":4.1,"reviews":54,"visits":[{"show":"MT","title":"화목 순대국","year":2022,"video":"https://www.youtube.com/watch?v=DpGJEDKsf1o","label":"4화"}],"shows":["MT"],"primaryShow":"MT"}},{"type":"Feature","geometry":{"type":"Point","coordinates":[126.9841776,37.5708688]},"properties":{"id":"kr-mokeultende-VKpUpuILY2Pg","name":"권영수대가전골 종각역점","city":"종로구 공평동","country":"서울","kind":"전골","emoji":"🥟","status":"open","note":"전골, 만두전골","rating":4,"reviews":1,"visits":[{"show":"MT","title":"경동시장 권영수 대가전골","year":2024,"video":"https://www.youtube.com/watch?v=UhlyCAVklLE","label":"118화"}],"shows":["MT"],"primaryShow":"MT"}},{"type":"Feature","geometry":{"type":"Point","coordinates":[126.9801286,37.5709094]},"properties":{"id":"kr-mokeultende-PbNJPukzWw7A","name":"서린낙지","city":"종로구 종로1가","country":"서울","kind":"낙지볶음","emoji":"🥩","status":"open","note":"낙지볶음, 소시지구이","rating":4.2,"reviews":49,"visits":[{"show":"MT","title":"종로 서린낙지","year":2022,"video":"https://www.youtube.com/watch?v=YfEY2fPIw8s","label":"19화"}],"shows":["MT"],"primaryShow":"MT","image":"https://i.ytimg.com/vi/YfEY2fPIw8s/hqdefault.jpg"}},{"type":"Feature","geometry":{"type":"Point","coordinates":[126.9724921,37.5780066]},"properties":{"id":"kr-mokeultende-20GpVMqD6oHt","name":"도량","city":"종로구 통의동","country":"서울","kind":"중식","emoji":"🍽️","status":"open","note":"중식, 동파육","rating":4.6,"reviews":20,"visits":[{"show":"MT","title":"서촌 도량, 오쁘띠베르","year":2023,"video":"https://www.youtube.com/watch?v=83rTZdp9ty8","label":"116화"}],"shows":["MT"],"primaryShow":"MT","image":"https://img.youtube.com/vi/83rTZdp9ty8/hqdefault.jpg"}},{"type":"Feature","geometry":{"type":"Point","coordinates":[127.0033459,37.5824849]},"properties":{"id":"kr-mokeultende-AEL38QLY4wO8","name":"하이콴 대학로점","city":"종로구 동숭동","country":"서울","kind":"베트남음식","emoji":"🍜","status":"open","note":"베트남음식, 쌀국수","rating":4.2,"reviews":4,"visits":[{"show":"MT","title":"논현역 하이콴","year":2025,"video":"https://www.youtube.com/watch?v=pY1kORvBEYs","label":"164화"}],"shows":["MT"],"primaryShow":"MT"}},{"type":"Feature","geometry":{"type":"Point","coordinates":[126.955676,37.6089067]},"properties":{"id":"kr-mokeultende-U3gNsllc4jJP","name":"장모님해장국","city":"종로구 구기동","country":"서울","kind":"해장국","emoji":"🍲","status":"open","note":"해장국, 선지","rating":4.3,"reviews":13,"visits":[{"show":"MT","title":"구기동 장모님해장국","year":2025,"video":"https://www.youtube.com/watch?v=0ofsLj-W9nw","label":"161화"}],"shows":["MT"],"primaryShow":"MT","image":"https://img.youtube.com/vi/0ofsLj-W9nw/hqdefault.jpg"}},{"type":"Feature","geometry":{"type":"Point","coordinates":[126.9848457,37.570408]},"properties":{"id":"kr-mokeultende-x9ntmQbDeVBc","name":"버거리 종각역점","city":"종로구 종로2가","country":"서울","kind":"수제버거","emoji":"🍔","status":"open","note":"수제버거","rating":4,"reviews":1,"visits":[{"show":"MT","title":"버거리 클래식치즈버거 시리즈","year":2026,"video":"https://www.youtube.com/watch?v=JEp5JYGxWok","label":"215화"}],"shows":["MT"],"primaryShow":"MT"}},{"type":"Feature","geometry":{"type":"Point","coordinates":[126.9709956,37.5802722]},"properties":{"id":"kr-mokeultende-5YXFKeJPjOri","name":"오쁘띠베르","city":"종로구 통인동","country":"서울","kind":"디저트카페","emoji":"🍰","status":"open","note":"디저트카페, 와인바","rating":4.3,"reviews":19,"visits":[{"show":"MT","title":"서촌 도량, 오쁘띠베르","year":2023,"video":"https://www.youtube.com/watch?v=83rTZdp9ty8","label":"116화"}],"shows":["MT"],"primaryShow":"MT","image":"https://img.youtube.com/vi/83rTZdp9ty8/hqdefault.jpg"}},{"type":"Feature","geometry":{"type":"Point","coordinates":[127.0195388,37.5669259]},"properties":{"id":"kr-mokeultende-hHTBKDeVg8DJ","name":"이포어묵","city":"중구 황학동","country":"서울","kind":"어묵","emoji":"🍢","status":"unknown","note":"어묵, 수제어묵","rating":4.4,"reviews":28,"visits":[{"show":"MT","title":"신당 중앙시장 습격사건","year":2022,"video":"https://www.youtube.com/watch?v=QakFqXFK2Xs","label":"6화"}],"shows":["MT"],"primaryShow":"MT"}},{"type":"Feature","geometry":{"type":"Point","coordinates":[127.010648,37.552527]},"properties":{"id":"kr-mokeultende-fKexxT6hM3la","name":"디어스베이커리 신당점","city":"중구 신당동","country":"서울","kind":"고로케","emoji":"🍛","status":"open","note":"고로케, 빵집","rating":3.8,"reviews":3,"visits":[],"shows":["MT"],"primaryShow":"MT"}},{"type":"Feature","geometry":{"type":"Point","coordinates":[126.9985456,37.5680851]},"properties":{"id":"kr-mokeultende-DnjOBJDynHgp","name":"문화옥","city":"중구 주교동","country":"서울","kind":"설렁탕","emoji":"🍲","status":"open","note":"설렁탕, 족탕","rating":3.4,"reviews":5,"visits":[{"show":"MT","title":"을지로 문화옥","year":2025,"video":"https://www.youtube.com/watch?v=BvUQLE3nD1Y","label":"187화"}],"shows":["MT"],"primaryShow":"MT"}},{"type":"Feature","geometry":{"type":"Point","coordinates":[127.0127888,37.5607038]},"properties":{"id":"kr-mokeultende-VZdQ2icuRp45","name":"홍탁목포집","city":"중구 신당동","country":"서울","kind":"보쌈","emoji":"🍜","status":"unknown","note":"보쌈, 국수","rating":4,"reviews":1,"visits":[{"show":"MT","title":"콩국수 특집 (문배동 진미식당, 신당동 홍탁 목포집, 신촌 즉석 생우동)","year":2023,"video":"https://www.youtube.com/watch?v=Nz0jI_Lck0U","label":"90화"}],"shows":["MT"],"primaryShow":"MT","image":"https://img.youtube.com/vi/Nz0jI_Lck0U/hqdefault.jpg"}},{"type":"Feature","geometry":{"type":"Point","coordinates":[126.9818497,37.5621168]},"properties":{"id":"kr-mokeultende-reUE33WZY1CG","name":"개화","city":"중구 명동2가","country":"서울","kind":"짜장면","emoji":"🍜","status":"open","note":"짜장면, 중국집","rating":3.9,"reviews":27,"visits":[{"show":"MT","title":"명동역 향미, 개화","year":2024,"video":"https://www.youtube.com/watch?v=X5QLs6bflT4","label":"122화"}],"shows":["MT"],"primaryShow":"MT","image":"https://img.youtube.com/vi/X5QLs6bflT4/hqdefault.jpg"}},{"type":"Feature","geometry":{"type":"Point","coordinates":[126.9949822,37.5661552]},"properties":{"id":"kr-mokeultende-iANRfIlaZiqe","name":"청송손칼국수","city":"중구 을지로4가","country":"서울","kind":"칼국수","emoji":"🍜","status":"open","note":"칼국수, 손칼국수","rating":4.2,"reviews":2,"visits":[],"shows":["MT"],"primaryShow":"MT"}},{"type":"Feature","geometry":{"type":"Point","coordinates":[127.0195515,37.5661034]},"properties":{"id":"kr-mokeultende-zBpX86ajLPjt","name":"옥경이네 건생선","city":"중구 황학동","country":"서울","kind":"갑오징어구이","emoji":"🥩","status":"open","note":"갑오징어구이, 생선구이","rating":4.2,"reviews":52,"visits":[{"show":"MT","title":"신당 중앙시장 습격사건","year":2022,"video":"https://www.youtube.com/watch?v=QakFqXFK2Xs","label":"6화"}],"shows":["MT"],"primaryShow":"MT"}},{"type":"Feature","geometry":{"type":"Point","coordinates":[127.010122,37.5534644]},"properties":{"id":"kr-mokeultende-96RN4NBjedzh","name":"진남포면옥","city":"중구 신당동","country":"서울","kind":"이북식찜닭","emoji":"🍗","status":"open","note":"이북식찜닭","rating":3.9,"reviews":22,"visits":[],"shows":["MT"],"primaryShow":"MT"}},{"type":"Feature","geometry":{"type":"Point","coordinates":[126.9969235,37.5603727]},"properties":{"id":"kr-mokeultende-K0yvR5cu07Z1","name":"필동면옥","city":"중구 필동3가","country":"서울","kind":"평양냉면","emoji":"🍜","status":"open","note":"평양냉면","rating":4.1,"reviews":138,"visits":[{"show":"MT","title":"충무로 필동면옥","year":2022,"video":"https://www.youtube.com/watch?v=EnMwZlMLPWY","label":"20화"}],"shows":["MT"],"primaryShow":"MT","image":"https://img.youtube.com/vi/EnMwZlMLPWY/hqdefault.jpg"}},{"type":"Feature","geometry":{"type":"Point","coordinates":[127.0122198,37.5580196]},"properties":{"id":"kr-mokeultende-JVZvpTAOe6uT","name":"녹동뻘낙지","city":"중구 신당동","country":"서울","kind":"산낙지","emoji":"🐟","status":"open","note":"산낙지, 낙지탕탕이","rating":4.1,"reviews":5,"visits":[{"show":"MT","title":"신당동 녹동뻘낙지","year":2022,"video":"https://www.youtube.com/watch?v=C38dKDRH10U","label":"36화"}],"shows":["MT"],"primaryShow":"MT","image":"https://img.youtube.com/vi/C38dKDRH10U/hqdefault.jpg"}},{"type":"Feature","geometry":{"type":"Point","coordinates":[127.0154462,37.5625117]},"properties":{"id":"kr-mokeultende-zEMcXf3HgcHq","name":"춘향미엔 신당점","city":"중구 신당동","country":"서울","kind":"만두","emoji":"🥟","status":"open","note":"만두, 온면","rating":4.3,"reviews":11,"visits":[{"show":"MT","title":"왕십리 춘향미엔","year":2023,"video":"https://www.youtube.com/watch?v=kHpd-p6y1x0","label":"83화"}],"shows":["MT"],"primaryShow":"MT"}},{"type":"Feature","geometry":{"type":"Point","coordinates":[126.9954006,37.5648413]},"properties":{"id":"kr-mokeultende-XODpdznyJYup","name":"성원식품","city":"중구 인현동2가","country":"서울","kind":"소갈비","emoji":"🥩","status":"open","note":"소갈비, LA갈비","rating":3.8,"reviews":4,"visits":[],"shows":["MT"],"primaryShow":"MT"}},{"type":"Feature","geometry":{"type":"Point","coordinates":[127.0183705,37.5659157]},"properties":{"id":"kr-mokeultende-uqg0wmAnOga2","name":"원조홍두깨손칼국수","city":"중구 황학동","country":"서울","kind":"칼국수","emoji":"🍜","status":"open","note":"칼국수, 수제비","rating":4.2,"reviews":3,"visits":[],"shows":["MT"],"primaryShow":"MT"}},{"type":"Feature","geometry":{"type":"Point","coordinates":[126.9955216,37.5621511]},"properties":{"id":"kr-mokeultende-1znqW1ZlOHds","name":"삼풍집","city":"중구 충무로4가","country":"서울","kind":"감자탕","emoji":"🍲","status":"unknown","note":"감자탕","rating":5,"reviews":1,"visits":[],"shows":["MT"],"primaryShow":"MT"}},{"type":"Feature","geometry":{"type":"Point","coordinates":[126.9813287,37.5678099]},"properties":{"id":"kr-mokeultende-dSuzgFcKpGvg","name":"도리방","city":"중구 다동","country":"서울","kind":"꼬치","emoji":"🍽️","status":"open","note":"꼬치, 노바다야끼","rating":4,"reviews":1,"visits":[],"shows":["MT"],"primaryShow":"MT"}},{"type":"Feature","geometry":{"type":"Point","coordinates":[127.0086339,37.5481064]},"properties":{"id":"kr-mokeultende-LFvwK6POnMvQ","name":"산지","city":"중구 신당동","country":"서울","kind":"간장게장","emoji":"🐟","status":"open","note":"간장게장, 한식","rating":4.2,"reviews":2,"visits":[],"shows":["MT"],"primaryShow":"MT"}},{"type":"Feature","geometry":{"type":"Point","coordinates":[127.0179072,37.5631141]},"properties":{"id":"kr-mokeultende-LLvNByt17NGg","name":"춘천막국수","city":"중구 신당동","country":"서울","kind":"막국수","emoji":"🍜","status":"open","note":"막국수, 이북식찜닭","rating":0,"reviews":0,"visits":[{"show":"MT","title":"약수동 춘천막국수","year":2022,"video":"https://www.youtube.com/watch?v=XvmK69zZJOo","label":"65화"}],"shows":["MT"],"primaryShow":"MT"}},{"type":"Feature","geometry":{"type":"Point","coordinates":[126.9953853,37.5647301]},"properties":{"id":"kr-mokeultende-G8DceTdN1sf4","name":"LA갈비 왕소금구이","city":"중구 인현동2가","country":"서울","kind":"소갈비","emoji":"🥩","status":"open","note":"소갈비, LA갈비","rating":0,"reviews":0,"visits":[],"shows":["MT"],"primaryShow":"MT"}},{"type":"Feature","geometry":{"type":"Point","coordinates":[126.9953525,37.565149]},"properties":{"id":"kr-mokeultende-5bBKAiTtTm6L","name":"시골집 2호점","city":"중구 인현동1가","country":"서울","kind":"갈비탕","emoji":"🥩","status":"unknown","note":"갈비탕, LA갈비","rating":0,"reviews":0,"visits":[{"show":"MT","title":"을지로 시골집","year":2022,"video":"https://www.youtube.com/watch?v=KJSKPIrDcSw","label":"27화"}],"shows":["MT"],"primaryShow":"MT"}},{"type":"Feature","geometry":{"type":"Point","coordinates":[127.0197965,37.5664225]},"properties":{"id":"kr-mokeultende-ADcALn6Qxune","name":"황금육전","city":"중구 황학동","country":"서울","kind":"전집","emoji":"🥞","status":"open","note":"전집, 육전","rating":0,"reviews":0,"visits":[],"shows":["MT"],"primaryShow":"MT"}},{"type":"Feature","geometry":{"type":"Point","coordinates":[126.9730906,37.5422101]},"properties":{"id":"kr-mokeultende-nnNW7sW9CddN","name":"금천문 오향족발","city":"용산구 남영동","country":"서울","kind":"족발","emoji":"🍖","status":"open","note":"족발, 오향족발","rating":4,"reviews":9,"visits":[{"show":"MT","title":"남영동 금천문&오향족발","year":2023,"video":"https://www.youtube.com/watch?v=xE1gqk1Q3uA","label":"91화"}],"shows":["MT"],"primaryShow":"MT"}},{"type":"Feature","geometry":{"type":"Point","coordinates":[126.9876165,37.5373271]},"properties":{"id":"kr-mokeultende-tf4qHp60xFSx","name":"버거스낵","city":"용산구 이태원동","country":"서울","kind":"수제버거","emoji":"🍔","status":"open","note":"수제버거, 치즈버거","rating":5,"reviews":2,"visits":[{"show":"MT","title":"이태원 버거스낵","year":2022,"video":"https://www.youtube.com/watch?v=bkdYYIBe0PM","label":"15화"}],"shows":["MT"],"primaryShow":"MT"}},{"type":"Feature","geometry":{"type":"Point","coordinates":[126.9955532,37.5409757]},"properties":{"id":"kr-mokeultende-NY0RRQz4pRuo","name":"로코스 비비큐 본점","city":"용산구 이태원동","country":"서울","kind":"바베큐","emoji":"🍽️","status":"open","note":"바베큐, 샘플러","rating":4,"reviews":22,"visits":[{"show":"MT","title":"로코스 비비큐 경리단길본점","year":2023,"video":"https://www.youtube.com/watch?v=Hmje6h1lcuQ","label":"112화"}],"shows":["MT"],"primaryShow":"MT","image":"https://img.youtube.com/vi/Hmje6h1lcuQ/hqdefault.jpg"}},{"type":"Feature","geometry":{"type":"Point","coordinates":[126.9909122,37.533084]},"properties":{"id":"kr-mokeultende-MeaQOAsoLl00","name":"이태원숯불구이","city":"용산구 이태원동","country":"서울","kind":"등심","emoji":"🥩","status":"open","note":"등심, 돼지갈비","rating":0,"reviews":0,"visits":[],"shows":["MT"],"primaryShow":"MT"}},{"type":"Feature","geometry":{"type":"Point","coordinates":[126.9765709,37.5500578]},"properties":{"id":"kr-mokeultende-wiS4AZmL6G7w","name":"진동세꼬시","city":"용산구 후암동","country":"서울","kind":"생선회","emoji":"🐟","status":"open","note":"생선회, 알탕","rating":0,"reviews":0,"visits":[{"show":"MT","title":"후암동 진동세꼬시","year":2024,"video":"https://www.youtube.com/watch?v=vbgOayi86Dg","label":"131화"}],"shows":["MT"],"primaryShow":"MT"}},{"type":"Feature","geometry":{"type":"Point","coordinates":[126.9998023,37.5372741]},"properties":{"id":"kr-mokeultende-AoaJU36HV6WO","name":"부자피자 1호점","city":"용산구 한남동","country":"서울","kind":"화덕피자","emoji":"🍕","status":"open","note":"화덕피자","rating":4.2,"reviews":59,"visits":[{"show":"MT","title":"한남동 부자피자","year":2022,"video":"https://www.youtube.com/watch?v=U5WHtm6Yhj0","label":"53화"}],"shows":["MT"],"primaryShow":"MT","image":"https://img.youtube.com/vi/U5WHtm6Yhj0/hqdefault.jpg"}},{"type":"Feature","geometry":{"type":"Point","coordinates":[126.9784126,37.5466943]},"properties":{"id":"kr-mokeultende-5ZkxX7H1UXqY","name":"야스노야","city":"용산구 후암동","country":"서울","kind":"양고기","emoji":"🍲","status":"open","note":"양고기, 돼지국밥","rating":4.5,"reviews":11,"visits":[{"show":"MT","title":"용산구 야스노야 본점 (with.에픽하이)","year":2023,"video":"https://www.youtube.com/watch?v=PjRz1aL-3Z8","label":"111화"}],"shows":["MT"],"primaryShow":"MT","image":"https://img.youtube.com/vi/PjRz1aL-3Z8/hqdefault.jpg"}},{"type":"Feature","geometry":{"type":"Point","coordinates":[126.9892203,37.5332223]},"properties":{"id":"kr-mokeultende-QBvb17Suy1t9","name":"오띠젤리","city":"용산구 이태원동","country":"서울","kind":"커피","emoji":"☕","status":"open","note":"커피, 카페","rating":4.7,"reviews":17,"visits":[{"show":"MT","title":"이태원 오띠젤리","year":2023,"video":"https://www.youtube.com/watch?v=1ms4Gaqvbx8","label":"97화"}],"shows":["MT"],"primaryShow":"MT"}},{"type":"Feature","geometry":{"type":"Point","coordinates":[126.9710299,37.5328472]},"properties":{"id":"kr-mokeultende-wwmabiqWB6NC","name":"삼각정","city":"용산구 한강로2가","country":"서울","kind":"특수부위","emoji":"🥩","status":"open","note":"특수부위, 돼지특수부위","rating":3.9,"reviews":3,"visits":[{"show":"MT","title":"삼각지 삼각정","year":2026,"video":"https://www.youtube.com/watch?v=BRB34sU9lJM","label":"211화"}],"shows":["MT"],"primaryShow":"MT","image":"https://img.youtube.com/vi/BRB34sU9lJM/hqdefault.jpg"}},{"type":"Feature","geometry":{"type":"Point","coordinates":[126.9678016,37.5307958]},"properties":{"id":"kr-mokeultende-qfMCsbwNU6gQ","name":"한성식당 2호점","city":"용산구 한강로2가","country":"서울","kind":"순대국","emoji":"🍲","status":"open","note":"순대국","rating":4,"reviews":1,"visits":[],"shows":["MT"],"primaryShow":"MT"}},{"type":"Feature","geometry":{"type":"Point","coordinates":[126.9738012,37.5427593]},"properties":{"id":"kr-mokeultende-PZCLPHYvQHH1","name":"남영돈","city":"용산구 남영동","country":"서울","kind":"삼겹살","emoji":"🥩","status":"open","note":"삼겹살, 항정살","rating":4.5,"reviews":83,"visits":[{"show":"MT","title":"남영동 남영돈","year":2023,"video":"https://www.youtube.com/watch?v=0b2vSvwVra8","label":"78화"}],"shows":["MT"],"primaryShow":"MT"}},{"type":"Feature","geometry":{"type":"Point","coordinates":[127.0005577,37.5350206]},"properties":{"id":"kr-mokeultende-piFne9BxzGnS","name":"바바라스 키친","city":"용산구 한남동","country":"서울","kind":"떡볶이","emoji":"🍜","status":"open","note":"떡볶이, 짜장떡볶이","rating":4.2,"reviews":13,"visits":[{"show":"MT","title":"한남동 바바라스키친","year":2023,"video":"https://www.youtube.com/watch?v=hVbs-5rv0Fw","label":"76화"}],"shows":["MT"],"primaryShow":"MT"}},{"type":"Feature","geometry":{"type":"Point","coordinates":[127.0088354,37.5346628]},"properties":{"id":"kr-mokeultende-iyUHMTH7ci9Q","name":"고다이","city":"용산구 한남동","country":"서울","kind":"양고기","emoji":"🥩","status":"open","note":"양고기, 양갈비","rating":3,"reviews":2,"visits":[{"show":"MT","title":"한남동 고다이","year":2024,"video":"https://www.youtube.com/watch?v=_Rskex6miE4","label":"147화"}],"shows":["MT"],"primaryShow":"MT","image":"https://img.youtube.com/vi/_Rskex6miE4/hqdefault.jpg"}},{"type":"Feature","geometry":{"type":"Point","coordinates":[127.0320356,37.5605097]},"properties":{"id":"kr-mokeultende-0tr3gZf0FlTV","name":"춘향미엔 왕십리점","city":"성동구 행당동","country":"서울","kind":"만두","emoji":"🥟","status":"open","note":"만두, 온면","rating":4.3,"reviews":45,"visits":[{"show":"MT","title":"왕십리 춘향미엔","year":2023,"video":"https://www.youtube.com/watch?v=kHpd-p6y1x0","label":"83화"}],"shows":["MT"],"primaryShow":"MT"}},{"type":"Feature","geometry":{"type":"Point","coordinates":[127.0591309,37.5466447]},"properties":{"id":"kr-mokeultende-g1Ko3rKvuKJi","name":"행복한식당","city":"성동구 성수동2가","country":"서울","kind":"삼겹살","emoji":"🥩","status":"open","note":"삼겹살, 생삼겹살","rating":4.6,"reviews":13,"visits":[],"shows":["MT"],"primaryShow":"MT"}},{"type":"Feature","geometry":{"type":"Point","coordinates":[127.0192806,37.5531409]},"properties":{"id":"kr-mokeultende-2YAqFv8CDLIM","name":"채원감자탕","city":"성동구 금호동2가","country":"서울","kind":"감자탕","emoji":"🍲","status":"open","note":"감자탕, 뼈해장국","rating":4.8,"reviews":6,"visits":[{"show":"MT","title":"금호동 채원감자탕","year":2025,"video":"https://www.youtube.com/watch?v=x9X-5C4PoL0","label":"176화"}],"shows":["MT"],"primaryShow":"MT"}},{"type":"Feature","geometry":{"type":"Point","coordinates":[127.054387,37.542837]},"properties":{"id":"kr-mokeultende-jAL2mG45kQKq","name":"소문난 성수 감자탕","city":"성동구 성수동2가","country":"서울","kind":"감자탕","emoji":"🍲","status":"open","note":"감자탕, 볶음밥","rating":4,"reviews":238,"visits":[{"show":"MT","title":"성수 감자탕","year":2022,"video":"https://www.youtube.com/watch?v=MAIrp4WYAx4","label":"10화"}],"shows":["MT"],"primaryShow":"MT"}},{"type":"Feature","geometry":{"type":"Point","coordinates":[127.058055,37.5413133]},"properties":{"id":"kr-mokeultende-ZEJUhYGsrPpr","name":"매치스성수","city":"성동구 성수동2가","country":"서울","kind":"와인바","emoji":"🍶","status":"open","note":"와인바","rating":5,"reviews":3,"visits":[{"show":"MT","title":"매치스성수 (with.초아)","year":2024,"video":"https://www.youtube.com/watch?v=YEUXJ9lBk2E","label":"136화"}],"shows":["MT"],"primaryShow":"MT","image":"https://img.youtube.com/vi/YEUXJ9lBk2E/hqdefault.jpg"}},{"type":"Feature","geometry":{"type":"Point","coordinates":[127.0773625,37.538249]},"properties":{"id":"kr-mokeultende-7qFNTzZxkI0J","name":"24시 원조 자양감자탕","city":"광진구 자양동","country":"서울","kind":"감자탕","emoji":"🍲","status":"open","note":"감자탕, 뼈해장국","rating":3.4,"reviews":8,"visits":[],"shows":["MT"],"primaryShow":"MT"}},{"type":"Feature","geometry":{"type":"Point","coordinates":[127.0762309,37.557681]},"properties":{"id":"kr-mokeultende-j8ypikS106HK","name":"영미오리탕","city":"광진구 군자동","country":"서울","kind":"오리고기","emoji":"🍗","status":"open","note":"오리고기, 오리탕","rating":4.6,"reviews":35,"visits":[{"show":"MT","title":"군자 영미 오리탕","year":2022,"video":"https://www.youtube.com/watch?v=vvGnYVFWrMc","label":"32화"}],"shows":["MT"],"primaryShow":"MT"}},{"type":"Feature","geometry":{"type":"Point","coordinates":[127.0650323,37.5367452]},"properties":{"id":"kr-mokeultende-8VNC2qyTpU86","name":"소문난순대국","city":"광진구 자양동","country":"서울","kind":"순대국","emoji":"🍗","status":"unknown","note":"순대국, 닭강정","rating":4,"reviews":2,"visits":[],"shows":["MT"],"primaryShow":"MT"}},{"type":"Feature","geometry":{"type":"Point","coordinates":[127.0887047,37.5387467]},"properties":{"id":"kr-mokeultende-oxIUd2pTUWNz","name":"먹거리집","city":"광진구 구의동","country":"서울","kind":"순대국","emoji":"🍲","status":"open","note":"순대국","rating":4.3,"reviews":3,"visits":[{"show":"MT","title":"상봉역 먹거리집","year":2024,"video":"https://www.youtube.com/watch?v=vDVTYhm-2uU","label":"145화"}],"shows":["MT"],"primaryShow":"MT"}},{"type":"Feature","geometry":{"type":"Point","coordinates":[127.0645082,37.5372522]},"properties":{"id":"kr-mokeultende-tZE6Uht0kuIz","name":"큰소문난순대국","city":"광진구 자양동","country":"서울","kind":"순대국","emoji":"🍲","status":"open","note":"순대국","rating":5,"reviews":2,"visits":[],"shows":["MT"],"primaryShow":"MT"}},{"type":"Feature","geometry":{"type":"Point","coordinates":[127.0840714,37.5316196]},"properties":{"id":"kr-mokeultende-lPVGcdVhFcRY","name":"마포육곳간 구의점","city":"광진구 자양동","country":"서울","kind":"고깃집","emoji":"🥩","status":"open","note":"고깃집, 소고기","rating":0,"reviews":0,"visits":[],"shows":["MT"],"primaryShow":"MT"}},{"type":"Feature","geometry":{"type":"Point","coordinates":[127.0391428,37.5790378]},"properties":{"id":"kr-mokeultende-zLmnRsbLp8oT","name":"안동집 손칼국시","city":"동대문구 제기동","country":"서울","kind":"이모카세","emoji":"🍽️","status":"open","note":"이모카세, 배추전","rating":4.3,"reviews":38,"visits":[{"show":"MT","title":"경동시장 안동집, 김제식당","year":2023,"video":"https://www.youtube.com/watch?v=6T7fWf5EA0s","label":"108화"}],"shows":["MT"],"primaryShow":"MT","image":"https://img.youtube.com/vi/6T7fWf5EA0s/hqdefault.jpg"}},{"type":"Feature","geometry":{"type":"Point","coordinates":[127.0285888,37.5774796]},"properties":{"id":"kr-mokeultende-Wphn9urf9Crj","name":"어머니 대성집","city":"동대문구 용두동","country":"서울","kind":"해장국","emoji":"🍲","status":"open","note":"해장국, 선지","rating":4.2,"reviews":77,"visits":[{"show":"MT","title":"어머니 대성집 해장국","year":2022,"video":"https://www.youtube.com/watch?v=28pXe1a9yrA","label":"2화"}],"shows":["MT"],"primaryShow":"MT"}},{"type":"Feature","geometry":{"type":"Point","coordinates":[127.0566514,37.5680107]},"properties":{"id":"kr-mokeultende-HIxSRGq5F2iC","name":"오소록","city":"동대문구 답십리동","country":"서울","kind":"고기국수","emoji":"🍜","status":"open","note":"고기국수, 돔베고기","rating":4.4,"reviews":11,"visits":[{"show":"MT","title":"답십리역 오소록","year":2024,"video":"https://www.youtube.com/watch?v=kV8BKO9VKdQ","label":"126화"}],"shows":["MT"],"primaryShow":"MT","image":"https://img.youtube.com/vi/kV8BKO9VKdQ/hqdefault.jpg"}},{"type":"Feature","geometry":{"type":"Point","coordinates":[127.056291,37.572579]},"properties":{"id":"kr-mokeultende-Rks1rAne2oIc","name":"한옥정","city":"동대문구 답십리동","country":"서울","kind":"삼겹살","emoji":"🥩","status":"open","note":"삼겹살, 갈치조림","rating":4.7,"reviews":8,"visits":[{"show":"MT","title":"답십리 한옥정","year":2023,"video":"https://www.youtube.com/watch?v=nhZOWlhBDms","label":"82화"}],"shows":["MT"],"primaryShow":"MT","image":"https://img.youtube.com/vi/nhZOWlhBDms/hqdefault.jpg"}},{"type":"Feature","geometry":{"type":"Point","coordinates":[127.0571407,37.5789172]},"properties":{"id":"kr-mokeultende-cZO55r4PPFR7","name":"신락원","city":"동대문구 전농동","country":"서울","kind":"짜장면","emoji":"🍜","status":"open","note":"짜장면, 중화요리","rating":3.9,"reviews":9,"visits":[],"shows":["MT"],"primaryShow":"MT"}},{"type":"Feature","geometry":{"type":"Point","coordinates":[127.0366276,37.5887939]},"properties":{"id":"kr-mokeultende-f7S4hycGsmPf","name":"알래스카에서 온 연어가 맛있는 집","city":"동대문구 제기동","country":"서울","kind":"연어","emoji":"🐟","status":"open","note":"연어, 연어회","rating":4.8,"reviews":2,"visits":[],"shows":["MT"],"primaryShow":"MT"}},{"type":"Feature","geometry":{"type":"Point","coordinates":[127.0404724,37.5797486]},"properties":{"id":"kr-mokeultende-lM9duOyNpnCS","name":"전주식당","city":"동대문구 제기동","country":"서울","kind":"제육볶음","emoji":"🍽️","status":"unknown","note":"제육볶음","rating":4,"reviews":1,"visits":[],"shows":["MT"],"primaryShow":"MT"}},{"type":"Feature","geometry":{"type":"Point","coordinates":[127.0573094,37.5691033]},"properties":{"id":"kr-mokeultende-4NjcMAA57OBR","name":"일광쪽갈비","city":"동대문구 답십리동","country":"서울","kind":"쪽갈비","emoji":"🥩","status":"open","note":"쪽갈비, 생쪽갈비","rating":4.4,"reviews":4,"visits":[{"show":"MT","title":"답십리 일광쪽갈비","year":2022,"video":"https://www.youtube.com/watch?v=nUj86InQ6dM","label":"31화"}],"shows":["MT"],"primaryShow":"MT"}},{"type":"Feature","geometry":{"type":"Point","coordinates":[127.036305,37.579499]},"properties":{"id":"kr-mokeultende-pjqUWTZYgygt","name":"토성옥","city":"동대문구 제기동","country":"서울","kind":"도가니탕","emoji":"🍲","status":"open","note":"도가니탕, 꼬리곰탕","rating":4.4,"reviews":3,"visits":[],"shows":["MT"],"primaryShow":"MT"}},{"type":"Feature","geometry":{"type":"Point","coordinates":[127.0432135,37.5873913]},"properties":{"id":"kr-mokeultende-erT4i7etNgXu","name":"청우식당","city":"동대문구 청량리동","country":"서울","kind":"고깃집","emoji":"🥩","status":"open","note":"고깃집, 육회","rating":0,"reviews":0,"visits":[],"shows":["MT"],"primaryShow":"MT"}},{"type":"Feature","geometry":{"type":"Point","coordinates":[127.0589354,37.5667819]},"properties":{"id":"kr-mokeultende-SPEazJrIBriO","name":"정동진","city":"동대문구 답십리동","country":"서울","kind":"생선구이","emoji":"🥩","status":"unknown","note":"생선구이, 아구찜","rating":0,"reviews":0,"visits":[],"shows":["MT"],"primaryShow":"MT"}},{"type":"Feature","geometry":{"type":"Point","coordinates":[127.0428043,37.580603]},"properties":{"id":"kr-mokeultende-6RN5Q45LeGSK","name":"시장닭발","city":"동대문구 제기동","country":"서울","kind":"닭발","emoji":"🍗","status":"open","note":"닭발, 홍어무침","rating":0,"reviews":0,"visits":[],"shows":["MT"],"primaryShow":"MT"}},{"type":"Feature","geometry":{"type":"Point","coordinates":[127.0404723,37.5797486]},"properties":{"id":"kr-mokeultende-eE9bJV9Yf1He","name":"원조식당","city":"동대문구 제기동","country":"서울","kind":"감자탕","emoji":"🍲","status":"open","note":"감자탕, 볶음밥","rating":0,"reviews":0,"visits":[],"shows":["MT"],"primaryShow":"MT"}},{"type":"Feature","geometry":{"type":"Point","coordinates":[127.0914308,37.5897386]},"properties":{"id":"kr-mokeultende-AGG6HkPviAlM","name":"홍가네소머리국밥","city":"중랑구 면목동","country":"서울","kind":"소머리국밥","emoji":"🍲","status":"open","note":"소머리국밥, 한우소머리곰탕","rating":3.9,"reviews":2,"visits":[],"shows":["MT"],"primaryShow":"MT"}},{"type":"Feature","geometry":{"type":"Point","coordinates":[127.0882992,37.5853774]},"properties":{"id":"kr-mokeultende-VPePEHSwuAO5","name":"경원식당 면목점","city":"중랑구 면목동","country":"서울","kind":"부대찌개","emoji":"🍚","status":"open","note":"부대찌개, 솥밥","rating":0,"reviews":0,"visits":[{"show":"MT","title":"경원식당 부대찌개","year":2022,"video":"https://www.youtube.com/watch?v=s1ToTcCXgy0","label":"7화"}],"shows":["MT"],"primaryShow":"MT"}},{"type":"Feature","geometry":{"type":"Point","coordinates":[127.0377719,37.6385858]},"properties":{"id":"kr-mokeultende-mMXjzvXNWLpa","name":"전주선지순대추어탕","city":"도봉구 창동","country":"서울","kind":"순대국","emoji":"🍲","status":"open","note":"순대국, 국밥","rating":3,"reviews":3,"visits":[],"shows":["MT"],"primaryShow":"MT"}},{"type":"Feature","geometry":{"type":"Point","coordinates":[127.040289,37.655958]},"properties":{"id":"kr-mokeultende-MYJbpsW89I4A","name":"차돌집","city":"도봉구 창동","country":"서울","kind":"차돌박이","emoji":"🥩","status":"open","note":"차돌박이, 한우차돌박이","rating":5,"reviews":2,"visits":[],"shows":["MT"],"primaryShow":"MT"}},{"type":"Feature","geometry":{"type":"Point","coordinates":[127.0598493,37.6549822]},"properties":{"id":"kr-mokeultende-hfo4OGUZ4PUD","name":"옛날 칼국수","city":"노원구 상계동","country":"서울","kind":"칼국수","emoji":"🍜","status":"open","note":"칼국수, 얼큰수제비","rating":4,"reviews":30,"visits":[{"show":"MT","title":"노원 옛날칼국수","year":2023,"video":"https://www.youtube.com/watch?v=oCVgwsJbFpk","label":"88화"}],"shows":["MT"],"primaryShow":"MT","image":"https://img.youtube.com/vi/oCVgwsJbFpk/hqdefault.jpg"}},{"type":"Feature","geometry":{"type":"Point","coordinates":[126.9269249,37.6022569]},"properties":{"id":"kr-mokeultende-8mipQVEAhUyD","name":"서부감자국","city":"은평구 녹번동","country":"서울","kind":"감자탕","emoji":"🍲","status":"open","note":"감자탕, 감자국","rating":4,"reviews":18,"visits":[{"show":"MT","title":"녹번동 서부감자국","year":2023,"video":"https://www.youtube.com/watch?v=KujD94niMrI","label":"74화"}],"shows":["MT"],"primaryShow":"MT"}},{"type":"Feature","geometry":{"type":"Point","coordinates":[126.9536754,37.5512371]},"properties":{"id":"kr-mokeultende-3rGL8je9jiYN","name":"멜로즈","city":"마포구 아현동","country":"서울","kind":"프렌치토스트","emoji":"🍽️","status":"open","note":"프렌치토스트, 하이라이스","rating":4.3,"reviews":7,"visits":[],"shows":["MT"],"primaryShow":"MT"}},{"type":"Feature","geometry":{"type":"Point","coordinates":[126.9175999,37.5570868]},"properties":{"id":"kr-mokeultende-qjYYPzWCyinj","name":"국일순대국","city":"마포구 서교동","country":"서울","kind":"순대국","emoji":"🍲","status":"open","note":"순대국","rating":4,"reviews":1,"visits":[{"show":"MT","title":"서교동 국일순대국","year":2025,"video":"https://www.youtube.com/watch?v=wCriYW5dB98","label":"185화"}],"shows":["MT"],"primaryShow":"MT"}},{"type":"Feature","geometry":{"type":"Point","coordinates":[126.9504338,37.5420571]},"properties":{"id":"kr-mokeultende-aTbdepkHcgkx","name":"마포 양지설렁탕","city":"마포구 도화동","country":"서울","kind":"설렁탕","emoji":"🍲","status":"open","note":"설렁탕, 파김치","rating":4.2,"reviews":23,"visits":[],"shows":["MT"],"primaryShow":"MT"}},{"type":"Feature","geometry":{"type":"Point","coordinates":[126.939484,37.5425356]},"properties":{"id":"kr-mokeultende-2bRZP3S2n3Kw","name":"부영각","city":"마포구 용강동","country":"서울","kind":"군만두","emoji":"🥟","status":"open","note":"군만두, 볶음밥","rating":4,"reviews":10,"visits":[{"show":"MT","title":"부영각 부추 복어살","year":2022,"video":"https://www.youtube.com/watch?v=iPVLZhuog-g","label":"9화"}],"shows":["MT"],"primaryShow":"MT","image":"https://img.youtube.com/vi/iPVLZhuog-g/hqdefault.jpg"}},{"type":"Feature","geometry":{"type":"Point","coordinates":[126.815725,37.5772666]},"properties":{"id":"kr-mokeultende-rubeUWb6rDdU","name":"방화동 교동짬뽕","city":"강서구 방화동","country":"서울","kind":"짬뽕","emoji":"🍜","status":"open","note":"짬뽕, 탕수육","rating":4.5,"reviews":24,"visits":[{"show":"MT","title":"방화동 교동짬뽕","year":2022,"video":"https://www.youtube.com/watch?v=l4bgfC2WlUY","label":"14화"}],"shows":["MT"],"primaryShow":"MT"}},{"type":"Feature","geometry":{"type":"Point","coordinates":[126.8384487,37.5609678]},"properties":{"id":"kr-mokeultende-xzPPNtyHXaTj","name":"발산한우진곱창","city":"강서구 마곡동","country":"서울","kind":"곱창","emoji":"🥩","status":"open","note":"곱창, 소곱창","rating":3.8,"reviews":16,"visits":[{"show":"MT","title":"100만기념 _구독자와의 첫만남","year":2022,"video":"https://www.youtube.com/watch?v=Xz1QAlQGz5s","label":"64화"}],"shows":["MT"],"primaryShow":"MT","image":"https://img.youtube.com/vi/Xz1QAlQGz5s/hqdefault.jpg"}},{"type":"Feature","geometry":{"type":"Point","coordinates":[126.8383407,37.5594977]},"properties":{"id":"kr-mokeultende-KQcHhvOqt8Qy","name":"원당곱창","city":"강서구 마곡동","country":"서울","kind":"곱창","emoji":"🥩","status":"open","note":"곱창, 소곱창","rating":2.7,"reviews":5,"visits":[],"shows":["MT"],"primaryShow":"MT"}},{"type":"Feature","geometry":{"type":"Point","coordinates":[126.8092741,37.5632398]},"properties":{"id":"kr-mokeultende-kRBcZlrPMlY9","name":"전주집","city":"강서구 방화동","country":"서울","kind":"순대국","emoji":"🍲","status":"unknown","note":"순대국","rating":0,"reviews":0,"visits":[],"shows":["MT"],"primaryShow":"MT"}},{"type":"Feature","geometry":{"type":"Point","coordinates":[126.8298,37.495931]},"properties":{"id":"kr-mokeultende-33SE15s3DVEq","name":"중화루","city":"구로구 궁동","country":"서울","kind":"짜장면","emoji":"🍜","status":"open","note":"짜장면, 중국집","rating":0,"reviews":0,"visits":[],"shows":["MT"],"primaryShow":"MT"}},{"type":"Feature","geometry":{"type":"Point","coordinates":[126.8973735,37.5267036]},"properties":{"id":"kr-mokeultende-t2fEv1wCRKNh","name":"은성감자탕","city":"영등포구 당산동3가","country":"서울","kind":"감자탕","emoji":"🍲","status":"open","note":"감자탕, 우거지","rating":4.2,"reviews":30,"visits":[],"shows":["MT"],"primaryShow":"MT"}},{"type":"Feature","geometry":{"type":"Point","coordinates":[126.9385332,37.5206303]},"properties":{"id":"kr-mokeultende-mryX0DmFPgDy","name":"본가 성심집","city":"영등포구 여의도동","country":"서울","kind":"순대국","emoji":"🍲","status":"open","note":"순대국, 곱창전골","rating":0,"reviews":0,"visits":[],"shows":["MT"],"primaryShow":"MT"}},{"type":"Feature","geometry":{"type":"Point","coordinates":[126.9628587,37.5072375]},"properties":{"id":"kr-mokeultende-h0YFWaovEWpO","name":"진미순대","city":"동작구 흑석동","country":"서울","kind":"순대국","emoji":"🍲","status":"open","note":"순대국","rating":3.4,"reviews":4,"visits":[{"show":"MT","title":"흑석시장 진미순대","year":2024,"video":"https://www.youtube.com/watch?v=3LSQH7ULyaE","label":"127화"}],"shows":["MT"],"primaryShow":"MT","image":"https://img.youtube.com/vi/3LSQH7ULyaE/hqdefault.jpg"}},{"type":"Feature","geometry":{"type":"Point","coordinates":[126.928777,37.4833092]},"properties":{"id":"kr-mokeultende-8cxQvYLT7MZP","name":"시네마 전라도집","city":"관악구 신림동","country":"서울","kind":"순대볶음","emoji":"🍢","status":"open","note":"순대볶음, 백순대","rating":4.2,"reviews":26,"visits":[{"show":"MT","title":"신림동 전라도시네마","year":2024,"video":"https://www.youtube.com/watch?v=qbqquv_8wM0","label":"154화"}],"shows":["MT"],"primaryShow":"MT","image":"https://img.youtube.com/vi/qbqquv_8wM0/hqdefault.jpg"}},{"type":"Feature","geometry":{"type":"Point","coordinates":[126.9288439,37.4886551]},"properties":{"id":"kr-mokeultende-cXViGG2yBGfT","name":"신림정","city":"관악구 신림동","country":"서울","kind":"한우","emoji":"🥩","status":"open","note":"한우, 생고기","rating":5,"reviews":1,"visits":[{"show":"MT","title":"신림정 1탄 (with.신동엽)","year":2022,"video":"https://www.youtube.com/watch?v=yTNgSj_0zIM","label":"46화"},{"show":"MT","title":"신림정 2탄 (with.신동엽)","year":2022,"video":"https://www.youtube.com/watch?v=0Ml02Bgo8VQ","label":"47화"},{"show":"MT","title":"신림정 3탄 (with.신동엽)","year":2022,"video":"https://www.youtube.com/watch?v=8sseq7MuLjY","label":"48화"}],"shows":["MT"],"primaryShow":"MT","image":"https://img.youtube.com/vi/8sseq7MuLjY/hqdefault.jpg"}},{"type":"Feature","geometry":{"type":"Point","coordinates":[126.928777,37.4833092]},"properties":{"id":"kr-mokeultende-Rl2Oz5nokpiz","name":"호남집영미네","city":"관악구 신림동","country":"서울","kind":"순대볶음","emoji":"🍢","status":"open","note":"순대볶음, 백순대","rating":4,"reviews":1,"visits":[],"shows":["MT"],"primaryShow":"MT"}},{"type":"Feature","geometry":{"type":"Point","coordinates":[126.9298282,37.486829]},"properties":{"id":"kr-mokeultende-dEqMVUfToEpw","name":"규씨뭉티기 신림본점","city":"관악구 신림동","country":"서울","kind":"뭉티기","emoji":"🥩","status":"open","note":"뭉티기, 육회","rating":4.5,"reviews":1,"visits":[],"shows":["MT"],"primaryShow":"MT"}},{"type":"Feature","geometry":{"type":"Point","coordinates":[126.9290551,37.483295]},"properties":{"id":"kr-mokeultende-oNfjvof1wdVZ","name":"장가계 목포","city":"관악구 신림동","country":"서울","kind":"순대볶음","emoji":"🐟","status":"open","note":"순대볶음, 오징어볶음","rating":4.5,"reviews":2,"visits":[],"shows":["MT"],"primaryShow":"MT"}},{"type":"Feature","geometry":{"type":"Point","coordinates":[127.0256891,37.501217]},"properties":{"id":"kr-mokeultende-PNjW19Kgnn0j","name":"파이브가이즈 강남","city":"서초구 서초동","country":"서울","kind":"버거","emoji":"🍔","status":"open","note":"버거","rating":4.1,"reviews":103,"visits":[{"show":"MT","title":"강남 파이브가이즈","year":2023,"video":"https://www.youtube.com/watch?v=ofqOn5PUqbs","label":"114화"}],"shows":["MT"],"primaryShow":"MT"}},{"type":"Feature","geometry":{"type":"Point","coordinates":[127.0444392,37.4772111]},"properties":{"id":"kr-mokeultende-SZOHCY6RZTMd","name":"성천동치미막국수","city":"서초구 양재동","country":"서울","kind":"막국수","emoji":"🍜","status":"open","note":"막국수, 이북식찜닭","rating":4.8,"reviews":4,"visits":[],"shows":["MT"],"primaryShow":"MT"}},{"type":"Feature","geometry":{"type":"Point","coordinates":[127.0005306,37.5045404]},"properties":{"id":"kr-mokeultende-r2mIcWjUnjhS","name":"삼계탕마을 래미안퍼스티지점","city":"서초구 반포동","country":"서울","kind":"삼계탕","emoji":"🍗","status":"open","note":"삼계탕, 닭볶음탕","rating":0,"reviews":0,"visits":[{"show":"MT","title":"반포동 삼계탕마을","year":2024,"video":"https://www.youtube.com/watch?v=AcShBsKZW8w","label":"148화"}],"shows":["MT"],"primaryShow":"MT","image":"https://img.youtube.com/vi/AcShBsKZW8w/hqdefault.jpg"}},{"type":"Feature","geometry":{"type":"Point","coordinates":[127.0173691,37.5161677]},"properties":{"id":"kr-mokeultende-bYn5dynEfzx9","name":"영동설렁탕","city":"서초구 잠원동","country":"서울","kind":"설렁탕","emoji":"🍲","status":"open","note":"설렁탕, 수육","rating":4.1,"reviews":40,"visits":[{"show":"MT","title":"신사 영동 설렁탕","year":2022,"video":"https://www.youtube.com/watch?v=fR2z8JyBb44","label":"21화"}],"shows":["MT"],"primaryShow":"MT","image":"https://img.youtube.com/vi/fR2z8JyBb44/hqdefault.jpg"}},{"type":"Feature","geometry":{"type":"Point","coordinates":[127.002008,37.498513]},"properties":{"id":"kr-mokeultende-Ik65JAzFWrQV","name":"토박이","city":"서초구 반포동","country":"서울","kind":"집밥","emoji":"🥟","status":"open","note":"집밥, 만두전골","rating":4.7,"reviews":7,"visits":[],"shows":["MT"],"primaryShow":"MT"}},{"type":"Feature","geometry":{"type":"Point","coordinates":[126.9984879,37.4984061]},"properties":{"id":"kr-mokeultende-O7HcdW2IsIet","name":"삼계탕마을 서래마을점","city":"서초구 반포동","country":"서울","kind":"삼계탕","emoji":"🍗","status":"open","note":"삼계탕, 인삼주","rating":0,"reviews":0,"visits":[{"show":"MT","title":"반포동 삼계탕마을","year":2024,"video":"https://www.youtube.com/watch?v=AcShBsKZW8w","label":"148화"}],"shows":["MT"],"primaryShow":"MT"}},{"type":"Feature","geometry":{"type":"Point","coordinates":[127.0210137,37.5108132]},"properties":{"id":"kr-mokeultende-LerhdjylYrYC","name":"하이콴","city":"서초구 반포동","country":"서울","kind":"쌀국수","emoji":"🍜","status":"open","note":"쌀국수, 곱창쌀국수","rating":4.1,"reviews":23,"visits":[{"show":"MT","title":"논현역 하이콴","year":2025,"video":"https://www.youtube.com/watch?v=pY1kORvBEYs","label":"164화"}],"shows":["MT"],"primaryShow":"MT","image":"https://img.youtube.com/vi/pY1kORvBEYs/hqdefault.jpg"}},{"type":"Feature","geometry":{"type":"Point","coordinates":[127.03027,37.526399]},"properties":{"id":"kr-mokeultende-cc9HqarHAEw4","name":"가담","city":"강남구 신사동","country":"서울","kind":"중식","emoji":"🍽️","status":"open","note":"중식, 고추탕수육","rating":4,"reviews":23,"visits":[{"show":"MT","title":"신사동 가담","year":2024,"video":"https://www.youtube.com/watch?v=Pdq4VoNf7tI","label":"133화"}],"shows":["MT"],"primaryShow":"MT","image":"https://img.youtube.com/vi/Pdq4VoNf7tI/hqdefault.jpg"}},{"type":"Feature","geometry":{"type":"Point","coordinates":[127.0492152,37.5254274]},"properties":{"id":"kr-mokeultende-UblDh7TaYaJS","name":"첼시스하이볼","city":"강남구 청담동","country":"서울","kind":"하이볼","emoji":"🍶","status":"open","note":"하이볼, 술집","rating":4.7,"reviews":7,"visits":[{"show":"MT","title":"청담동 첼시스하이볼","year":2022,"video":"https://www.youtube.com/watch?v=XJywuH-AAf8","label":"68화"}],"shows":["MT"],"primaryShow":"MT","image":"https://img.youtube.com/vi/XJywuH-AAf8/hqdefault.jpg"}},{"type":"Feature","geometry":{"type":"Point","coordinates":[127.0322707,37.5228022]},"properties":{"id":"kr-mokeultende-OjzZEUVGh53u","name":"미남옥","city":"강남구 신사동","country":"서울","kind":"곰탕","emoji":"🍲","status":"open","note":"곰탕, 수육","rating":3.5,"reviews":5,"visits":[{"show":"MT","title":"신사동 미남옥","year":2023,"video":"https://www.youtube.com/watch?v=z5nqim1xRyE","label":"92화"}],"shows":["MT"],"primaryShow":"MT","image":"https://img.youtube.com/vi/z5nqim1xRyE/hqdefault.jpg"}},{"type":"Feature","geometry":{"type":"Point","coordinates":[127.0322571,37.5072798]},"properties":{"id":"kr-mokeultende-xQBMOE0PkRF0","name":"육개옥","city":"강남구 논현동","country":"서울","kind":"육개장","emoji":"🍲","status":"open","note":"육개장, 동그랑땡","rating":4.3,"reviews":15,"visits":[{"show":"MT","title":"문천식과 육개장","year":2022,"video":"https://www.youtube.com/watch?v=aliPr4O2T5s","label":"11화"}],"shows":["MT"],"primaryShow":"MT","image":"https://img.youtube.com/vi/aliPr4O2T5s/hqdefault.jpg"}},{"type":"Feature","geometry":{"type":"Point","coordinates":[127.0487843,37.5231581]},"properties":{"id":"kr-mokeultende-ium8IR0wVw72","name":"부흥왕족발","city":"강남구 청담동","country":"서울","kind":"족발","emoji":"🍜","status":"open","note":"족발, 쟁반국수","rating":4,"reviews":1,"visits":[{"show":"MT","title":"청담동 부흥왕족발","year":2022,"video":"https://www.youtube.com/watch?v=lO1qFusLkTQ","label":"49화"}],"shows":["MT"],"primaryShow":"MT"}},{"type":"Feature","geometry":{"type":"Point","coordinates":[127.0391989,37.5272685]},"properties":{"id":"kr-mokeultende-DYRJHk6m8HJp","name":"와일드버팔로","city":"강남구 신사동","country":"서울","kind":"맥주","emoji":"🍺","status":"open","note":"맥주, 버팔로윙","rating":4.3,"reviews":3,"visits":[{"show":"MT","title":"압구정로데오 와일드버팔로 1탄 (with.신동엽)","year":2023,"video":"https://www.youtube.com/watch?v=yz_PDMZQqF8","label":"102화"},{"show":"MT","title":"압구정로데오 와일드버팔로 2탄 (with.신동엽)","year":2023,"video":"https://www.youtube.com/watch?v=wJL-V0MCgJ8","label":"103화"}],"shows":["MT"],"primaryShow":"MT","image":"https://img.youtube.com/vi/wJL-V0MCgJ8/hqdefault.jpg"}},{"type":"Feature","geometry":{"type":"Point","coordinates":[127.0355282,37.520425]},"properties":{"id":"kr-mokeultende-84i7shf6Mw6S","name":"한성칼국수 논현점","city":"강남구 논현동","country":"서울","kind":"칼국수","emoji":"🍜","status":"open","note":"칼국수, 수육","rating":4,"reviews":32,"visits":[],"shows":["MT"],"primaryShow":"MT"}},{"type":"Feature","geometry":{"type":"Point","coordinates":[127.0377153,37.5268676]},"properties":{"id":"kr-mokeultende-9I6HU19bjjT4","name":"딸랏","city":"강남구 신사동","country":"서울","kind":"태국음식","emoji":"🍽️","status":"open","note":"태국음식","rating":4.3,"reviews":12,"visits":[{"show":"MT","title":"압구정로데오 딸랏","year":2023,"video":"https://www.youtube.com/watch?v=rTHlGX3-obY","label":"100화"}],"shows":["MT"],"primaryShow":"MT","image":"https://img.youtube.com/vi/rTHlGX3-obY/hqdefault.jpg"}},{"type":"Feature","geometry":{"type":"Point","coordinates":[127.0654242,37.5126544]},"properties":{"id":"kr-mokeultende-EXIclXorRrhY","name":"도명골 청국장","city":"강남구 삼성동","country":"서울","kind":"청국장","emoji":"🍚","status":"open","note":"청국장, 백반","rating":4.8,"reviews":10,"visits":[{"show":"MT","title":"삼성동 도명골 청국장","year":2022,"video":"https://www.youtube.com/watch?v=LXKubqppj0U","label":"63화"}],"shows":["MT"],"primaryShow":"MT","image":"https://img.youtube.com/vi/LXKubqppj0U/hqdefault.jpg"}},{"type":"Feature","geometry":{"type":"Point","coordinates":[127.0309159,37.5279515]},"properties":{"id":"kr-mokeultende-a9vPqpHf2l07","name":"신미식당","city":"강남구 신사동","country":"서울","kind":"삼겹살","emoji":"🍲","status":"open","note":"삼겹살, 감자탕","rating":4,"reviews":9,"visits":[{"show":"MT","title":"신미식당 감자탕","year":2022,"video":"https://www.youtube.com/watch?v=a4IFiQUf3D4","label":"5화"}],"shows":["MT"],"primaryShow":"MT"}},{"type":"Feature","geometry":{"type":"Point","coordinates":[127.0292442,37.4995538]},"properties":{"id":"kr-mokeultende-5mx0QDPxRS5r","name":"강남 진해장","city":"강남구 역삼동","country":"서울","kind":"해장국","emoji":"🍲","status":"open","note":"해장국, 곱창전골","rating":4.1,"reviews":34,"visits":[{"show":"MT","title":"역삼동 강남 진해장","year":2022,"video":"https://www.youtube.com/watch?v=u4Ci7OW5ES0","label":"56화"}],"shows":["MT"],"primaryShow":"MT"}},{"type":"Feature","geometry":{"type":"Point","coordinates":[127.0462555,37.5266339]},"properties":{"id":"kr-mokeultende-rMcuN0OB9Qky","name":"잔비워","city":"강남구 청담동","country":"서울","kind":"치킨","emoji":"🍗","status":"open","note":"치킨, 후라이드치킨","rating":4,"reviews":1,"visits":[{"show":"MT","title":"청담동 잔비워, 이남장 삼성점 (with.크리스탈 케이)","year":2024,"video":"https://www.youtube.com/watch?v=UFN682fRiWQ","label":"134화"}],"shows":["MT"],"primaryShow":"MT"}},{"type":"Feature","geometry":{"type":"Point","coordinates":[127.0273024,37.5241578]},"properties":{"id":"kr-mokeultende-bb3kvLfn4iQb","name":"무교동유정낙지 압구정점","city":"강남구 신사동","country":"서울","kind":"낙지볶음","emoji":"🐟","status":"open","note":"낙지볶음","rating":4.1,"reviews":2,"visits":[{"show":"MT","title":"압구정역 무교동유정낙지","year":2025,"video":"https://www.youtube.com/watch?v=2WheSTDmpwQ","label":"203화"}],"shows":["MT"],"primaryShow":"MT"}},{"type":"Feature","geometry":{"type":"Point","coordinates":[127.0305996,37.4969283]},"properties":{"id":"kr-mokeultende-88gBF37iwHqN","name":"다미","city":"강남구 역삼동","country":"서울","kind":"쭈꾸미","emoji":"🐟","status":"open","note":"쭈꾸미, 불낙","rating":3.9,"reviews":9,"visits":[],"shows":["MT"],"primaryShow":"MT"}},{"type":"Feature","geometry":{"type":"Point","coordinates":[127.029384,37.526603]},"properties":{"id":"kr-mokeultende-ObWVteqXrbac","name":"안동국시","city":"강남구 신사동","country":"서울","kind":"안동국시","emoji":"🍜","status":"open","note":"안동국시, 국수","rating":4.3,"reviews":7,"visits":[{"show":"MT","title":"첫 게스트와 안동국시 (GUEST.유세윤)","year":2022,"video":"https://www.youtube.com/watch?v=AHPEiQSyezo","label":"8화"}],"shows":["MT"],"primaryShow":"MT"}},{"type":"Feature","geometry":{"type":"Point","coordinates":[127.0404261,37.5250487]},"properties":{"id":"kr-mokeultende-hjzVBu53hn8W","name":"우정","city":"강남구 청담동","country":"서울","kind":"곱창전골","emoji":"🍲","status":"open","note":"곱창전골, 한우곱창전골","rating":4.7,"reviews":6,"visits":[{"show":"MT","title":"등골과 우개장","year":2022,"video":"https://www.youtube.com/watch?v=vzq1jF3sRtY","label":"13화"}],"shows":["MT"],"primaryShow":"MT","image":"https://img.youtube.com/vi/vzq1jF3sRtY/hqdefault.jpg"}},{"type":"Feature","geometry":{"type":"Point","coordinates":[127.0284792,37.5222379]},"properties":{"id":"kr-mokeultende-OmYSi39RhdjA","name":"함흥면옥","city":"강남구 신사동","country":"서울","kind":"냉면","emoji":"🍜","status":"open","note":"냉면, 함흥냉면","rating":4.2,"reviews":8,"visits":[{"show":"MT","title":"압구정 함흥면옥","year":2023,"video":"https://www.youtube.com/watch?v=KD_5o8xsn_c","label":"80화"}],"shows":["MT"],"primaryShow":"MT"}},{"type":"Feature","geometry":{"type":"Point","coordinates":[127.0196161,37.5192808]},"properties":{"id":"kr-mokeultende-B6dWBfg74c60","name":"송쉐프","city":"강남구 신사동","country":"서울","kind":"중식","emoji":"🍽️","status":"open","note":"중식","rating":3.9,"reviews":16,"visits":[],"shows":["MT"],"primaryShow":"MT"}},{"type":"Feature","geometry":{"type":"Point","coordinates":[127.0352931,37.5203909]},"properties":{"id":"kr-mokeultende-2QzT6yhHfQdU","name":"영동장어","city":"강남구 논현동","country":"서울","kind":"장어","emoji":"🐟","status":"open","note":"장어, 갯벌장어","rating":4.7,"reviews":10,"visits":[{"show":"MT","title":"논현동 영동장어","year":2023,"video":"https://www.youtube.com/watch?v=B5rp9kCcqmw","label":"70화"}],"shows":["MT"],"primaryShow":"MT"}},{"type":"Feature","geometry":{"type":"Point","coordinates":[127.0405771,37.5246312]},"properties":{"id":"kr-mokeultende-8WrLdxQ1Paym","name":"스시스미레","city":"강남구 청담동","country":"서울","kind":"스시","emoji":"🍣","status":"open","note":"스시, 오마카세","rating":5,"reviews":5,"visits":[{"show":"MT","title":"청담동 스시스미레","year":2022,"video":"https://www.youtube.com/watch?v=6vxReM3m_Tg","label":"35화"}],"shows":["MT"],"primaryShow":"MT","image":"https://img.youtube.com/vi/6vxReM3m_Tg/hqdefault.jpg"}},{"type":"Feature","geometry":{"type":"Point","coordinates":[127.0238562,37.5095082]},"properties":{"id":"kr-mokeultende-y6zAtSdALO0o","name":"예삐네집","city":"강남구 논현동","country":"서울","kind":"국밥","emoji":"🍲","status":"unknown","note":"국밥, 소머리수육","rating":0,"reviews":0,"visits":[],"shows":["MT"],"primaryShow":"MT"}},{"type":"Feature","geometry":{"type":"Point","coordinates":[127.0230251,37.5172609]},"properties":{"id":"kr-mokeultende-iGdOlKB19vcj","name":"왕스덕","city":"강남구 논현동","country":"서울","kind":"베이징덕","emoji":"🍽️","status":"open","note":"베이징덕","rating":4,"reviews":9,"visits":[{"show":"MT","title":"논현동 왕스덕","year":2022,"video":"https://www.youtube.com/watch?v=-e6zzDqCS6E","label":"66화"}],"shows":["MT"],"primaryShow":"MT","image":"https://img.youtube.com/vi/-e6zzDqCS6E/hqdefault.jpg"}},{"type":"Feature","geometry":{"type":"Point","coordinates":[127.0664569,37.5077019]},"properties":{"id":"kr-mokeultende-CHhh6OKeK05E","name":"해봉정육","city":"강남구 대치동","country":"서울","kind":"한우","emoji":"🥩","status":"open","note":"한우, 소고기","rating":4.2,"reviews":6,"visits":[{"show":"MT","title":"삼성역 해봉정육 본점 (with John K)","year":2024,"video":"https://www.youtube.com/watch?v=llHQEbY28a4","label":"160화"}],"shows":["MT"],"primaryShow":"MT","image":"https://img.youtube.com/vi/llHQEbY28a4/hqdefault.jpg"}},{"type":"Feature","geometry":{"type":"Point","coordinates":[127.0232728,37.521243]},"properties":{"id":"kr-mokeultende-wirNF15Mg2Z0","name":"첼시스하이볼 가로수길","city":"강남구 신사동","country":"서울","kind":"하이볼","emoji":"🍽️","status":"open","note":"하이볼, bar","rating":0,"reviews":0,"visits":[{"show":"MT","title":"청담동 첼시스하이볼","year":2022,"video":"https://www.youtube.com/watch?v=XJywuH-AAf8","label":"68화"}],"shows":["MT"],"primaryShow":"MT"}},{"type":"Feature","geometry":{"type":"Point","coordinates":[127.1186564,37.4947051]},"properties":{"id":"kr-mokeultende-j8AoVnXQbrC5","name":"광주서울곱창","city":"송파구 가락동","country":"서울","kind":"곱창","emoji":"🥩","status":"open","note":"곱창","rating":3.6,"reviews":7,"visits":[],"shows":["MT"],"primaryShow":"MT"}},{"type":"Feature","geometry":{"type":"Point","coordinates":[127.0857265,37.5052223]},"properties":{"id":"kr-mokeultende-Viz64dmpuexv","name":"돈푸짐감자탕","city":"송파구 잠실동","country":"서울","kind":"뼈해장국","emoji":"🍲","status":"open","note":"뼈해장국, 감자탕","rating":4.2,"reviews":5,"visits":[{"show":"MT","title":"삼전역 돈푸짐감자탕","year":2025,"video":"https://www.youtube.com/watch?v=P8e2gPK5zZY","label":"194화"}],"shows":["MT"],"primaryShow":"MT","image":"https://img.youtube.com/vi/P8e2gPK5zZY/hqdefault.jpg"}},{"type":"Feature","geometry":{"type":"Point","coordinates":[127.1119875,37.5027417]},"properties":{"id":"kr-mokeultende-AiG91PmBiAR2","name":"송파감자탕","city":"송파구 송파동","country":"서울","kind":"감자탕","emoji":"🍚","status":"unknown","note":"감자탕, 콩나물","rating":0,"reviews":0,"visits":[],"shows":["MT"],"primaryShow":"MT"}},{"type":"Feature","geometry":{"type":"Point","coordinates":[127.1426773,37.551278]},"properties":{"id":"kr-mokeultende-xBOL1Cthz9mL","name":"이남장 명일역점","city":"강동구 명일동","country":"서울","kind":"곰탕","emoji":"🍲","status":"open","note":"곰탕, 설렁탕","rating":0,"reviews":0,"visits":[{"show":"MT","title":"삼성동 이남장","year":2022,"video":"https://www.youtube.com/watch?v=YJpv-lwKPNg","label":"50화"},{"show":"MT","title":"청담동 잔비워, 이남장 삼성점 (with.크리스탈 케이)","year":2024,"video":"https://www.youtube.com/watch?v=UFN682fRiWQ","label":"134화"}],"shows":["MT"],"primaryShow":"MT"}},{"type":"Feature","geometry":{"type":"Point","coordinates":[127.1705782,37.546408]},"properties":{"id":"kr-mokeultende-epO1Q7clfyOl","name":"옛날손칼국수","city":"강동구 상일동","country":"서울","kind":"칼국수","emoji":"🍜","status":"unknown","note":"칼국수, 들깨수제비","rating":0,"reviews":0,"visits":[],"shows":["MT"],"primaryShow":"MT"}},{"type":"Feature","geometry":{"type":"Point","coordinates":[129.0374031,35.1061924]},"properties":{"id":"kr-mokeultende-CXMlDbjGvCRP","name":"만리향","city":"중구 중앙동4가","country":"부산","kind":"짜장면","emoji":"🍜","status":"open","note":"짜장면, 중국집","rating":5,"reviews":1,"visits":[{"show":"MT","title":"부산 중앙역 만리향","year":2026,"video":"https://www.youtube.com/watch?v=Wj_7fiFawMQ","label":"227화"}],"shows":["MT"],"primaryShow":"MT"}},{"type":"Feature","geometry":{"type":"Point","coordinates":[129.1179297,35.1660606]},"properties":{"id":"kr-mokeultende-1SzmFfRuWOYw","name":"금손1983","city":"수영구 광안동","country":"부산","kind":"오마카세","emoji":"🍣","status":"open","note":"오마카세, 야키토리","rating":4.4,"reviews":7,"visits":[{"show":"MT","title":"부산 금손1983 (with.이대호)","year":2025,"video":"https://www.youtube.com/watch?v=dBjCfY2fKQc","label":"182화"}],"shows":["MT"],"primaryShow":"MT"}},{"type":"Feature","geometry":{"type":"Point","coordinates":[129.1141348,35.148845]},"properties":{"id":"kr-mokeultende-KDCsluSx1HtH","name":"진미언양불고기","city":"수영구 광안동","country":"부산","kind":"언양불고기","emoji":"🥩","status":"open","note":"언양불고기","rating":3.5,"reviews":7,"visits":[{"show":"MT","title":"부산 진미 언양불고기","year":2022,"video":"https://www.youtube.com/watch?v=MvX_vWtm8P0","label":"45화"}],"shows":["MT"],"primaryShow":"MT","image":"https://img.youtube.com/vi/MvX_vWtm8P0/hqdefault.jpg"}},{"type":"Feature","geometry":{"type":"Point","coordinates":[129.0758119,35.17744]},"properties":{"id":"kr-mokeultende-OPi6BoZca9qt","name":"나진국밥 부산시청점","city":"연제구 연산동","country":"부산","kind":"국밥","emoji":"🍲","status":"open","note":"국밥, 수육","rating":4,"reviews":3,"visits":[{"show":"MT","title":"여수 나진국밥","year":2022,"video":"https://www.youtube.com/watch?v=9M30E6sf90g","label":"40화"}],"shows":["MT"],"primaryShow":"MT"}},{"type":"Feature","geometry":{"type":"Point","coordinates":[129.0657806,35.1465635]},