{"type":"FeatureCollection","features":[{"type":"Feature","geometry":{"type":"Point","coordinates":[-5.885,42.2531]},"properties":{"id":"wbs-1","name":"La Cúpula de El Capricho","city":"Jiménez de Jamuz","country":"Spain","emoji":"🥩","kind":"steakhouse","rank":1,"award":"World's Best Steaks #1","sourceUrl":"https://www.worldbeststeaks.com/2026-list-1-101/la-cúpula","shows":["Y2026"],"primaryShow":"Y2026","profileId":"Y2026","visits":[]}},{"type":"Feature","geometry":{"type":"Point","coordinates":[151.241543,-33.876866]},"properties":{"id":"wbs-2","name":"Margaret","city":"Sydney","country":"Australia","emoji":"🥩","kind":"steakhouse","rank":2,"award":"World's Best Steaks #2","sourceUrl":"https://www.worldbeststeaks.com/2026-list-1-101/margaret","shows":["Y2026"],"primaryShow":"Y2026","profileId":"Y2026","visits":[]}},{"type":"Feature","geometry":{"type":"Point","coordinates":[-1.804578,43.357862]},"properties":{"id":"wbs-3","name":"Laia Erretegia","city":"Hondarribia","country":"Spain","emoji":"🥩","kind":"steakhouse","rank":3,"award":"World's Best Steaks #3","sourceUrl":"https://www.worldbeststeaks.com/2026-list-1-101/laia","shows":["Y2026"],"primaryShow":"Y2026","profileId":"Y2026","visits":[]}},{"type":"Feature","geometry":{"type":"Point","coordinates":[11.504989,42.665224]},"properties":{"id":"wbs-4","name":"I Due Cippi","city":"Saturnia","country":"Italy","emoji":"🥩","kind":"steakhouse","rank":4,"award":"World's Best Steaks #4","sourceUrl":"https://www.worldbeststeaks.com/2026-list-1-101/i-due-cippi","shows":["Y2026"],"primaryShow":"Y2026","profileId":"Y2026","visits":[]}},{"type":"Feature","geometry":{"type":"Point","coordinates":[-3.699203,40.441287]},"properties":{"id":"wbs-5","name":"Lana","city":"Madrid","country":"Spain","emoji":"🥩","kind":"steakhouse","rank":5,"award":"World's Best Steaks #5","sourceUrl":"https://www.worldbeststeaks.com/2026-list-1-101/lana","shows":["Y2026"],"primaryShow":"Y2026","profileId":"Y2026","visits":[]}},{"type":"Feature","geometry":{"type":"Point","coordinates":[-2.07239,43.135263]},"properties":{"id":"wbs-6","name":"Casa Julián de Tolosa","city":"Tolosa","country":"Spain","emoji":"🥩","kind":"steakhouse","rank":6,"award":"World's Best Steaks #6","sourceUrl":"https://www.worldbeststeaks.com/2026-list-1-101/casa-julian","shows":["Y2026"],"primaryShow":"Y2026","profileId":"Y2026","visits":[]}},{"type":"Feature","geometry":{"type":"Point","coordinates":[-0.127765,51.507446]},"properties":{"id":"wbs-7","name":"Ibai","city":"London","country":"United Kingdom","emoji":"🥩","kind":"steakhouse","rank":7,"award":"World's Best Steaks #7","sourceUrl":"https://www.worldbeststeaks.com/2026-list-1-101/ibai","shows":["Y2026"],"primaryShow":"Y2026","profileId":"Y2026","visits":[]}},{"type":"Feature","geometry":{"type":"Point","coordinates":[18.071093,59.325117]},"properties":{"id":"wbs-8","name":"Ag","city":"Stockholm","country":"Sweden","emoji":"🥩","kind":"steakhouse","rank":8,"award":"World's Best Steaks #8","sourceUrl":"https://www.worldbeststeaks.com/2026-list-1-101/ag","shows":["Y2026"],"primaryShow":"Y2026","profileId":"Y2026","visits":[]}},{"type":"Feature","geometry":{"type":"Point","coordinates":[103.809125,1.304404]},"properties":{"id":"wbs-9","name":"Burnt Ends","city":"Singapore","country":"Singapore","emoji":"🥩","kind":"steakhouse","rank":9,"award":"World's Best Steaks #9","sourceUrl":"https://www.worldbeststeaks.com/2026-list-1-101/burnt-ends","shows":["Y2026"],"primaryShow":"Y2026","profileId":"Y2026","visits":[]}},{"type":"Feature","geometry":{"type":"Point","coordinates":[-5.885,42.2531]},"properties":{"id":"wbs-10","name":"Bodega El Capricho","city":"Jiménez de Jamuz","country":"Spain","emoji":"🥩","kind":"steakhouse","rank":10,"award":"World's Best Steaks #10","sourceUrl":"https://www.worldbeststeaks.com/2026-list-1-101/el-capricho","shows":["Y2026"],"primaryShow":"Y2026","profileId":"Y2026","visits":[]}},{"type":"Feature","geometry":{"type":"Point","coordinates":[151.208285,-33.869844]},"properties":{"id":"wbs-11","name":"Firedoor","city":"Sydney","country":"Australia","emoji":"🥩","kind":"steakhouse","rank":11,"award":"World's Best Steaks #11","sourceUrl":"https://www.worldbeststeaks.com/2026-list-1-101/firedoor","shows":["Y2026"],"primaryShow":"Y2026","profileId":"Y2026","visits":[]}},{"type":"Feature","geometry":{"type":"Point","coordinates":[-74.006015,40.712728]},"properties":{"id":"wbs-12","name":"The Eighty Six","city":"New York","country":"United States","emoji":"🥩","kind":"steakhouse","rank":12,"award":"World's Best Steaks #12","sourceUrl":"https://www.worldbeststeaks.com/2026-list-1-101/the-eighty-six","shows":["Y2026"],"primaryShow":"Y2026","profileId":"Y2026","visits":[]}},{"type":"Feature","geometry":{"type":"Point","coordinates":[-0.014979,51.503196]},"properties":{"id":"wbs-13","name":"Hawksmoor St. Pancras","city":"London","country":"United Kingdom","emoji":"🥩","kind":"steakhouse","rank":13,"award":"World's Best Steaks #13","sourceUrl":"https://www.worldbeststeaks.com/2026-list-1-101/hawksmoor","shows":["Y2026"],"primaryShow":"Y2026","profileId":"Y2026","visits":[]}},{"type":"Feature","geometry":{"type":"Point","coordinates":[151.208285,-33.869844]},"properties":{"id":"wbs-14","name":"Aalia","city":"Sydney","country":"Australia","emoji":"🥩","kind":"steakhouse","rank":14,"award":"World's Best Steaks #14","sourceUrl":"https://www.worldbeststeaks.com/2026-list-1-101/aalia","shows":["Y2026"],"primaryShow":"Y2026","profileId":"Y2026","visits":[]}},{"type":"Feature","geometry":{"type":"Point","coordinates":[-87.624421,41.875562]},"properties":{"id":"wbs-15","name":"Asador Bastian","city":"Chicago","country":"United States","emoji":"🥩","kind":"steakhouse","rank":15,"award":"World's Best Steaks #15","sourceUrl":"https://www.worldbeststeaks.com/2026-list-1-101/asador-bastian","shows":["Y2026"],"primaryShow":"Y2026","profileId":"Y2026","visits":[]}},{"type":"Feature","geometry":{"type":"Point","coordinates":[138.599931,-34.928181]},"properties":{"id":"wbs-16","name":"Arkhé Bar & Dining","city":"Adelaide","country":"Australia","emoji":"🥩","kind":"steakhouse","rank":16,"award":"World's Best Steaks #16","sourceUrl":"https://www.worldbeststeaks.com/2026-list-1-101/arkhé","shows":["Y2026"],"primaryShow":"Y2026","profileId":"Y2026","visits":[]}},{"type":"Feature","geometry":{"type":"Point","coordinates":[-0.076691,51.524266]},"properties":{"id":"wbs-17","name":"Brat","city":"London","country":"United Kingdom","emoji":"🥩","kind":"steakhouse","rank":17,"award":"World's Best Steaks #17","sourceUrl":"https://www.worldbeststeaks.com/2026-list-1-101/brat","shows":["Y2026"],"primaryShow":"Y2026","profileId":"Y2026","visits":[]}},{"type":"Feature","geometry":{"type":"Point","coordinates":[114.185798,22.349215]},"properties":{"id":"wbs-18","name":"Fireside","city":"Hong Kong","country":"China","emoji":"🥩","kind":"steakhouse","rank":18,"award":"World's Best Steaks #18","sourceUrl":"https://www.worldbeststeaks.com/2026-list-1-101/fireside","shows":["Y2026"],"primaryShow":"Y2026","profileId":"Y2026","visits":[]}},{"type":"Feature","geometry":{"type":"Point","coordinates":[3.714831,51.054513]},"properties":{"id":"wbs-19","name":"Gillis","city":"Gent","country":"Belgium","emoji":"🥩","kind":"steakhouse","rank":19,"award":"World's Best Steaks #19","sourceUrl":"https://www.worldbeststeaks.com/2026-list-1-101/gillis","shows":["Y2026"],"primaryShow":"Y2026","profileId":"Y2026","visits":[]}},{"type":"Feature","geometry":{"type":"Point","coordinates":[153.030827,-27.458026]},"properties":{"id":"wbs-20","name":"Agnes","city":"Brisbane","country":"Australia","emoji":"🥩","kind":"steakhouse","rank":20,"award":"World's Best Steaks #20","sourceUrl":"https://www.worldbeststeaks.com/2026-list-1-101/agnes","shows":["Y2026"],"primaryShow":"Y2026","profileId":"Y2026","visits":[]}},{"type":"Feature","geometry":{"type":"Point","coordinates":[-73.991433,40.741035]},"properties":{"id":"wbs-21","name":"Cote","city":"New York","country":"United States","emoji":"🥩","kind":"steakhouse","rank":21,"award":"World's Best Steaks #21","sourceUrl":"https://www.worldbeststeaks.com/2026-list-1-101/cote","shows":["Y2026"],"primaryShow":"Y2026","profileId":"Y2026","visits":[]}},{"type":"Feature","geometry":{"type":"Point","coordinates":[-58.38879,-34.609558]},"properties":{"id":"wbs-22","name":"Fogón","city":"Buenos Aires","country":"Argentina","emoji":"🥩","kind":"steakhouse","rank":22,"award":"World's Best Steaks #22","sourceUrl":"https://www.worldbeststeaks.com/2026-list-1-101/fogón","shows":["Y2026"],"primaryShow":"Y2026","profileId":"Y2026","visits":[]}},{"type":"Feature","geometry":{"type":"Point","coordinates":[2.611236,51.109942]},"properties":{"id":"wbs-23","name":"Carcasse","city":"Koksijde","country":"Belgium","emoji":"🥩","kind":"steakhouse","rank":23,"award":"World's Best Steaks #23","sourceUrl":"https://www.worldbeststeaks.com/2026-list-1-101/carcasse","shows":["Y2026"],"primaryShow":"Y2026","profileId":"Y2026","visits":[]}},{"type":"Feature","geometry":{"type":"Point","coordinates":[-78.512327,-0.220164]},"properties":{"id":"wbs-24","name":"Tributo","city":"Quito","country":"Ecuador","emoji":"🥩","kind":"steakhouse","rank":24,"award":"World's Best Steaks #24","sourceUrl":"https://www.worldbeststeaks.com/2026-list-1-101/tributo","shows":["Y2026"],"primaryShow":"Y2026","profileId":"Y2026","visits":[]}},{"type":"Feature","geometry":{"type":"Point","coordinates":[-122.386491,37.768164]},"properties":{"id":"wbs-25","name":"Miller & Lux","city":"San Francisco","country":"United States","emoji":"🥩","kind":"steakhouse","rank":25,"award":"World's Best Steaks #25","sourceUrl":"https://www.worldbeststeaks.com/2026-list-1-101/miller-&-lux","shows":["Y2026"],"primaryShow":"Y2026","profileId":"Y2026","visits":[]}},{"type":"Feature","geometry":{"type":"Point","coordinates":[126.978291,37.566679]},"properties":{"id":"wbs-26","name":"Born & Bred","city":"Seoul","country":"South Korea","emoji":"🥩","kind":"steakhouse","rank":26,"award":"World's Best Steaks #26","sourceUrl":"https://www.worldbeststeaks.com/2026-list-1-101/born-&-bred","shows":["Y2026"],"primaryShow":"Y2026","profileId":"Y2026","visits":[]}},{"type":"Feature","geometry":{"type":"Point","coordinates":[151.24138,-33.877369]},"properties":{"id":"wbs-27","name":"Gran Torino","city":"Sydney","country":"Australia","emoji":"🥩","kind":"steakhouse","rank":27,"award":"World's Best Steaks #27","sourceUrl":"https://www.worldbeststeaks.com/2026-list-1-101/gran-torino","shows":["Y2026"],"primaryShow":"Y2026","profileId":"Y2026","visits":[]}},{"type":"Feature","geometry":{"type":"Point","coordinates":[55.188539,25.074282]},"properties":{"id":"wbs-28","name":"Hanu","city":"Dubai","country":"United Arab Emirates","emoji":"🥩","kind":"steakhouse","rank":28,"award":"World's Best Steaks #28","sourceUrl":"https://www.worldbeststeaks.com/2026-list-1-101/hanu","shows":["Y2026"],"primaryShow":"Y2026","profileId":"Y2026","visits":[]}},{"type":"Feature","geometry":{"type":"Point","coordinates":[145.126203,-37.817714]},"properties":{"id":"wbs-29","name":"Steer Dining Room","city":"Melbourne","country":"Australia","emoji":"🥩","kind":"steakhouse","rank":29,"award":"World's Best Steaks #29","sourceUrl":"https://www.worldbeststeaks.com/2026-list-1-101/steer-dining-room","shows":["Y2026"],"primaryShow":"Y2026","profileId":"Y2026","visits":[]}},{"type":"Feature","geometry":{"type":"Point","coordinates":[103.819499,1.357107]},"properties":{"id":"wbs-30","name":"Nikuya Tanaka","city":"Singapore","country":"Singapore","emoji":"🥩","kind":"steakhouse","rank":30,"award":"World's Best Steaks #30","sourceUrl":"https://www.worldbeststeaks.com/2026-list-1-101/nikuya-tanaka","shows":["Y2026"],"primaryShow":"Y2026","profileId":"Y2026","visits":[]}},{"type":"Feature","geometry":{"type":"Point","coordinates":[144.963173,-37.814245]},"properties":{"id":"wbs-31","name":"Victor Churchill","city":"Melbourne","country":"Australia","emoji":"🥩","kind":"steakhouse","rank":31,"award":"World's Best Steaks #31","sourceUrl":"https://www.worldbeststeaks.com/2026-list-1-101/victor-churchill","shows":["Y2026"],"primaryShow":"Y2026","profileId":"Y2026","visits":[]}},{"type":"Feature","geometry":{"type":"Point","coordinates":[-123.121377,49.275919]},"properties":{"id":"wbs-32","name":"Elisa","city":"Vancouver","country":"Canada","emoji":"🥩","kind":"steakhouse","rank":32,"award":"World's Best Steaks #32","sourceUrl":"https://www.worldbeststeaks.com/2026-list-1-101/elisa","shows":["Y2026"],"primaryShow":"Y2026","profileId":"Y2026","visits":[]}},{"type":"Feature","geometry":{"type":"Point","coordinates":[151.117737,-33.98979]},"properties":{"id":"wbs-33","name":"The Grill at the International","city":"Sydney","country":"Australia","emoji":"🥩","kind":"steakhouse","rank":33,"award":"World's Best Steaks #33","sourceUrl":"https://www.worldbeststeaks.com/2026-list-1-101/the-grill-at-the-international","shows":["Y2026"],"primaryShow":"Y2026","profileId":"Y2026","visits":[]}},{"type":"Feature","geometry":{"type":"Point","coordinates":[-74.006015,40.712728]},"properties":{"id":"wbs-34","name":"La Tête D’or","city":"New York","country":"United States","emoji":"🥩","kind":"steakhouse","rank":34,"award":"World's Best Steaks #34","sourceUrl":"https://www.worldbeststeaks.com/2026-list-1-101/la-tête-d’or","shows":["Y2026"],"primaryShow":"Y2026","profileId":"Y2026","visits":[]}},{"type":"Feature","geometry":{"type":"Point","coordinates":[-0.127765,51.507446]},"properties":{"id":"wbs-35","name":"Lutyens Grill","city":"London","country":"United Kingdom","emoji":"🥩","kind":"steakhouse","rank":35,"award":"World's Best Steaks #35","sourceUrl":"https://www.worldbeststeaks.com/2026-list-1-101/lutyens-grill","shows":["Y2026"],"primaryShow":"Y2026","profileId":"Y2026","visits":[]}},{"type":"Feature","geometry":{"type":"Point","coordinates":[151.210277,-33.890703]},"properties":{"id":"wbs-36","name":"Porteño","city":"Sydney","country":"Australia","emoji":"🥩","kind":"steakhouse","rank":36,"award":"World's Best Steaks #36","sourceUrl":"https://www.worldbeststeaks.com/2026-list-1-101/porteño","shows":["Y2026"],"primaryShow":"Y2026","profileId":"Y2026","visits":[]}},{"type":"Feature","geometry":{"type":"Point","coordinates":[-2.073517,43.135504]},"properties":{"id":"wbs-37","name":"Asador Nicolás","city":"Tolosa","country":"Spain","emoji":"🥩","kind":"steakhouse","rank":37,"award":"World's Best Steaks #37","sourceUrl":"https://www.worldbeststeaks.com/2026-list-1-101/asador-nicolás","shows":["Y2026"],"primaryShow":"Y2026","profileId":"Y2026","visits":[]}},{"type":"Feature","geometry":{"type":"Point","coordinates":[151.316579,-33.678667]},"properties":{"id":"wbs-38","name":"Rockpool Bar & Grill","city":"Sydney","country":"Australia","emoji":"🥩","kind":"steakhouse","rank":38,"award":"World's Best Steaks #38","sourceUrl":"https://www.worldbeststeaks.com/2026-list-1-101/rockpool","shows":["Y2026"],"primaryShow":"Y2026","profileId":"Y2026","visits":[]}},{"type":"Feature","geometry":{"type":"Point","coordinates":[9.584606,45.613372]},"properties":{"id":"wbs-39","name":"La Braseria","city":"Osio Sotto","country":"Italy","emoji":"🥩","kind":"steakhouse","rank":39,"award":"World's Best Steaks #39","sourceUrl":"https://www.worldbeststeaks.com/2026-list-1-101/la-braseria","shows":["Y2026"],"primaryShow":"Y2026","profileId":"Y2026","visits":[]}},{"type":"Feature","geometry":{"type":"Point","coordinates":[-80.193597,25.774157]},"properties":{"id":"wbs-40","name":"Daniel’s","city":"Miami","country":"United States","emoji":"🥩","kind":"steakhouse","rank":40,"award":"World's Best Steaks #40","sourceUrl":"https://www.worldbeststeaks.com/2026-list-1-101/daniel’s-miami","shows":["Y2026"],"primaryShow":"Y2026","profileId":"Y2026","visits":[]}},{"type":"Feature","geometry":{"type":"Point","coordinates":[-118.333393,34.097801]},"properties":{"id":"wbs-41","name":"Gwen","city":"Los Angeles","country":"United States","emoji":"🥩","kind":"steakhouse","rank":41,"award":"World's Best Steaks #41","sourceUrl":"https://www.worldbeststeaks.com/2026-list-1-101/gwen","shows":["Y2026"],"primaryShow":"Y2026","profileId":"Y2026","visits":[]}},{"type":"Feature","geometry":{"type":"Point","coordinates":[-3.390154,51.525189]},"properties":{"id":"wbs-42","name":"Blok","city":"Pontyclun","country":"United Kingdom","emoji":"🥩","kind":"steakhouse","rank":42,"award":"World's Best Steaks #42","sourceUrl":"https://www.worldbeststeaks.com/2026-list-1-101/blok","shows":["Y2026"],"primaryShow":"Y2026","profileId":"Y2026","visits":[]}},{"type":"Feature","geometry":{"type":"Point","coordinates":[12.570248,55.676233]},"properties":{"id":"wbs-43","name":"Capa","city":"Copenhagen","country":"Denmark","emoji":"🥩","kind":"steakhouse","rank":43,"award":"World's Best Steaks #43","sourceUrl":"https://www.worldbeststeaks.com/2026-list-1-101/capa","shows":["Y2026"],"primaryShow":"Y2026","profileId":"Y2026","visits":[]}},{"type":"Feature","geometry":{"type":"Point","coordinates":[-2.932261,43.262871]},"properties":{"id":"wbs-44","name":"Amaren","city":"Bilbao","country":"Spain","emoji":"🥩","kind":"steakhouse","rank":44,"award":"World's Best Steaks #44","sourceUrl":"https://www.worldbeststeaks.com/2026-list-1-101/amaren","shows":["Y2026"],"primaryShow":"Y2026","profileId":"Y2026","visits":[]}},{"type":"Feature","geometry":{"type":"Point","coordinates":[-0.149014,51.446902]},"properties":{"id":"wbs-45","name":"The Devonshire","city":"London","country":"United Kingdom","emoji":"🥩","kind":"steakhouse","rank":45,"award":"World's Best Steaks #45","sourceUrl":"https://www.worldbeststeaks.com/2026-list-1-101/the-devonshire","shows":["Y2026"],"primaryShow":"Y2026","profileId":"Y2026","visits":[]}},{"type":"Feature","geometry":{"type":"Point","coordinates":[-16.621447,28.293578]},"properties":{"id":"wbs-46","name":"Char Fuego y Brasas","city":"Tenerife","country":"Spain","emoji":"🥩","kind":"steakhouse","rank":46,"award":"World's Best Steaks #46","sourceUrl":"https://www.worldbeststeaks.com/2026-list-1-101/char","shows":["Y2026"],"primaryShow":"Y2026","profileId":"Y2026","visits":[]}},{"type":"Feature","geometry":{"type":"Point","coordinates":[-58.38879,-34.609558]},"properties":{"id":"wbs-47","name":"Madre Rojas","city":"Buenos Aires","country":"Argentina","emoji":"🥩","kind":"steakhouse","rank":47,"award":"World's Best Steaks #47","sourceUrl":"https://www.worldbeststeaks.com/2026-list-1-101/madre-rojas","shows":["Y2026"],"primaryShow":"Y2026","profileId":"Y2026","visits":[]}},{"type":"Feature","geometry":{"type":"Point","coordinates":[151.208285,-33.869844]},"properties":{"id":"wbs-48","name":"The Gidley","city":"Sydney","country":"Australia","emoji":"🥩","kind":"steakhouse","rank":48,"award":"World's Best Steaks #48","sourceUrl":"https://www.worldbeststeaks.com/2026-list-1-101/the-gidley","shows":["Y2026"],"primaryShow":"Y2026","profileId":"Y2026","visits":[]}},{"type":"Feature","geometry":{"type":"Point","coordinates":[-122.403501,37.769696]},"properties":{"id":"wbs-49","name":"Niku Steakhouse","city":"San Francisco","country":"United States","emoji":"🥩","kind":"steakhouse","rank":49,"award":"World's Best Steaks #49","sourceUrl":"https://www.worldbeststeaks.com/2026-list-1-101/niku","shows":["Y2026"],"primaryShow":"Y2026","profileId":"Y2026","visits":[]}},{"type":"Feature","geometry":{"type":"Point","coordinates":[7.421626,43.727811]},"properties":{"id":"wbs-50","name":"Beefbar","city":"Monaco","country":"Monaco","emoji":"🥩","kind":"steakhouse","rank":50,"award":"World's Best Steaks #50","sourceUrl":"https://www.worldbeststeaks.com/2026-list-1-101/beefbar","shows":["Y2026"],"primaryShow":"Y2026","profileId":"Y2026","visits":[]}},{"type":"Feature","geometry":{"type":"Point","coordinates":[-79.39797,43.645439]},"properties":{"id":"wbs-51","name":"Jacobs & Co Steakhouse","city":"Toronto","country":"Canada","emoji":"🥩","kind":"steakhouse","rank":51,"award":"World's Best Steaks #51","sourceUrl":"https://www.worldbeststeaks.com/2026-list-1-101/jacobs-&-co","shows":["Y2026"],"primaryShow":"Y2026","profileId":"Y2026","visits":[]}},{"type":"Feature","geometry":{"type":"Point","coordinates":[18.869167,-33.934444]},"properties":{"id":"wbs-52","name":"Vuur","city":"Stellenbosch","country":"South Africa","emoji":"🥩","kind":"steakhouse","rank":52,"award":"World's Best Steaks #52","sourceUrl":"https://www.worldbeststeaks.com/2026-list-1-101/vuur","shows":["Y2026"],"primaryShow":"Y2026","profileId":"Y2026","visits":[]}},{"type":"Feature","geometry":{"type":"Point","coordinates":[2.348336,48.86304]},"properties":{"id":"wbs-53","name":"Clover Grill","city":"Paris","country":"France","emoji":"🥩","kind":"steakhouse","rank":53,"award":"World's Best Steaks #53","sourceUrl":"https://www.worldbeststeaks.com/2026-list-1-101/clover","shows":["Y2026"],"primaryShow":"Y2026","profileId":"Y2026","visits":[]}},{"type":"Feature","geometry":{"type":"Point","coordinates":[-58.382574,-34.590572]},"properties":{"id":"wbs-54","name":"Elena","city":"Buenos Aires","country":"Argentina","emoji":"🥩","kind":"steakhouse","rank":54,"award":"World's Best Steaks #54","sourceUrl":"https://www.worldbeststeaks.com/2026-list-1-101/elena","shows":["Y2026"],"primaryShow":"Y2026","profileId":"Y2026","visits":[]}},{"type":"Feature","geometry":{"type":"Point","coordinates":[-0.127765,51.507446]},"properties":{"id":"wbs-55","name":"Chelsea Grill","city":"London","country":"United Kingdom","emoji":"🥩","kind":"steakhouse","rank":55,"award":"World's Best Steaks #55","sourceUrl":"https://www.worldbeststeaks.com/2026-list-1-101/chelsea-grill","shows":["Y2026"],"primaryShow":"Y2026","profileId":"Y2026","visits":[]}},{"type":"Feature","geometry":{"type":"Point","coordinates":[2.348391,48.853495]},"properties":{"id":"wbs-56","name":"Anahi","city":"Paris","country":"France","emoji":"🥩","kind":"steakhouse","rank":56,"award":"World's Best Steaks #56","sourceUrl":"https://www.worldbeststeaks.com/2026-list-1-101/anahi","shows":["Y2026"],"primaryShow":"Y2026","profileId":"Y2026","visits":[]}},{"type":"Feature","geometry":{"type":"Point","coordinates":[-3.694832,40.423862]},"properties":{"id":"wbs-57","name":"Los 33","city":"Madrid","country":"Spain","emoji":"🥩","kind":"steakhouse","rank":57,"award":"World's Best Steaks #57","sourceUrl":"https://www.worldbeststeaks.com/2026-list-1-101/los-33","shows":["Y2026"],"primaryShow":"Y2026","profileId":"Y2026","visits":[]}},{"type":"Feature","geometry":{"type":"Point","coordinates":[-97.759168,30.280441]},"properties":{"id":"wbs-58","name":"Jeffrey’s","city":"Austin","country":"United States","emoji":"🥩","kind":"steakhouse","rank":58,"award":"World's Best Steaks #58","sourceUrl":"https://www.worldbeststeaks.com/2026-list-1-101/jeffrey’s","shows":["Y2026"],"primaryShow":"Y2026","profileId":"Y2026","visits":[]}},{"type":"Feature","geometry":{"type":"Point","coordinates":[151.208285,-33.869844]},"properties":{"id":"wbs-59","name":"20 Chapel","city":"Sydney","country":"Australia","emoji":"🥩","kind":"steakhouse","rank":59,"award":"World's Best Steaks #59","sourceUrl":"https://www.worldbeststeaks.com/2026-list-1-101/20-chapel","shows":["Y2026"],"primaryShow":"Y2026","profileId":"Y2026","visits":[]}},{"type":"Feature","geometry":{"type":"Point","coordinates":[55.188539,25.074282]},"properties":{"id":"wbs-60","name":"11Woodfire","city":"Dubai","country":"United Arab Emirates","emoji":"🥩","kind":"steakhouse","rank":60,"award":"World's Best Steaks #60","sourceUrl":"https://www.worldbeststeaks.com/2026-list-1-101/11woodfire","shows":["Y2026"],"primaryShow":"Y2026","profileId":"Y2026","visits":[]}},{"type":"Feature","geometry":{"type":"Point","coordinates":[151.208285,-33.869844]},"properties":{"id":"wbs-61","name":"Magma by Dany Karam","city":"Sydney","country":"Australia","emoji":"🥩","kind":"steakhouse","rank":61,"award":"World's Best Steaks #61","sourceUrl":"https://www.worldbeststeaks.com/2026-list-1-101/magma","shows":["Y2026"],"primaryShow":"Y2026","profileId":"Y2026","visits":[]}},{"type":"Feature","geometry":{"type":"Point","coordinates":[144.969307,-37.81588]},"properties":{"id":"wbs-62","name":"Gimlet","city":"Melbourne","country":"Australia","emoji":"🥩","kind":"steakhouse","rank":62,"award":"World's Best Steaks #62","sourceUrl":"https://www.worldbeststeaks.com/2026-list-1-101/gimlet","shows":["Y2026"],"primaryShow":"Y2026","profileId":"Y2026","visits":[]}},{"type":"Feature","geometry":{"type":"Point","coordinates":[-79.383935,43.653482]},"properties":{"id":"wbs-63","name":"Linny’s","city":"Toronto","country":"Canada","emoji":"🥩","kind":"steakhouse","rank":63,"award":"World's Best Steaks #63","sourceUrl":"https://www.worldbeststeaks.com/2026-list-1-101/linny’s","shows":["Y2026"],"primaryShow":"Y2026","profileId":"Y2026","visits":[]}},{"type":"Feature","geometry":{"type":"Point","coordinates":[8.545033,47.368269]},"properties":{"id":"wbs-64","name":"Williams Butcherstable","city":"Zurich","country":"Switzerland","emoji":"🥩","kind":"steakhouse","rank":64,"award":"World's Best Steaks #64","sourceUrl":"https://www.worldbeststeaks.com/2026-list-1-101/williams-butcherstable","shows":["Y2026"],"primaryShow":"Y2026","profileId":"Y2026","visits":[]}},{"type":"Feature","geometry":{"type":"Point","coordinates":[-83.049165,42.332387]},"properties":{"id":"wbs-65","name":"Prime+Proper","city":"Detroit","country":"United States","emoji":"🥩","kind":"steakhouse","rank":65,"award":"World's Best Steaks #65","sourceUrl":"https://www.worldbeststeaks.com/2026-list-1-101/prime+proper","shows":["Y2026"],"primaryShow":"Y2026","profileId":"Y2026","visits":[]}},{"type":"Feature","geometry":{"type":"Point","coordinates":[13.38844,52.522563]},"properties":{"id":"wbs-66","name":"Grill Royal","city":"Berlin","country":"Germany","emoji":"🥩","kind":"steakhouse","rank":66,"award":"World's Best Steaks #66","sourceUrl":"https://www.worldbeststeaks.com/2026-list-1-101/grill-royal","shows":["Y2026"],"primaryShow":"Y2026","profileId":"Y2026","visits":[]}},{"type":"Feature","geometry":{"type":"Point","coordinates":[-74.010156,40.719127]},"properties":{"id":"wbs-67","name":"American Cut","city":"New York","country":"United States","emoji":"🥩","kind":"steakhouse","rank":67,"award":"World's Best Steaks #67","sourceUrl":"https://www.worldbeststeaks.com/2026-list-1-101/american-cut","shows":["Y2026"],"primaryShow":"Y2026","profileId":"Y2026","visits":[]}},{"type":"Feature","geometry":{"type":"Point","coordinates":[-73.986409,40.750773]},"properties":{"id":"wbs-68","name":"Keens Steakhouse","city":"New York","country":"United States","emoji":"🥩","kind":"steakhouse","rank":68,"award":"World's Best Steaks #68","sourceUrl":"https://www.worldbeststeaks.com/2026-list-1-101/keens-steakhouse","shows":["Y2026"],"primaryShow":"Y2026","profileId":"Y2026","visits":[]}},{"type":"Feature","geometry":{"type":"Point","coordinates":[18.073635,59.336738]},"properties":{"id":"wbs-69","name":"Sperling & Co.","city":"Stockholm","country":"Sweden","emoji":"🥩","kind":"steakhouse","rank":69,"award":"World's Best Steaks #69","sourceUrl":"https://www.worldbeststeaks.com/2026-list-1-101/sperling-&-co.","shows":["Y2026"],"primaryShow":"Y2026","profileId":"Y2026","visits":[]}},{"type":"Feature","geometry":{"type":"Point","coordinates":[-74.006015,40.712728]},"properties":{"id":"wbs-70","name":"Txula Steak","city":"New York","country":"United States","emoji":"🥩","kind":"steakhouse","rank":70,"award":"World's Best Steaks #70","sourceUrl":"https://www.worldbeststeaks.com/2026-list-1-101/txula-steak","shows":["Y2026"],"primaryShow":"Y2026","profileId":"Y2026","visits":[]}},{"type":"Feature","geometry":{"type":"Point","coordinates":[-74.006015,40.712728]},"properties":{"id":"wbs-71","name":"Bazaar Meat by José Andrés","city":"New York","country":"United States","emoji":"🥩","kind":"steakhouse","rank":71,"award":"World's Best Steaks #71","sourceUrl":"https://www.worldbeststeaks.com/2026-list-1-101/bazaar-meat","shows":["Y2026"],"primaryShow":"Y2026","profileId":"Y2026","visits":[]}},{"type":"Feature","geometry":{"type":"Point","coordinates":[23.734832,37.975565]},"properties":{"id":"wbs-72","name":"Brutus Tavern","city":"Athens","country":"Greece","emoji":"🥩","kind":"steakhouse","rank":72,"award":"World's Best Steaks #72","sourceUrl":"https://www.worldbeststeaks.com/2026-list-1-101/brutus-tavern","shows":["Y2026"],"primaryShow":"Y2026","profileId":"Y2026","visits":[]}},{"type":"Feature","geometry":{"type":"Point","coordinates":[-87.652432,41.886969]},"properties":{"id":"wbs-73","name":"Swift & Sons","city":"Chicago","country":"United States","emoji":"🥩","kind":"steakhouse","rank":73,"award":"World's Best Steaks #73","sourceUrl":"https://www.worldbeststeaks.com/2026-list-1-101/swift-&-sons","shows":["Y2026"],"primaryShow":"Y2026","profileId":"Y2026","visits":[]}},{"type":"Feature","geometry":{"type":"Point","coordinates":[4.388806,51.210618]},"properties":{"id":"wbs-74","name":"Maven","city":"Antwerp","country":"Belgium","emoji":"🥩","kind":"steakhouse","rank":74,"award":"World's Best Steaks #74","sourceUrl":"https://www.worldbeststeaks.com/2026-list-1-101/maven","shows":["Y2026"],"primaryShow":"Y2026","profileId":"Y2026","visits":[]}},{"type":"Feature","geometry":{"type":"Point","coordinates":[11.230244,43.796474]},"properties":{"id":"wbs-75","name":"Regina Bistecca","city":"Florence","country":"Italy","emoji":"🥩","kind":"steakhouse","rank":75,"award":"World's Best Steaks #75","sourceUrl":"https://www.worldbeststeaks.com/2026-list-1-101/regina-bistecca","shows":["Y2026"],"primaryShow":"Y2026","profileId":"Y2026","visits":[]}},{"type":"Feature","geometry":{"type":"Point","coordinates":[100.328735,5.414162]},"properties":{"id":"wbs-76","name":"Firewood","city":"George Town","country":"Malaysia","emoji":"🥩","kind":"steakhouse","rank":76,"award":"World's Best Steaks #76","sourceUrl":"https://www.worldbeststeaks.com/2026-list-1-101/firewood","shows":["Y2026"],"primaryShow":"Y2026","profileId":"Y2026","visits":[]}},{"type":"Feature","geometry":{"type":"Point","coordinates":[153.023501,-27.468962]},"properties":{"id":"wbs-77","name":"Sk Steak & Oyster","city":"Brisbane","country":"Australia","emoji":"🥩","kind":"steakhouse","rank":77,"award":"World's Best Steaks #77","sourceUrl":"https://www.worldbeststeaks.com/2026-list-1-101/sk-steak-&-oyster","shows":["Y2026"],"primaryShow":"Y2026","profileId":"Y2026","visits":[]}},{"type":"Feature","geometry":{"type":"Point","coordinates":[114.185798,22.349215]},"properties":{"id":"wbs-78","name":"Carna by Dario Cecchini","city":"Hong Kong","country":"China","emoji":"🥩","kind":"steakhouse","rank":78,"award":"World's Best Steaks #78","sourceUrl":"https://www.worldbeststeaks.com/2026-list-1-101/carna-by-dario-cecchini","shows":["Y2026"],"primaryShow":"Y2026","profileId":"Y2026","visits":[]}},{"type":"Feature","geometry":{"type":"Point","coordinates":[144.963173,-37.814245]},"properties":{"id":"wbs-79","name":"Matilda 159 Domain","city":"Melbourne","country":"Australia","emoji":"🥩","kind":"steakhouse","rank":79,"award":"World's Best Steaks #79","sourceUrl":"https://www.worldbeststeaks.com/2026-list-1-101/matilda-159-domain","shows":["Y2026"],"primaryShow":"Y2026","profileId":"Y2026","visits":[]}},{"type":"Feature","geometry":{"type":"Point","coordinates":[114.173922,22.293363]},"properties":{"id":"wbs-80","name":"The Steak House","city":"Hong Kong","country":"China","emoji":"🥩","kind":"steakhouse","rank":80,"award":"World's Best Steaks #80","sourceUrl":"https://www.worldbeststeaks.com/2026-list-1-101/the-steak-house","shows":["Y2026"],"primaryShow":"Y2026","profileId":"Y2026","visits":[]}},{"type":"Feature","geometry":{"type":"Point","coordinates":[144.967745,-37.814091]},"properties":{"id":"wbs-81","name":"Meatmaiden","city":"Melbourne","country":"Australia","emoji":"🥩","kind":"steakhouse","rank":81,"award":"World's Best Steaks #81","sourceUrl":"https://www.worldbeststeaks.com/2026-list-1-101/meatmaiden","shows":["Y2026"],"primaryShow":"Y2026","profileId":"Y2026","visits":[]}},{"type":"Feature","geometry":{"type":"Point","coordinates":[-58.366884,-34.602399]},"properties":{"id":"wbs-82","name":"Happening Costanera","city":"Buenos Aires","country":"Argentina","emoji":"🥩","kind":"steakhouse","rank":82,"award":"World's Best Steaks #82","sourceUrl":"https://www.worldbeststeaks.com/2026-list-1-101/happening","shows":["Y2026"],"primaryShow":"Y2026","profileId":"Y2026","visits":[]}},{"type":"Feature","geometry":{"type":"Point","coordinates":[103.819499,1.357107]},"properties":{"id":"wbs-83","name":"Shatōburian","city":"Singapore","country":"Singapore","emoji":"🥩","kind":"steakhouse","rank":83,"award":"World's Best Steaks #83","sourceUrl":"https://www.worldbeststeaks.com/2026-list-1-101/shatōburian","shows":["Y2026"],"primaryShow":"Y2026","profileId":"Y2026","visits":[]}},{"type":"Feature","geometry":{"type":"Point","coordinates":[-73.987767,40.691467]},"properties":{"id":"wbs-84","name":"Gage & Tollner","city":"New York","country":"United States","emoji":"🥩","kind":"steakhouse","rank":84,"award":"World's Best Steaks #84","sourceUrl":"https://www.worldbeststeaks.com/2026-list-1-101/gage-&-tollner","shows":["Y2026"],"primaryShow":"Y2026","profileId":"Y2026","visits":[]}},{"type":"Feature","geometry":{"type":"Point","coordinates":[151.208285,-33.869844]},"properties":{"id":"wbs-85","name":"Shell House Dining Room & Terrace","city":"Sydney","country":"Australia","emoji":"🥩","kind":"steakhouse","rank":85,"award":"World's Best Steaks #85","sourceUrl":"https://www.worldbeststeaks.com/2026-list-1-101/shell-house","shows":["Y2026"],"primaryShow":"Y2026","profileId":"Y2026","visits":[]}},{"type":"Feature","geometry":{"type":"Point","coordinates":[16.348785,48.211827]},"properties":{"id":"wbs-86","name":"Beef & Glory","city":"Vienna","country":"Austria","emoji":"🥩","kind":"steakhouse","rank":86,"award":"World's Best Steaks #86","sourceUrl":"https://www.worldbeststeaks.com/2026-list-1-101/beef-&-glory","shows":["Y2026"],"primaryShow":"Y2026","profileId":"Y2026","visits":[]}},{"type":"Feature","geometry":{"type":"Point","coordinates":[-73.983832,40.762853]},"properties":{"id":"wbs-87","name":"Gallaghers","city":"New York","country":"United States","emoji":"🥩","kind":"steakhouse","rank":87,"award":"World's Best Steaks #87","sourceUrl":"https://www.worldbeststeaks.com/2026-list-1-101/gallaghers","shows":["Y2026"],"primaryShow":"Y2026","profileId":"Y2026","visits":[]}},{"type":"Feature","geometry":{"type":"Point","coordinates":[103.841388,1.293247]},"properties":{"id":"wbs-88","name":"Bistecca Tuscan Steakhouse","city":"Singapore","country":"Singapore","emoji":"🥩","kind":"steakhouse","rank":88,"award":"World's Best Steaks #88","sourceUrl":"https://www.worldbeststeaks.com/2026-list-1-101/bistecca-tuscan-steakhouse","shows":["Y2026"],"primaryShow":"Y2026","profileId":"Y2026","visits":[]}},{"type":"Feature","geometry":{"type":"Point","coordinates":[24.943541,60.16662]},"properties":{"id":"wbs-89","name":"The Grand Bar & Grill","city":"Helsinki","country":"Finland","emoji":"🥩","kind":"steakhouse","rank":89,"award":"World's Best Steaks #89","sourceUrl":"https://www.worldbeststeaks.com/2026-list-1-101/the-grand","shows":["Y2026"],"primaryShow":"Y2026","profileId":"Y2026","visits":[]}},{"type":"Feature","geometry":{"type":"Point","coordinates":[-0.127765,51.507446]},"properties":{"id":"wbs-90","name":"Sagardi","city":"London","country":"United Kingdom","emoji":"🥩","kind":"steakhouse","rank":90,"award":"World's Best Steaks #90","sourceUrl":"https://www.worldbeststeaks.com/2026-list-1-101/sagardi","shows":["Y2026"],"primaryShow":"Y2026","profileId":"Y2026","visits":[]}},{"type":"Feature","geometry":{"type":"Point","coordinates":[-79.2469,43.1594]},"properties":{"id":"wbs-91","name":"Fat Rabbit","city":"Saint Catharines","country":"Canada","emoji":"🥩","kind":"steakhouse","rank":91,"award":"World's Best Steaks #91","sourceUrl":"https://www.worldbeststeaks.com/2026-list-1-101/fat-rabbit","shows":["Y2026"],"primaryShow":"Y2026","profileId":"Y2026","visits":[]}},{"type":"Feature","geometry":{"type":"Point","coordinates":[2.166919,41.381553]},"properties":{"id":"wbs-92","name":"Carnal Steakhouse","city":"Barcelona","country":"Spain","emoji":"🥩","kind":"steakhouse","rank":92,"award":"World's Best Steaks #92","sourceUrl":"https://www.worldbeststeaks.com/2026-list-1-101/carnal","shows":["Y2026"],"primaryShow":"Y2026","profileId":"Y2026","visits":[]}},{"type":"Feature","geometry":{"type":"Point","coordinates":[151.208285,-33.869844]},"properties":{"id":"wbs-93","name":"The Cut Bar & Grill","city":"Sydney","country":"Australia","emoji":"🥩","kind":"steakhouse","rank":93,"award":"World's Best Steaks #93","sourceUrl":"https://www.worldbeststeaks.com/2026-list-1-101/the-cut","shows":["Y2026"],"primaryShow":"Y2026","profileId":"Y2026","visits":[]}},{"type":"Feature","geometry":{"type":"Point","coordinates":[106.827168,-6.175405]},"properties":{"id":"wbs-94","name":"Soichiro","city":"Jakarta","country":"Indonesia","emoji":"🥩","kind":"steakhouse","rank":94,"award":"World's Best Steaks #94","sourceUrl":"https://www.worldbeststeaks.com/2026-list-1-101/soichiro-steakhouse","shows":["Y2026"],"primaryShow":"Y2026","profileId":"Y2026","visits":[]}},{"type":"Feature","geometry":{"type":"Point","coordinates":[144.970676,-37.815291]},"properties":{"id":"wbs-95","name":"Grill Americano","city":"Melbourne","country":"Australia","emoji":"🥩","kind":"steakhouse","rank":95,"award":"World's Best Steaks #95","sourceUrl":"https://www.worldbeststeaks.com/2026-list-1-101/grill-americano","shows":["Y2026"],"primaryShow":"Y2026","profileId":"Y2026","visits":[]}},{"type":"Feature","geometry":{"type":"Point","coordinates":[-0.127765,51.507446]},"properties":{"id":"wbs-96","name":"Zoilo","city":"London","country":"United Kingdom","emoji":"🥩","kind":"steakhouse","rank":96,"award":"World's Best Steaks #96","sourceUrl":"https://www.worldbeststeaks.com/2026-list-1-101/zoilo","shows":["Y2026"],"primaryShow":"Y2026","profileId":"Y2026","visits":[]}},{"type":"Feature","geometry":{"type":"Point","coordinates":[151.208285,-33.869844]},"properties":{"id":"wbs-97","name":"Bistecca","city":"Sydney","country":"Australia","emoji":"🥩","kind":"steakhouse","rank":97,"award":"World's Best Steaks #97","sourceUrl":"https://www.worldbeststeaks.com/2026-list-1-101/bistecca","shows":["Y2026"],"primaryShow":"Y2026","profileId":"Y2026","visits":[]}},{"type":"Feature","geometry":{"type":"Point","coordinates":[28.049722,-26.205]},"properties":{"id":"wbs-98","name":"The Blockman","city":"Johannesburg","country":"South Africa","emoji":"🥩","kind":"steakhouse","rank":98,"award":"World's Best Steaks #98","sourceUrl":"https://www.worldbeststeaks.com/2026-list-1-101/the-blockman","shows":["Y2026"],"primaryShow":"Y2026","profileId":"Y2026","visits":[]}},{"type":"Feature","geometry":{"type":"Point","coordinates":[-0.127765,51.507446]},"properties":{"id":"wbs-99","name":"The Guinea Grill","city":"London","country":"United Kingdom","emoji":"🥩","kind":"steakhouse","rank":99,"award":"World's Best Steaks #99","sourceUrl":"https://www.worldbeststeaks.com/2026-list-1-101/the-guinea-grill","shows":["Y2026"],"primaryShow":"Y2026","profileId":"Y2026","visits":[]}},{"type":"Feature","geometry":{"type":"Point","coordinates":[-122.421506,37.755361]},"properties":{"id":"wbs-100","name":"Izzy’s Steaks & Chops","city":"San Francisco","country":"United States","emoji":"🥩","kind":"steakhouse","rank":100,"award":"World's Best Steaks #100","sourceUrl":"https://www.worldbeststeaks.com/2026-list-1-101/izzy’s","shows":["Y2026"],"primaryShow":"Y2026","profileId":"Y2026","visits":[]}},{"type":"Feature","geometry":{"type":"Point","coordinates":[2.177073,41.38258]},"properties":{"id":"wbs-101","name":"Brabo","city":"Barcelona","country":"Spain","emoji":"🥩","kind":"steakhouse","rank":101,"award":"World's Best Steaks #101","sourceUrl":"https://www.worldbeststeaks.com/2026-list-1-101/brabo","shows":["Y2026"],"primaryShow":"Y2026","profileId":"Y2026","visits":[]}}]}